alias,categories_alias,categories_title,coordinates_latitude,coordinates_longitude,display_phone,distance,id,image_url,location_address1,location_address2,location_address3,location_city,location_country,location_state,location_zip_code,name,phone,price,rating,review_count,transactions,url
pho-ha-moreno-valley,['vietnamese'],['Vietnamese'],33.9167760313033,-117.228916858949,(951) 488-9898,1596.4844700981105,wC3iRNoY3wdQ-0NfI4UIsw,https://s3-media4.fl.yelpcdn.com/bphoto/yv8Tli4VfXwRmtRz9NLCFg/o.jpg,24853 Alessandro Blvd,Ste 3,,Moreno Valley,US,CA,92553,Pho Ha,+19514889898,$,3.5,401,[],https://www.yelp.com/biz/pho-ha-moreno-valley?adjust_creative=Wu9gfEkr1Iqmmu5UKQvcJw&utm_campaign=yelp_api_v3&utm_medium=api_v3_business_search&utm_source=Wu9gfEkr1Iqmmu5UKQvcJw
pho-le-vietnamese-restaurant-moreno-valley,['vietnamese'],['Vietnamese'],33.9362763,-117.264601,(951) 472-0430,2425.8114228632658,Mw9vjVPgp5_YpFveslrQiA,https://s3-media2.fl.yelpcdn.com/bphoto/6gzAuxtBUZPiX8aZaUA5HA/o.jpg,12625 Frederick St,Ste K6,,Moreno Valley,US,CA,92553,Pho Le Vietnamese Restaurant,+19514720430,,4.5,103,[],https://www.yelp.com/biz/pho-le-vietnamese-restaurant-moreno-valley?adjust_creative=Wu9gfEkr1Iqmmu5UKQvcJw&utm_campaign=yelp_api_v3&utm_medium=api_v3_business_search&utm_source=Wu9gfEkr1Iqmmu5UKQvcJw
pho-shack-noodles-and-grill-moreno-valley,"['vietnamese', 'soup']","['Vietnamese', 'Soup']",33.938002,-117.248156,(951) 243-6837,1494.6602786293897,yBGs8XfgCOLx25JLaK7EKA,https://s3-media1.fl.yelpcdn.com/bphoto/fRzjN90mZPa1jKnvowbDBg/o.jpg,23715 Sunnymead Blvd,Ste B,,Moreno Valley,US,CA,92553,Pho Shack Noodles & Grill,+19512436837,$,4.0,216,[],https://www.yelp.com/biz/pho-shack-noodles-and-grill-moreno-valley?adjust_creative=Wu9gfEkr1Iqmmu5UKQvcJw&utm_campaign=yelp_api_v3&utm_medium=api_v3_business_search&utm_source=Wu9gfEkr1Iqmmu5UKQvcJw
pho-ha-7-riverside-4,['vietnamese'],['Vietnamese'],33.93948,-117.28058,(951) 235-3377,3950.0275598188477,lBrCVdc48dDxrSnr1B9CpA,https://s3-media2.fl.yelpcdn.com/bphoto/KqSJKpoTtPhutrev14Fk8A/o.jpg,2851 Canyon Springs Pkwy,Ste C1,,Riverside,US,CA,92507,Pho Ha #7,+19512353377,$,4.0,78,[],https://www.yelp.com/biz/pho-ha-7-riverside-4?adjust_creative=Wu9gfEkr1Iqmmu5UKQvcJw&utm_campaign=yelp_api_v3&utm_medium=api_v3_business_search&utm_source=Wu9gfEkr1Iqmmu5UKQvcJw
pho-huynh-riverside,['vietnamese'],['Vietnamese'],33.9449917547207,-117.415257823375,(951) 354-2799,16231.565797363306,C7VheQF-xzdnBI_V1t4g-w,https://s3-media1.fl.yelpcdn.com/bphoto/zH18ni3sIth2NoWiRHflyg/o.jpg,5180 Arlington Ave,,,Riverside,US,CA,92504,Pho Huynh,+19513542799,$,4.0,284,[],https://www.yelp.com/biz/pho-huynh-riverside?adjust_creative=Wu9gfEkr1Iqmmu5UKQvcJw&utm_campaign=yelp_api_v3&utm_medium=api_v3_business_search&utm_source=Wu9gfEkr1Iqmmu5UKQvcJw
ocean-pho-riverside-2,['vietnamese'],['Vietnamese'],33.973105,-117.348653,(951) 742-5272,11259.578921130773,x4e_t11DRbwGGqWTAVwPqQ,https://s3-media1.fl.yelpcdn.com/bphoto/0eBn9HTbIB5OX-5XsaZ8pg/o.jpg,4069 Chicago Ave,,,Riverside,US,CA,92507,Ocean Pho,+19517425272,$$,4.5,24,[],https://www.yelp.com/biz/ocean-pho-riverside-2?adjust_creative=Wu9gfEkr1Iqmmu5UKQvcJw&utm_campaign=yelp_api_v3&utm_medium=api_v3_business_search&utm_source=Wu9gfEkr1Iqmmu5UKQvcJw
fontana-pho-fontana,['vietnamese'],['Vietnamese'],34.0755018608292,-117.437068037689,(909) 829-1571,24481.268547719865,v73-xzeLa8ibynQBE9DZEw,https://s3-media1.fl.yelpcdn.com/bphoto/z8IjVkl0b3qV0aUUVBac3g/o.jpg,9820 Sierra Ave,,,Fontana,US,CA,92335,Fontana Pho,+19098291571,$,4.0,484,[],https://www.yelp.com/biz/fontana-pho-fontana?adjust_creative=Wu9gfEkr1Iqmmu5UKQvcJw&utm_campaign=yelp_api_v3&utm_medium=api_v3_business_search&utm_source=Wu9gfEkr1Iqmmu5UKQvcJw
lees-sandwiches-riverside-7,"['vietnamese', 'coffee', 'sandwiches']","['Vietnamese', 'Coffee & Tea', 'Sandwiches']",33.9759789,-117.3525238,(951) 248-0108,11648.278279036049,PcD4HzI6eqmnekgeObI5Og,https://s3-media3.fl.yelpcdn.com/bphoto/GgDK6bcv4VUsjWnPBOmlog/o.jpg,1889 University Ave,,,Riverside,US,CA,92507,Lee's Sandwiches,+19512480108,$,4.0,361,"['delivery', 'pickup']",https://www.yelp.com/biz/lees-sandwiches-riverside-7?adjust_creative=Wu9gfEkr1Iqmmu5UKQvcJw&utm_campaign=yelp_api_v3&utm_medium=api_v3_business_search&utm_source=Wu9gfEkr1Iqmmu5UKQvcJw
pho-72-san-bernardino,"['vietnamese', 'asianfusion']","['Vietnamese', 'Asian Fusion']",34.0869799,-117.27937,(909) 890-4000,18092.230052553965,h7QdgQrnDXyGUvvkIa3Lvg,https://s3-media3.fl.yelpcdn.com/bphoto/Wl_4UbhUBRMKFA53vRItvg/o.jpg,738 S Waterman Ave,,,San Bernardino,US,CA,92408,Pho 72,+19098904000,$,4.5,105,[],https://www.yelp.com/biz/pho-72-san-bernardino?adjust_creative=Wu9gfEkr1Iqmmu5UKQvcJw&utm_campaign=yelp_api_v3&utm_medium=api_v3_business_search&utm_source=Wu9gfEkr1Iqmmu5UKQvcJw
pho-ha-7-riverside,"['vietnamese', 'noodles']","['Vietnamese', 'Noodles']",33.97515,-117.35112,(951) 680-0790,11511.00739415219,LHXtRkqjVzntX-sBZZEkzQ,https://s3-media2.fl.yelpcdn.com/bphoto/n_Sz4WquT042t-M-H3eDCg/o.jpg,1820 University Ave,Ste 101,,Riverside,US,CA,92507,Pho Ha #7,+19516800790,$,4.0,301,[],https://www.yelp.com/biz/pho-ha-7-riverside?adjust_creative=Wu9gfEkr1Iqmmu5UKQvcJw&utm_campaign=yelp_api_v3&utm_medium=api_v3_business_search&utm_source=Wu9gfEkr1Iqmmu5UKQvcJw
pho-vinam-riverside,['vietnamese'],['Vietnamese'],33.9763170939295,-117.337702150179,(951) 784-4290,10480.638001291958,l_dAHpFwN_1oZy_w_1jXpQ,https://s3-media2.fl.yelpcdn.com/bphoto/xwiTjy2EAvgkRqbIkVk3OA/o.jpg,1201 University Ave,Ste 107,,Riverside,US,CA,92507,Pho Vinam,+19517844290,$,3.0,532,[],https://www.yelp.com/biz/pho-vinam-riverside?adjust_creative=Wu9gfEkr1Iqmmu5UKQvcJw&utm_campaign=yelp_api_v3&utm_medium=api_v3_business_search&utm_source=Wu9gfEkr1Iqmmu5UKQvcJw
fusion-restaurant-and-bar-riverside,"['vietnamese', 'asianfusion', 'italian']","['Vietnamese', 'Asian Fusion', 'Italian']",33.95083,-117.39691,(951) 530-8272,14663.647630881345,Fv-gmnmnOiMjE6ZE45X4uw,https://s3-media2.fl.yelpcdn.com/bphoto/3yUXUEBqKF3RAwh9aHi0QA/o.jpg,6749 Brockton Ave,,,Riverside,US,CA,92506,Fusion Restaurant & Bar,+19515308272,$$,4.5,93,[],https://www.yelp.com/biz/fusion-restaurant-and-bar-riverside?adjust_creative=Wu9gfEkr1Iqmmu5UKQvcJw&utm_campaign=yelp_api_v3&utm_medium=api_v3_business_search&utm_source=Wu9gfEkr1Iqmmu5UKQvcJw
pho-ha-vietnamese-restaurant-fontana,['vietnamese'],['Vietnamese'],34.0729433369128,-117.435921636782,(909) 681-3193,24212.27257557646,PfpZzrHQPRSoF5cpzkHbWg,https://s3-media4.fl.yelpcdn.com/bphoto/0bwA9elQbLsdTD7y7xcB7g/o.jpg,9938 Sierra Ave,,,Fontana,US,CA,92335,Pho Ha Vietnamese Restaurant,+19096813193,$$,4.5,60,[],https://www.yelp.com/biz/pho-ha-vietnamese-restaurant-fontana?adjust_creative=Wu9gfEkr1Iqmmu5UKQvcJw&utm_campaign=yelp_api_v3&utm_medium=api_v3_business_search&utm_source=Wu9gfEkr1Iqmmu5UKQvcJw
t-pho-noodle-and-grill-fontana,"['vietnamese', 'noodles', 'beerbar']","['Vietnamese', 'Noodles', 'Beer Bar']",34.06051,-117.43604,(909) 355-3239,23302.90979847188,TwgK7MPlZGda9RHEFhSosw,https://s3-media1.fl.yelpcdn.com/bphoto/-6i_S7EATNo4VjMiaYrpKA/o.jpg,10664 Sierra Ave,,,Fontana,US,CA,92337,T-Pho Noodle and Grill,+19093553239,$,4.5,230,[],https://www.yelp.com/biz/t-pho-noodle-and-grill-fontana?adjust_creative=Wu9gfEkr1Iqmmu5UKQvcJw&utm_campaign=yelp_api_v3&utm_medium=api_v3_business_search&utm_source=Wu9gfEkr1Iqmmu5UKQvcJw
pho-ha-vietnamese-restaurant-san-bernardino,['vietnamese'],['Vietnamese'],34.0917892456055,-117.276741027832,(909) 383-3138,18570.241775649498,Ass6fu_-jbkpHc9Z7xU16A,https://s3-media1.fl.yelpcdn.com/bphoto/IDaKXualgHNpbxqIfHSQHg/o.jpg,385 E Mill St,Ste 5,,San Bernardino,US,CA,92408,Pho Ha Vietnamese Restaurant,+19093833138,$,3.5,217,[],https://www.yelp.com/biz/pho-ha-vietnamese-restaurant-san-bernardino?adjust_creative=Wu9gfEkr1Iqmmu5UKQvcJw&utm_campaign=yelp_api_v3&utm_medium=api_v3_business_search&utm_source=Wu9gfEkr1Iqmmu5UKQvcJw
pho-mai-san-bernardino,['vietnamese'],['Vietnamese'],34.09325,-117.27801,(909) 383-5038,18773.59917515422,c2obZslvN9p0K77fki7SeQ,https://s3-media2.fl.yelpcdn.com/bphoto/xv-shxZmdLREUsvlN6XigQ/o.jpg,433 S Waterman Ave,,,San Bernardino,US,CA,92408,Pho Mai,+19093835038,$,3.5,321,[],https://www.yelp.com/biz/pho-mai-san-bernardino?adjust_creative=Wu9gfEkr1Iqmmu5UKQvcJw&utm_campaign=yelp_api_v3&utm_medium=api_v3_business_search&utm_source=Wu9gfEkr1Iqmmu5UKQvcJw
a-dong-restaurant-ii-loma-linda,['vietnamese'],['Vietnamese'],34.062927,-117.244083,(909) 796-8840,15077.117049371984,5WP5dwiaONqqbXaQanvrng,https://s3-media4.fl.yelpcdn.com/bphoto/hH4OxT3J0Kbj1UoJkHHDDA/o.jpg,25685 Redlands Blvd,,,Loma Linda,US,CA,92354,A Dong Restaurant II,+19097968840,$$,3.5,223,[],https://www.yelp.com/biz/a-dong-restaurant-ii-loma-linda?adjust_creative=Wu9gfEkr1Iqmmu5UKQvcJw&utm_campaign=yelp_api_v3&utm_medium=api_v3_business_search&utm_source=Wu9gfEkr1Iqmmu5UKQvcJw
ocean-pho-yucaipa-2,['vietnamese'],['Vietnamese'],34.032992250516,-117.072625905275,(909) 797-3070,19437.97616461777,eHYvrmxwhyhqyI8StonKJw,https://s3-media2.fl.yelpcdn.com/bphoto/6UwOht9nK9GnD30YUUVh3A/o.jpg,33527 Yucaipa Blvd,Ste C3,,Yucaipa,US,CA,92399,Ocean Pho,+19097973070,$,4.0,215,[],https://www.yelp.com/biz/ocean-pho-yucaipa-2?adjust_creative=Wu9gfEkr1Iqmmu5UKQvcJw&utm_campaign=yelp_api_v3&utm_medium=api_v3_business_search&utm_source=Wu9gfEkr1Iqmmu5UKQvcJw
pho-noon-san-bernardino,['vietnamese'],['Vietnamese'],34.0914447564522,-117.316083312035,(909) 453-0882,19526.336616120752,MDu7LGAEvbdVc2lO5ZiL4w,https://s3-media3.fl.yelpcdn.com/bphoto/0Wy895SHFVFytSdxzUhJfw/o.jpg,1353 W Mill St,Ste 110,,San Bernardino,US,CA,92410,Pho Noon,+19094530882,$,4.5,51,"['delivery', 'pickup']",https://www.yelp.com/biz/pho-noon-san-bernardino?adjust_creative=Wu9gfEkr1Iqmmu5UKQvcJw&utm_campaign=yelp_api_v3&utm_medium=api_v3_business_search&utm_source=Wu9gfEkr1Iqmmu5UKQvcJw
pho-77-san-bernardino,['vietnamese'],['Vietnamese'],34.0689974613939,-117.262160805387,(909) 796-2277,15873.62696921417,u7rc3oZD8baGv0SIpSCI2A,https://s3-media1.fl.yelpcdn.com/bphoto/8MCfGhSJuuFFYfKWfd7WFg/o.jpg,1760 S Tippecanoe Ave,,,San Bernardino,US,CA,92408,Pho 77,+19097962277,$,3.5,224,[],https://www.yelp.com/biz/pho-77-san-bernardino?adjust_creative=Wu9gfEkr1Iqmmu5UKQvcJw&utm_campaign=yelp_api_v3&utm_medium=api_v3_business_search&utm_source=Wu9gfEkr1Iqmmu5UKQvcJw
vivi-eatery-riverside-4,"['panasian', 'sportsbars', 'comfortfood']","['Pan Asian', 'Sports Bars', 'Comfort Food']",33.974919,-117.341565,(951) 530-8875,10709.162963024202,3aZ8bD9oYX6zjjcPR5gI4w,https://s3-media2.fl.yelpcdn.com/bphoto/Jv2fGSpBTq2hHRO6zqjriA/o.jpg,1400 University Ave,Ste A101,,Riverside,US,CA,92507,VIVI EATERY,+19515308875,,4.5,38,[],https://www.yelp.com/biz/vivi-eatery-riverside-4?adjust_creative=Wu9gfEkr1Iqmmu5UKQvcJw&utm_campaign=yelp_api_v3&utm_medium=api_v3_business_search&utm_source=Wu9gfEkr1Iqmmu5UKQvcJw
ocean-pho-redlands-3,['vietnamese'],['Vietnamese'],34.0485218082392,-117.208396380456,(909) 793-6181,13795.23106416327,rrcWqPRVj8UrLTncHNkORw,https://s3-media4.fl.yelpcdn.com/bphoto/u0-joalTkz8bvsAbVkKZgw/o.jpg,1574 Barton Rd,,,Redlands,US,CA,92373,Ocean Pho,+19097936181,$,3.5,118,[],https://www.yelp.com/biz/ocean-pho-redlands-3?adjust_creative=Wu9gfEkr1Iqmmu5UKQvcJw&utm_campaign=yelp_api_v3&utm_medium=api_v3_business_search&utm_source=Wu9gfEkr1Iqmmu5UKQvcJw
noodle-21-redlands,"['vietnamese', 'noodles']","['Vietnamese', 'Noodles']",34.07088,-117.20918,(909) 798-1888,16226.433157637717,UFfbac1iaSAwb9J9O5VVqw,https://s3-media2.fl.yelpcdn.com/bphoto/qc8qx2cLFiDyfmPcvoRGDw/o.jpg,10040 Alabama St,Ste B,,Redlands,US,CA,92374,Noodle 21,+19097981888,$,3.0,445,[],https://www.yelp.com/biz/noodle-21-redlands?adjust_creative=Wu9gfEkr1Iqmmu5UKQvcJw&utm_campaign=yelp_api_v3&utm_medium=api_v3_business_search&utm_source=Wu9gfEkr1Iqmmu5UKQvcJw
cha2o-riverside-2,"['coffee', 'vietnamese', 'desserts']","['Coffee & Tea', 'Vietnamese', 'Desserts']",33.97555,-117.34206,(951) 783-9333,10745.06601398167,dePx-fPme_TC1hI59NloLA,https://s3-media4.fl.yelpcdn.com/bphoto/0mKlRRhMTxSLfYYwY9PvhQ/o.jpg,1400 University Ave,Ste 104,,Riverside,US,CA,92507,Cha2O,+19517839333,$,3.5,199,[],https://www.yelp.com/biz/cha2o-riverside-2?adjust_creative=Wu9gfEkr1Iqmmu5UKQvcJw&utm_campaign=yelp_api_v3&utm_medium=api_v3_business_search&utm_source=Wu9gfEkr1Iqmmu5UKQvcJw
river-khwae-thai-cuisine-moreno-valley,['thai'],['Thai'],33.91821,-117.24762,(951) 413-6075,1185.0500846590837,t7k-7b4QJkVpKz32wPYNYQ,https://s3-media3.fl.yelpcdn.com/bphoto/8OoIWcK_Kjt8uAZjHWDMdA/o.jpg,23750 Alessandro Blvd,Ste #L 101,Ste L 101,Moreno Valley,US,CA,92553,River Khwae Thai Cuisine,+19514136075,$,4.0,268,"['delivery', 'pickup']",https://www.yelp.com/biz/river-khwae-thai-cuisine-moreno-valley?adjust_creative=Wu9gfEkr1Iqmmu5UKQvcJw&utm_campaign=yelp_api_v3&utm_medium=api_v3_business_search&utm_source=Wu9gfEkr1Iqmmu5UKQvcJw
top-grill-riverside,"['asianfusion', 'lounges']","['Asian Fusion', 'Lounges']",33.9572874716443,-117.330744267302,(951) 530-8668,8956.416392034434,78JHPmmemAKAynduy5OpBw,https://s3-media2.fl.yelpcdn.com/bphoto/piGO0V9NlItN9SReFEFtfA/o.jpg,5225 Canyon Crest Dr,Ste 94,,Riverside,US,CA,92507,Top Grill,+19515308668,$,4.5,173,[],https://www.yelp.com/biz/top-grill-riverside?adjust_creative=Wu9gfEkr1Iqmmu5UKQvcJw&utm_campaign=yelp_api_v3&utm_medium=api_v3_business_search&utm_source=Wu9gfEkr1Iqmmu5UKQvcJw
tim-boba-riverside-3,['bubbletea'],['Bubble Tea'],33.9752788880293,-117.342924400525,(951) 462-1929,10837.975967242724,YED9Nk1He_HQ5ZM4jC1lmQ,https://s3-media4.fl.yelpcdn.com/bphoto/2XvqoFuO7kh6sxCfs0C4FQ/o.jpg,1450 University Ave,Ste N,,Riverside,US,CA,92507,Tim Boba,+19514621929,$,4.5,153,[],https://www.yelp.com/biz/tim-boba-riverside-3?adjust_creative=Wu9gfEkr1Iqmmu5UKQvcJw&utm_campaign=yelp_api_v3&utm_medium=api_v3_business_search&utm_source=Wu9gfEkr1Iqmmu5UKQvcJw
roasting-water-riverside,"['coffee', 'bubbletea', 'desserts']","['Coffee & Tea', 'Bubble Tea', 'Desserts']",33.97467,-117.34865,(951) 289-9056,11324.087572438946,-eOlnu8--rZu2yxhp6hnZw,https://s3-media3.fl.yelpcdn.com/bphoto/0WnqMpSYQ8tqWjvtvHiC0Q/o.jpg,3907 Chicago Ave,,,Riverside,US,CA,92507,Roasting Water,+19512899056,,4.5,154,[],https://www.yelp.com/biz/roasting-water-riverside?adjust_creative=Wu9gfEkr1Iqmmu5UKQvcJw&utm_campaign=yelp_api_v3&utm_medium=api_v3_business_search&utm_source=Wu9gfEkr1Iqmmu5UKQvcJw
quik-stop-subs-moreno-valley,['sandwiches'],['Sandwiches'],33.9111283494322,-117.268845252693,(951) 656-7827,3170.517148577666,Tr5qy5lzcoxSpsOQ3EhOQQ,https://s3-media4.fl.yelpcdn.com/bphoto/vr_snHhX4ETzKErJUCPyiw/o.jpg,14420 Elsworth St,Ste 117,,Moreno Valley,US,CA,92553,Quik Stop Subs,+19516567827,$,4.5,116,[],https://www.yelp.com/biz/quik-stop-subs-moreno-valley?adjust_creative=Wu9gfEkr1Iqmmu5UKQvcJw&utm_campaign=yelp_api_v3&utm_medium=api_v3_business_search&utm_source=Wu9gfEkr1Iqmmu5UKQvcJw
ocean-pho-redlands,"['vietnamese', 'noodles']","['Vietnamese', 'Noodles']",34.074359,-117.206333,(909) 307-0998,16647.3345755315,cM3pD4GPFZGKtHBQdjE6LQ,https://s3-media1.fl.yelpcdn.com/bphoto/IjVQ7F-GYFhD4cLVo5-YSw/o.jpg,27471 San Bernardino Ave,Ste 200,,Redlands,US,CA,92374,Ocean Pho,+19093070998,$$,3.0,194,[],https://www.yelp.com/biz/ocean-pho-redlands?adjust_creative=Wu9gfEkr1Iqmmu5UKQvcJw&utm_campaign=yelp_api_v3&utm_medium=api_v3_business_search&utm_source=Wu9gfEkr1Iqmmu5UKQvcJw
mr-rice-riverside,['chinese'],['Chinese'],33.97611,-117.33816,(951) 530-8616,10506.303622574458,tkYGAQYSd7QyabGwsRVhIA,https://s3-media3.fl.yelpcdn.com/bphoto/7Sgr2VKURxlYx9gilPbGCA/o.jpg,1223 University Ave,Ste 120,,Riverside,US,CA,92507,Mr. Rice,+19515308616,$$,4.0,10,[],https://www.yelp.com/biz/mr-rice-riverside?adjust_creative=Wu9gfEkr1Iqmmu5UKQvcJw&utm_campaign=yelp_api_v3&utm_medium=api_v3_business_search&utm_source=Wu9gfEkr1Iqmmu5UKQvcJw
canton-chinese-food-moreno-valley,['chinese'],['Chinese'],33.936365,-117.262156,(951) 653-0728,2226.2383649622034,Q2we7CApm2mQcf1qGJdxjQ,https://s3-media1.fl.yelpcdn.com/bphoto/95fggCnF6_-UrPYs0s5m5Q/o.jpg,12625 Frederick St,,,Moreno Valley,US,CA,92553,Canton Chinese Food,+19516530728,$,3.5,119,[],https://www.yelp.com/biz/canton-chinese-food-moreno-valley?adjust_creative=Wu9gfEkr1Iqmmu5UKQvcJw&utm_campaign=yelp_api_v3&utm_medium=api_v3_business_search&utm_source=Wu9gfEkr1Iqmmu5UKQvcJw
pho-62-rialto-3,['vietnamese'],['Vietnamese'],34.0755140800334,-117.370966002345,(909) 421-4887,20390.929157493545,Km31ezP--tAd2juVPvtHlg,https://s3-media1.fl.yelpcdn.com/bphoto/h6Sz82sR108k14dzqDATaA/o.jpg,1420 S Riverside Ave,Ste 8D,,Rialto,US,CA,92376,Pho 62,+19094214887,$,4.0,61,[],https://www.yelp.com/biz/pho-62-rialto-3?adjust_creative=Wu9gfEkr1Iqmmu5UKQvcJw&utm_campaign=yelp_api_v3&utm_medium=api_v3_business_search&utm_source=Wu9gfEkr1Iqmmu5UKQvcJw
zero-x-riverside,"['coffee', 'tea', 'bubbletea']","['Coffee & Tea', 'Tea Rooms', 'Bubble Tea']",33.97599,-117.35233,(951) 530-8186,11647.897221029329,xme4KKR3l7iDaLKsUzVqeA,https://s3-media4.fl.yelpcdn.com/bphoto/RH_UDGJ9xL0-3-bnxEm8_w/o.jpg,1889 University Ave,Ste 105,,Riverside,US,CA,92507,Zero X,+19515308186,$$,4.0,360,[],https://www.yelp.com/biz/zero-x-riverside?adjust_creative=Wu9gfEkr1Iqmmu5UKQvcJw&utm_campaign=yelp_api_v3&utm_medium=api_v3_business_search&utm_source=Wu9gfEkr1Iqmmu5UKQvcJw
grapow-thai-riverside,"['thai', 'asianfusion', 'seafood']","['Thai', 'Asian Fusion', 'Seafood']",33.9150635083212,-117.322000853319,(951) 780-1132,7634.366455159093,N6OAFpCd1YgXpFndbr0K3g,https://s3-media1.fl.yelpcdn.com/bphoto/GLmRpg_jZqfSl9iEn0P6gQ/o.jpg,497 Alessandro Blvd,,,Riverside,US,CA,92508,Grapow Thai,+19517801132,$$,3.5,867,[],https://www.yelp.com/biz/grapow-thai-riverside?adjust_creative=Wu9gfEkr1Iqmmu5UKQvcJw&utm_campaign=yelp_api_v3&utm_medium=api_v3_business_search&utm_source=Wu9gfEkr1Iqmmu5UKQvcJw
cafe-gossip-moreno-valley,"['bbq', 'korean', 'soup']","['Barbeque', 'Korean', 'Soup']",33.9388265,-117.2488304,(951) 485-9780,1598.138124997103,eeyT2u_Yn3bC6J6TFV6mdw,https://s3-media3.fl.yelpcdn.com/bphoto/4Vh-wr4BYoidndjzz-GGqA/o.jpg,23663 Sunnymead Blvd,,,Moreno Valley,US,CA,92553,Cafe Gossip,+19514859780,$,3.5,86,[],https://www.yelp.com/biz/cafe-gossip-moreno-valley?adjust_creative=Wu9gfEkr1Iqmmu5UKQvcJw&utm_campaign=yelp_api_v3&utm_medium=api_v3_business_search&utm_source=Wu9gfEkr1Iqmmu5UKQvcJw
zero-degrees-loma-linda,"['coffee', 'chicken_wings', 'bubbletea']","['Coffee & Tea', 'Chicken Wings', 'Bubble Tea']",34.06365,-117.26024,(909) 478-7868,15281.173223946687,IyRIuQ32Z9IhHmEAdsbIUQ,https://s3-media1.fl.yelpcdn.com/bphoto/34m1k3WJkgoYU6EDPA5UrQ/o.jpg,24950 Redlands Blvd,Unit A,,Loma Linda,US,CA,92354,Zero Degrees,+19094787868,$,3.5,181,"['delivery', 'pickup']",https://www.yelp.com/biz/zero-degrees-loma-linda?adjust_creative=Wu9gfEkr1Iqmmu5UKQvcJw&utm_campaign=yelp_api_v3&utm_medium=api_v3_business_search&utm_source=Wu9gfEkr1Iqmmu5UKQvcJw
ramen-okawari-riverside,"['ramen', 'noodles', 'comfortfood']","['Ramen', 'Noodles', 'Comfort Food']",33.97711,-117.3395,(951) 680-9411,10653.890425422564,M4ykNtJ5HyWeNUVIQ7mfTw,https://s3-media2.fl.yelpcdn.com/bphoto/9-iymI_tphX6NXUp4dyZEw/o.jpg,3740 Iowa Ave,Ste 104,,Riverside,US,CA,92507,Ramen Okawari,+19516809411,$$,3.5,356,[],https://www.yelp.com/biz/ramen-okawari-riverside?adjust_creative=Wu9gfEkr1Iqmmu5UKQvcJw&utm_campaign=yelp_api_v3&utm_medium=api_v3_business_search&utm_source=Wu9gfEkr1Iqmmu5UKQvcJw
sams-bann-thai-riverside-2,['thai'],['Thai'],33.9806025,-117.3682348,(951) 742-7694,13176.831264085973,ureR34fUaoWaVYyjgk4ohA,https://s3-media4.fl.yelpcdn.com/bphoto/RUqXP8l7gfuZ2Qwn_L_LOA/o.jpg,3203 Mission Inn Ave,,,Riverside,US,CA,92507,Sam's Bann Thai,+19517427694,$$,4.0,972,"['delivery', 'pickup']",https://www.yelp.com/biz/sams-bann-thai-riverside-2?adjust_creative=Wu9gfEkr1Iqmmu5UKQvcJw&utm_campaign=yelp_api_v3&utm_medium=api_v3_business_search&utm_source=Wu9gfEkr1Iqmmu5UKQvcJw
boba-tea-house-riverside,"['coffee', 'bubbletea', 'breakfast_brunch']","['Coffee & Tea', 'Bubble Tea', 'Breakfast & Brunch']",33.9835452608072,-117.327264400309,(951) 784-7148,10144.727944061222,i3rjzymLW5sr662Yp90Z6Q,https://s3-media1.fl.yelpcdn.com/bphoto/B9jWNUdzvDKJZo813mgZvw/o.jpg,767 W Blaine St,Ste A,,Riverside,US,CA,92507,Boba Tea House,+19517847148,$,4.0,472,[],https://www.yelp.com/biz/boba-tea-house-riverside?adjust_creative=Wu9gfEkr1Iqmmu5UKQvcJw&utm_campaign=yelp_api_v3&utm_medium=api_v3_business_search&utm_source=Wu9gfEkr1Iqmmu5UKQvcJw
jasmine-thai-cusine-colton,['thai'],['Thai'],34.0501146032612,-117.309761680663,(909) 533-4456,15065.02068279125,7WFtUiOFdI0zAbBO9qJqzQ,https://s3-media3.fl.yelpcdn.com/bphoto/akliEvaW_LonTQKxngBAdw/o.jpg,1091 S Mt Vernon Ave,Unit K,,Colton,US,CA,92324,Jasmine Thai Cusine,+19095334456,,4.5,34,"['delivery', 'pickup']",https://www.yelp.com/biz/jasmine-thai-cusine-colton?adjust_creative=Wu9gfEkr1Iqmmu5UKQvcJw&utm_campaign=yelp_api_v3&utm_medium=api_v3_business_search&utm_source=Wu9gfEkr1Iqmmu5UKQvcJw
mr-you-chinese-food-riverside-2,"['chinese', 'hotdogs', 'asianfusion']","['Chinese', 'Fast Food', 'Asian Fusion']",33.8898010253906,-117.321601867676,(951) 653-1740,8569.804577702866,EqCce_tS-XDBFq5YoIKOrQ,https://s3-media4.fl.yelpcdn.com/bphoto/gIjsgUgMEimbzAnTfTd6Gg/o.jpg,19530 Van Buren Blvd,,,Riverside,US,CA,92508,Mr You Chinese Food,+19516531740,$,3.5,78,[],https://www.yelp.com/biz/mr-you-chinese-food-riverside-2?adjust_creative=Wu9gfEkr1Iqmmu5UKQvcJw&utm_campaign=yelp_api_v3&utm_medium=api_v3_business_search&utm_source=Wu9gfEkr1Iqmmu5UKQvcJw
east-coast-bagel-riverside,"['bagels', 'sandwiches']","['Bagels', 'Sandwiches']",33.956663,-117.330738,(951) 781-0310,8930.344338865025,dfIwydGaF9pf80H0WK0-oA,https://s3-media4.fl.yelpcdn.com/bphoto/6BM0qcQa3Dp81AMaJonQzA/o.jpg,5225 Canyon Crest Dr,Ste 34,,Riverside,US,CA,92507,East Coast Bagel,+19517810310,$,4.0,184,[],https://www.yelp.com/biz/east-coast-bagel-riverside?adjust_creative=Wu9gfEkr1Iqmmu5UKQvcJw&utm_campaign=yelp_api_v3&utm_medium=api_v3_business_search&utm_source=Wu9gfEkr1Iqmmu5UKQvcJw
mu-redlands,"['bars', 'thai']","['Bars', 'Thai']",34.0561790466309,-117.186378479004,(909) 798-7747,15189.438893157658,dxcH0ufIZQ3AjddesCjSlw,https://s3-media2.fl.yelpcdn.com/bphoto/tkoXyJgkgFLn1vUURMXjWA/o.jpg,309 W State St,,,Redlands,US,CA,92373,Mu,+19097987747,$$,4.0,338,[],https://www.yelp.com/biz/mu-redlands?adjust_creative=Wu9gfEkr1Iqmmu5UKQvcJw&utm_campaign=yelp_api_v3&utm_medium=api_v3_business_search&utm_source=Wu9gfEkr1Iqmmu5UKQvcJw
thai-house-restaurant-redlands,"['thai', 'chinese', 'bars']","['Thai', 'Chinese', 'Bars']",34.06326,-117.21675,(909) 798-3143,15277.82459668368,gOgAA5JPE0ncLqBxHuFmLw,https://s3-media4.fl.yelpcdn.com/bphoto/cFtV_9z1xSzJqM_PWo2Qjg/o.jpg,1824 W Redlands Blvd,,,Redlands,US,CA,92373,Thai House Restaurant,+19097983143,$$,4.0,588,[],https://www.yelp.com/biz/thai-house-restaurant-redlands?adjust_creative=Wu9gfEkr1Iqmmu5UKQvcJw&utm_campaign=yelp_api_v3&utm_medium=api_v3_business_search&utm_source=Wu9gfEkr1Iqmmu5UKQvcJw
5steas-riverside,"['bubbletea', 'coffee', 'juicebars']","['Bubble Tea', 'Coffee & Tea', 'Juice Bars & Smoothies']",33.94091,-117.39382,(909) 372-2958,14213.566287993213,VoOcstx4tA2It6E-pDTY2A,https://s3-media2.fl.yelpcdn.com/bphoto/InBnKFdpS-V9HfqlVbnW0A/o.jpg,6930 Indiana Ave,Ste 3,,Riverside,US,CA,92506,5s'Teas,+19093722958,$,4.5,130,"['delivery', 'pickup']",https://www.yelp.com/biz/5steas-riverside?adjust_creative=Wu9gfEkr1Iqmmu5UKQvcJw&utm_campaign=yelp_api_v3&utm_medium=api_v3_business_search&utm_source=Wu9gfEkr1Iqmmu5UKQvcJw
frice-riverside-5,['szechuan'],['Szechuan'],33.97617,-117.33941,(951) 686-2182,10608.918762452286,-gkBQhE74zz_N2yAaUu75Q,https://s3-media2.fl.yelpcdn.com/bphoto/XYAg-gnuDj34nG_R1aoEIA/o.jpg,1299 University Ave,Ste 104-E,,Riverside,US,CA,92507,Frice,+19516862182,$$,4.0,151,[],https://www.yelp.com/biz/frice-riverside-5?adjust_creative=Wu9gfEkr1Iqmmu5UKQvcJw&utm_campaign=yelp_api_v3&utm_medium=api_v3_business_search&utm_source=Wu9gfEkr1Iqmmu5UKQvcJw
thai-kitchen-grand-terrace,"['thai', 'asianfusion']","['Thai', 'Asian Fusion']",34.0338846,-117.3163433,(909) 370-2202,13750.02605733338,NJpBe_1VhnyMZ7zhzccdgA,https://s3-media1.fl.yelpcdn.com/bphoto/vdtjSznozoY1_z0Orq8dOA/o.jpg,22411 Barton Rd,,,Grand Terrace,US,CA,92313,Thai Kitchen,+19093702202,$,4.5,454,['pickup'],https://www.yelp.com/biz/thai-kitchen-grand-terrace?adjust_creative=Wu9gfEkr1Iqmmu5UKQvcJw&utm_campaign=yelp_api_v3&utm_medium=api_v3_business_search&utm_source=Wu9gfEkr1Iqmmu5UKQvcJw
red-chilli-redlands,['chinese'],['Chinese'],34.063911829919,-117.22542559259,(909) 798-3929,15247.520676376304,rI284E16VXPUKDQwbv-9tA,https://s3-media1.fl.yelpcdn.com/bphoto/fXmCPM9FEpHajgSmYabGmg/o.jpg,2094 W Redlands Blvd,Ste C,,Redlands,US,CA,92373,Red Chilli,+19097983929,$$,4.0,373,"['delivery', 'pickup']",https://www.yelp.com/biz/red-chilli-redlands?adjust_creative=Wu9gfEkr1Iqmmu5UKQvcJw&utm_campaign=yelp_api_v3&utm_medium=api_v3_business_search&utm_source=Wu9gfEkr1Iqmmu5UKQvcJw
vegan-korner-colton,"['pizza', 'vegan']","['Pizza', 'Vegan']",34.07767,-117.32558,(909) 370-2644,18465.435862372502,f-XdrGxjIbOL8pINYh-LYA,https://s3-media2.fl.yelpcdn.com/bphoto/edK6iIZOVqeOly2WuGsxgg/o.jpg,299 W Olive St,,,Colton,US,CA,92324,Vegan Korner,+19093702644,$$,4.5,230,"['delivery', 'pickup']",https://www.yelp.com/biz/vegan-korner-colton?adjust_creative=Wu9gfEkr1Iqmmu5UKQvcJw&utm_campaign=yelp_api_v3&utm_medium=api_v3_business_search&utm_source=Wu9gfEkr1Iqmmu5UKQvcJw
mr-you-express-riverside,['chinese'],['Chinese'],33.88838,-117.3253,(951) 789-2267,8908.124734947927,EFwOVPhrNpw1dgCPyTsgqg,https://s3-media4.fl.yelpcdn.com/bphoto/WQFMwFKTLKOYgNQf2F8GiA/o.jpg,19348 Van Buren Blvd,,,Riverside,US,CA,92508,Mr You Express,+19517892267,$,3.0,30,[],https://www.yelp.com/biz/mr-you-express-riverside?adjust_creative=Wu9gfEkr1Iqmmu5UKQvcJw&utm_campaign=yelp_api_v3&utm_medium=api_v3_business_search&utm_source=Wu9gfEkr1Iqmmu5UKQvcJw
panda-max-asian-cuisine-yucaipa,"['thai', 'chinese', 'asianfusion']","['Thai', 'Chinese', 'Asian Fusion']",34.03358,-117.03916,(909) 790-8838,22018.011233663132,UOvFnEEt7Q6hRBV-97sRvA,https://s3-media2.fl.yelpcdn.com/bphoto/WWvvnvF-edMMdFfl6xCkPQ/o.jpg,12116 California St,Ste B,,Yucaipa,US,CA,92399,Panda Max Asian Cuisine,+19097908838,$,4.5,51,[],https://www.yelp.com/biz/panda-max-asian-cuisine-yucaipa?adjust_creative=Wu9gfEkr1Iqmmu5UKQvcJw&utm_campaign=yelp_api_v3&utm_medium=api_v3_business_search&utm_source=Wu9gfEkr1Iqmmu5UKQvcJw
tummy-stuffer-riverside,"['delis', 'sandwiches']","['Delis', 'Sandwiches']",34.0025177001953,-117.340339660645,(951) 369-1266,12431.089769717424,fhRAPevCY6HZayKFyk0NAw,https://s3-media2.fl.yelpcdn.com/bphoto/wQT45qAGxuKErYdrdeCNPw/o.jpg,1159 Iowa Ave,Ste O,,Riverside,US,CA,92507,Tummy Stuffer,+19513691266,$,4.0,198,[],https://www.yelp.com/biz/tummy-stuffer-riverside?adjust_creative=Wu9gfEkr1Iqmmu5UKQvcJw&utm_campaign=yelp_api_v3&utm_medium=api_v3_business_search&utm_source=Wu9gfEkr1Iqmmu5UKQvcJw
thai-bowl-cafe-loma-linda,"['thai', 'salad']","['Thai', 'Salad']",34.06272,-117.2575,(909) 478-5609,15119.675723442682,jrxHxNHHiyySXO6jQ-odVQ,https://s3-media1.fl.yelpcdn.com/bphoto/Ipc9bxeTBay0YNLDyIux4w/o.jpg,25069 Redlands Blvd,Ste A,,Loma Linda,US,CA,92354,Thai Bowl Cafe,+19094785609,$,4.0,197,[],https://www.yelp.com/biz/thai-bowl-cafe-loma-linda?adjust_creative=Wu9gfEkr1Iqmmu5UKQvcJw&utm_campaign=yelp_api_v3&utm_medium=api_v3_business_search&utm_source=Wu9gfEkr1Iqmmu5UKQvcJw
monark-asian-bistro-riverside,"['chinese', 'thai', 'asianfusion']","['Chinese', 'Thai', 'Asian Fusion']",33.9563457764989,-117.3318531232,(951) 683-1073,9013.545029323937,6Wvvv634l173k4GObJcYAA,https://s3-media4.fl.yelpcdn.com/bphoto/k89u9J8SdLC2f4ru2-Ghgw/o.jpg,5225 Canyon Crest Dr,Ste 64,,Riverside,US,CA,92507,Monark Asian Bistro,+19516831073,$$,3.5,150,[],https://www.yelp.com/biz/monark-asian-bistro-riverside?adjust_creative=Wu9gfEkr1Iqmmu5UKQvcJw&utm_campaign=yelp_api_v3&utm_medium=api_v3_business_search&utm_source=Wu9gfEkr1Iqmmu5UKQvcJw
ruis-shanghai-bistro-redlands,['shanghainese'],['Shanghainese'],34.06991,-117.21355,(909) 335-6770,16040.460773074643,9myWa7KY9Hh6VQsL6aUBUQ,https://s3-media1.fl.yelpcdn.com/bphoto/P4jXiKp9d1DchnBJ_oEb_A/o.jpg,1711 W Lugonia Ave,Ste 101,,Redlands,US,CA,92374,Rui's Shanghai Bistro,+19093356770,$$,4.5,155,"['pickup', 'delivery']",https://www.yelp.com/biz/ruis-shanghai-bistro-redlands?adjust_creative=Wu9gfEkr1Iqmmu5UKQvcJw&utm_campaign=yelp_api_v3&utm_medium=api_v3_business_search&utm_source=Wu9gfEkr1Iqmmu5UKQvcJw
olive-avenue-market-redlands,"['sandwiches', 'coffee', 'bakeries']","['Sandwiches', 'Coffee & Tea', 'Bakeries']",34.0503211,-117.1873071,(909) 792-8823,14528.09672345236,Z0m2HMyH6iHA3GXCnK5uzg,https://s3-media3.fl.yelpcdn.com/bphoto/_Jmn0zWsEGrsXiVRtRS7iw/o.jpg,530 W Olive Ave,,,Redlands,US,CA,92373,Olive Avenue Market,+19097928823,$,4.5,385,[],https://www.yelp.com/biz/olive-avenue-market-redlands?adjust_creative=Wu9gfEkr1Iqmmu5UKQvcJw&utm_campaign=yelp_api_v3&utm_medium=api_v3_business_search&utm_source=Wu9gfEkr1Iqmmu5UKQvcJw
toro-bowl-bistro-and-bar-yucaipa,"['asianfusion', 'chinese', 'sushi']","['Asian Fusion', 'Chinese', 'Sushi Bars']",34.0346562773422,-117.055843111415,(909) 797-1678,20797.598597270546,d1h-Xmz4VdMFQsNSHHjJcw,https://s3-media4.fl.yelpcdn.com/bphoto/9SenBYUihBS1FJPgpU0EtA/o.jpg,12045 5th St,Ste A,,Yucaipa,US,CA,92399,Toro Bowl Bistro and Bar,+19097971678,$$,3.5,264,['pickup'],https://www.yelp.com/biz/toro-bowl-bistro-and-bar-yucaipa?adjust_creative=Wu9gfEkr1Iqmmu5UKQvcJw&utm_campaign=yelp_api_v3&utm_medium=api_v3_business_search&utm_source=Wu9gfEkr1Iqmmu5UKQvcJw
riverside-thai-kitchen-riverside,['thai'],['Thai'],33.94561,-117.419,(951) 729-6675,16587.57986249074,k7R3DnEMaxPXrarwzD_N-g,https://s3-media1.fl.yelpcdn.com/bphoto/OjLOoAR0xoJjOooy19LbPw/o.jpg,7755 California Ave,,,Riverside,US,CA,92504,Riverside Thai Kitchen,+19517296675,$,4.5,345,"['pickup', 'delivery']",https://www.yelp.com/biz/riverside-thai-kitchen-riverside?adjust_creative=Wu9gfEkr1Iqmmu5UKQvcJw&utm_campaign=yelp_api_v3&utm_medium=api_v3_business_search&utm_source=Wu9gfEkr1Iqmmu5UKQvcJw
boba-tea-house-loma-linda,['bubbletea'],['Bubble Tea'],34.0485949,-117.2438909,(909) 796-8084,13570.309335375432,LZQc6S2Ir2SJsSYYRqGADQ,https://s3-media2.fl.yelpcdn.com/bphoto/c6MMro5-cJmGzxmgM2whXg/o.jpg,25696 Barton Rd,,,Loma Linda,US,CA,92354,Boba Tea House,+19097968084,$,4.0,417,[],https://www.yelp.com/biz/boba-tea-house-loma-linda?adjust_creative=Wu9gfEkr1Iqmmu5UKQvcJw&utm_campaign=yelp_api_v3&utm_medium=api_v3_business_search&utm_source=Wu9gfEkr1Iqmmu5UKQvcJw
thai-kitchen-bowl-fontana,['thai'],['Thai'],34.0768231,-117.4355451,(909) 822-6488,24444.78524775316,JmsgjdbVKCLaE6ebvd-qGg,https://s3-media3.fl.yelpcdn.com/bphoto/ZBwaojdXpmS705_SDnATWw/o.jpg,9731 Sierra Ave,,,Fontana,US,CA,92335,Thai Kitchen Bowl,+19098226488,$,3.5,274,[],https://www.yelp.com/biz/thai-kitchen-bowl-fontana?adjust_creative=Wu9gfEkr1Iqmmu5UKQvcJw&utm_campaign=yelp_api_v3&utm_medium=api_v3_business_search&utm_source=Wu9gfEkr1Iqmmu5UKQvcJw
yummy-donuts-and-sub-redlands,"['donuts', 'sandwiches']","['Donuts', 'Sandwiches']",34.0487593,-117.1977102,(909) 793-4999,14065.630082917249,_qqaSHNhPDrjgr_Ch-jPrA,https://s3-media1.fl.yelpcdn.com/bphoto/zT-Ki_-FE5taNhUBqae6oQ/o.jpg,1154 Brookside Ave,,,Redlands,US,CA,92373,Yummy Donuts & Sub,+19097934999,$,4.0,41,[],https://www.yelp.com/biz/yummy-donuts-and-sub-redlands?adjust_creative=Wu9gfEkr1Iqmmu5UKQvcJw&utm_campaign=yelp_api_v3&utm_medium=api_v3_business_search&utm_source=Wu9gfEkr1Iqmmu5UKQvcJw
chopstix-express-riverside,['chinese'],['Chinese'],33.88252,-117.36546,(951) 780-3222,12555.660010703683,gQV-4pXUsJFZ7FSGApetow,https://s3-media4.fl.yelpcdn.com/bphoto/7G1W5B2yXnRbCVS47LppNQ/o.jpg,17040 Van Buren Blvd,,,Riverside,US,CA,92504,Chopstix Express,+19517803222,$,2.5,23,[],https://www.yelp.com/biz/chopstix-express-riverside?adjust_creative=Wu9gfEkr1Iqmmu5UKQvcJw&utm_campaign=yelp_api_v3&utm_medium=api_v3_business_search&utm_source=Wu9gfEkr1Iqmmu5UKQvcJw
d-elias-grinders-riverside,['sandwiches'],['Sandwiches'],33.975812,-117.356708,(951) 683-7380,11987.953018139438,QvUoQUbcWJvxV-9gDjI4Sg,https://s3-media2.fl.yelpcdn.com/bphoto/1b8PadV65sMJwLzak_OHtg/o.jpg,2093 University Ave,,,Riverside,US,CA,92507,D'Elia's Grinders,+19516837380,$,3.5,498,[],https://www.yelp.com/biz/d-elias-grinders-riverside?adjust_creative=Wu9gfEkr1Iqmmu5UKQvcJw&utm_campaign=yelp_api_v3&utm_medium=api_v3_business_search&utm_source=Wu9gfEkr1Iqmmu5UKQvcJw
mr-china-express-riverside,['chinese'],['Chinese'],33.94579,-117.43658,(951) 687-8967,18213.220001194448,M8LLBe7oN_AWOBMgtBJUcg,https://s3-media3.fl.yelpcdn.com/bphoto/jblOTq6WuPoP-imQ5kxF2Q/o.jpg,6160 Arlington Ave,,,Riverside,US,CA,92504,Mr China Express,+19516878967,$,2.0,26,[],https://www.yelp.com/biz/mr-china-express-riverside?adjust_creative=Wu9gfEkr1Iqmmu5UKQvcJw&utm_campaign=yelp_api_v3&utm_medium=api_v3_business_search&utm_source=Wu9gfEkr1Iqmmu5UKQvcJw
the-9th-street-eatery-riverside-2,"['sandwiches', 'breakfast_brunch', 'asianfusion']","['Sandwiches', 'Breakfast & Brunch', 'Asian Fusion']",33.97987,-117.37322,(951) 686-3231,13563.41811030041,THiLO_BTBfqMQvZr8o9RQg,https://s3-media3.fl.yelpcdn.com/bphoto/joHh4uk8bFGKAlQ6PZzN2A/o.jpg,3530 9th St,,,Riverside,US,CA,92501,The 9th Street Eatery,+19516863231,$,4.0,81,['pickup'],https://www.yelp.com/biz/the-9th-street-eatery-riverside-2?adjust_creative=Wu9gfEkr1Iqmmu5UKQvcJw&utm_campaign=yelp_api_v3&utm_medium=api_v3_business_search&utm_source=Wu9gfEkr1Iqmmu5UKQvcJw
manileno-rice-and-noodles-loma-linda,"['filipino', 'noodles']","['Filipino', 'Noodles']",34.063652,-117.260238,(909) 799-9228,15281.173223946687,McFtTI5Ik5MNbozLel8J-w,https://s3-media4.fl.yelpcdn.com/bphoto/kNCfLJ9rEhfel0AJIff0xQ/o.jpg,24950 Redlands Blvd,Ste L,,Loma Linda,US,CA,92354,Manileno Rice & Noodles,+19097999228,$$,2.5,13,[],https://www.yelp.com/biz/manileno-rice-and-noodles-loma-linda?adjust_creative=Wu9gfEkr1Iqmmu5UKQvcJw&utm_campaign=yelp_api_v3&utm_medium=api_v3_business_search&utm_source=Wu9gfEkr1Iqmmu5UKQvcJw
