alias,categories_alias,categories_title,coordinates_latitude,coordinates_longitude,display_phone,distance,id,image_url,location_address1,location_address2,location_address3,location_city,location_country,location_state,location_zip_code,name,phone,price,rating,review_count,transactions,url
tran-noodle-watsonville,"['vietnamese', 'noodles']","['Vietnamese', 'Noodles']",36.917964301336,-121.78253460555,(831) 763-7696,1637.7033763574896,_0YZLbjmahV1F98rRW1tlQ,https://s3-media1.fl.yelpcdn.com/bphoto/mPUMDFRCjMwRT2VCxA51-A/o.jpg,1983 Main St,,,Watsonville,US,CA,95076,Tran Noodle,+18317637696,$,3.0,177,[],https://www.yelp.com/biz/tran-noodle-watsonville?adjust_creative=Wu9gfEkr1Iqmmu5UKQvcJw&utm_campaign=yelp_api_v3&utm_medium=api_v3_business_search&utm_source=Wu9gfEkr1Iqmmu5UKQvcJw
asian-express-capitola-2,"['vietnamese', 'chinese']","['Vietnamese', 'Chinese']",36.97784,-121.96693,(831) 476-9999,17939.001413646634,tapqxINHZ-G_aGz6G7YKTg,https://s3-media1.fl.yelpcdn.com/bphoto/exbAjCuHu5ItMMBy88rjiQ/o.jpg,1955 41st Ave,Ste A-2,,Capitola,US,CA,95010,Asian Express,+18314769999,$,3.5,268,[],https://www.yelp.com/biz/asian-express-capitola-2?adjust_creative=Wu9gfEkr1Iqmmu5UKQvcJw&utm_campaign=yelp_api_v3&utm_medium=api_v3_business_search&utm_source=Wu9gfEkr1Iqmmu5UKQvcJw
thanh-loi-noodles-salinas-5,"['vietnamese', 'noodles', 'soup']","['Vietnamese', 'Noodles', 'Soup']",36.71967,-121.65495,(831) 975-4549,25780.798141435724,FUBQHo0XuBabArPJx1OATw,https://s3-media2.fl.yelpcdn.com/bphoto/Zg21bKmEWz54D1TxSVsq0A/o.jpg,1940 N Main St,,,Salinas,US,CA,93906,Thanh Loi Noodles,+18319754549,,4.5,68,[],https://www.yelp.com/biz/thanh-loi-noodles-salinas-5?adjust_creative=Wu9gfEkr1Iqmmu5UKQvcJw&utm_campaign=yelp_api_v3&utm_medium=api_v3_business_search&utm_source=Wu9gfEkr1Iqmmu5UKQvcJw
pho-lucky-noodle-house-marina,"['vietnamese', 'noodles']","['Vietnamese', 'Noodles']",36.684189,-121.795285,(831) 883-8003,27504.560159139604,VuKX2M2tpvOvJGVAeIbLHA,https://s3-media1.fl.yelpcdn.com/bphoto/iXV5EkSryLSTRPD0jIvoJA/o.jpg,266 Reservation Rd,Ste R,,Marina,US,CA,93933,Pho Lucky Noodle House,+18318838003,$,4.0,248,[],https://www.yelp.com/biz/pho-lucky-noodle-house-marina?adjust_creative=Wu9gfEkr1Iqmmu5UKQvcJw&utm_campaign=yelp_api_v3&utm_medium=api_v3_business_search&utm_source=Wu9gfEkr1Iqmmu5UKQvcJw
noodle-bar-seaside,"['vietnamese', 'noodles']","['Vietnamese', 'Noodles']",36.6174749082245,-121.840878733171,(831) 392-0210,35364.24232903383,rjqWA1mAZcGsOtRrMYfPAQ,https://s3-media3.fl.yelpcdn.com/bphoto/yxC5ciYUXgJ75MH9bP_dLQ/o.jpg,1944 Fremont Blvd,,,Seaside,US,CA,93955,Noodle Bar,+18313920210,$,4.0,379,[],https://www.yelp.com/biz/noodle-bar-seaside?adjust_creative=Wu9gfEkr1Iqmmu5UKQvcJw&utm_campaign=yelp_api_v3&utm_medium=api_v3_business_search&utm_source=Wu9gfEkr1Iqmmu5UKQvcJw
noodle-bar-marina-2,"['vietnamese', 'noodles']","['Vietnamese', 'Noodles']",36.6875239031101,-121.797410220076,(831) 384-6225,27148.612060014973,XNLQBrZvO7o5svUwAno8yA,https://s3-media2.fl.yelpcdn.com/bphoto/_o41-WscQsoMXWC7ZfFGIg/o.jpg,215 Reservation Rd,Ste E,,Marina,US,CA,93933,Noodle Bar,+18313846225,$,4.0,587,[],https://www.yelp.com/biz/noodle-bar-marina-2?adjust_creative=Wu9gfEkr1Iqmmu5UKQvcJw&utm_campaign=yelp_api_v3&utm_medium=api_v3_business_search&utm_source=Wu9gfEkr1Iqmmu5UKQvcJw
saigon-2-siam-bistro-gilroy-3,"['vietnamese', 'thai']","['Vietnamese', 'Thai']",37.0124363,-121.5946556,(408) 848-6000,18316.093272159498,4TnPziE38JPK6CikPdCFGQ,https://s3-media1.fl.yelpcdn.com/bphoto/6tMIBn4wv62aqdF4hWs78Q/o.jpg,1280 1st St,Ste E,,Gilroy,US,CA,95020,Saigon -2- Siam Bistro,+14088486000,$$,4.5,637,[],https://www.yelp.com/biz/saigon-2-siam-bistro-gilroy-3?adjust_creative=Wu9gfEkr1Iqmmu5UKQvcJw&utm_campaign=yelp_api_v3&utm_medium=api_v3_business_search&utm_source=Wu9gfEkr1Iqmmu5UKQvcJw
plates-com-tam-seaside,"['vietnamese', 'noodles', 'asianfusion']","['Vietnamese', 'Noodles', 'Asian Fusion']",36.6188419,-121.8402465,(831) 394-7653,35211.98499444011,fDhaTkYlUyHLM9bWZV6iHQ,https://s3-media2.fl.yelpcdn.com/bphoto/fgwxFJGfkFqF_o-u3a_EWg/o.jpg,1988 Fremont Blvd,,,Seaside,US,CA,93955,PLATES Com Tam,+18313947653,$,4.5,204,['pickup'],https://www.yelp.com/biz/plates-com-tam-seaside?adjust_creative=Wu9gfEkr1Iqmmu5UKQvcJw&utm_campaign=yelp_api_v3&utm_medium=api_v3_business_search&utm_source=Wu9gfEkr1Iqmmu5UKQvcJw
champa-kitchen-san-jose,"['halal', 'vietnamese', 'asianfusion']","['Halal', 'Vietnamese', 'Asian Fusion']",37.253361666,-121.79706383,(408) 912-5419,35924.22045972952,v5q7IydFoH_VneyaPFfdIQ,https://s3-media2.fl.yelpcdn.com/bphoto/bKcToJsQ8uGY0FNVsbI_kA/o.jpg,5560 Monterey Rd,,,San Jose,US,CA,95138,Champa Kitchen,+14089125419,,5.0,19,[],https://www.yelp.com/biz/champa-kitchen-san-jose?adjust_creative=Wu9gfEkr1Iqmmu5UKQvcJw&utm_campaign=yelp_api_v3&utm_medium=api_v3_business_search&utm_source=Wu9gfEkr1Iqmmu5UKQvcJw
noodle-house-salinas,['vietnamese'],['Vietnamese'],36.6949521,-121.6682548,(831) 758-4071,27912.06936940628,WwI_amoXLm2Cy7DwJGdDiA,https://s3-media3.fl.yelpcdn.com/bphoto/ijWXpQ1FHYOfGMWPeucXZQ/o.jpg,1022 N Davis Rd,,,Salinas,US,CA,93907,Noodle House,+18317584071,$,4.0,203,[],https://www.yelp.com/biz/noodle-house-salinas?adjust_creative=Wu9gfEkr1Iqmmu5UKQvcJw&utm_campaign=yelp_api_v3&utm_medium=api_v3_business_search&utm_source=Wu9gfEkr1Iqmmu5UKQvcJw
saigon-noodles-salinas,"['vietnamese', 'noodles']","['Vietnamese', 'Noodles']",36.7066733622062,-121.653600856662,(831) 796-5559,27137.632928341816,LNDP0x2QVrYAIGgqZk2aqw,https://s3-media1.fl.yelpcdn.com/bphoto/WbaLTXysneYxrCouPoiKTQ/o.jpg,1447 N Main St,,,Salinas,US,CA,93906,Saigon Noodles,+18317965559,$,4.5,117,[],https://www.yelp.com/biz/saigon-noodles-salinas?adjust_creative=Wu9gfEkr1Iqmmu5UKQvcJw&utm_campaign=yelp_api_v3&utm_medium=api_v3_business_search&utm_source=Wu9gfEkr1Iqmmu5UKQvcJw
bettys-noodle-house-santa-cruz,"['asianfusion', 'noodles', 'korean']","['Asian Fusion', 'Noodles', 'Korean']",36.9709129333496,-122.024658203125,(831) 426-2328,22727.28243450768,iPiwwA-3R5CuvcC-5vtxdQ,https://s3-media1.fl.yelpcdn.com/bphoto/DID1eBpNgAJfa4a5Lm2KAA/o.jpg,920 Pacific Ave,Ste 12,,Santa Cruz,US,CA,95060,Betty's Noodle House,+18314262328,$,4.0,424,[],https://www.yelp.com/biz/bettys-noodle-house-santa-cruz?adjust_creative=Wu9gfEkr1Iqmmu5UKQvcJw&utm_campaign=yelp_api_v3&utm_medium=api_v3_business_search&utm_source=Wu9gfEkr1Iqmmu5UKQvcJw
m-noodle-and-cafe-gilroy-2,"['vietnamese', 'cafes', 'soup']","['Vietnamese', 'Cafes', 'Soup']",36.9986310543341,-121.566111576714,(408) 842-4848,19930.77303559855,BpuHxGzViJPdFrItjGaKTw,https://s3-media2.fl.yelpcdn.com/bphoto/s3YUi6WzgGLSxbp3NWZfIQ/o.jpg,6945 Monterey Rd,Ste D,,Gilroy,US,CA,95020,M Noodle & Cafe,+14088424848,$$,4.5,116,[],https://www.yelp.com/biz/m-noodle-and-cafe-gilroy-2?adjust_creative=Wu9gfEkr1Iqmmu5UKQvcJw&utm_campaign=yelp_api_v3&utm_medium=api_v3_business_search&utm_source=Wu9gfEkr1Iqmmu5UKQvcJw
pho-thanh-an-gilroy,['vietnamese'],['Vietnamese'],37.005305656148,-121.55185462118,(408) 847-3286,21384.13542976377,mMKrL2PxlAZVkrmUkBGHSQ,https://s3-media1.fl.yelpcdn.com/bphoto/CJcS8ZOqLWq0V6Pe6fJsJw/o.jpg,890 Renz Ln,,,Gilroy,US,CA,95020,Pho Thanh An,+14088473286,$,3.5,308,['pickup'],https://www.yelp.com/biz/pho-thanh-an-gilroy?adjust_creative=Wu9gfEkr1Iqmmu5UKQvcJw&utm_campaign=yelp_api_v3&utm_medium=api_v3_business_search&utm_source=Wu9gfEkr1Iqmmu5UKQvcJw
vietasia-morgan-hill-2,['vietnamese'],['Vietnamese'],37.1335,-121.62946,(408) 782-6000,25927.74711125522,SOEfZABKVAKBQxYeeYF83w,https://s3-media2.fl.yelpcdn.com/bphoto/4ymSe_0Lj_uMCiaZbHQDvQ/o.jpg,1295 E Dunne Ave,Ste 140,,Morgan Hill,US,CA,95037,Vietasia,+14087826000,$$,4.0,284,[],https://www.yelp.com/biz/vietasia-morgan-hill-2?adjust_creative=Wu9gfEkr1Iqmmu5UKQvcJw&utm_campaign=yelp_api_v3&utm_medium=api_v3_business_search&utm_source=Wu9gfEkr1Iqmmu5UKQvcJw
jontys-vietnamese-eatery-morgan-hill,"['vietnamese', 'cafes', 'sandwiches']","['Vietnamese', 'Cafes', 'Sandwiches']",37.12916,-121.65052,(408) 722-0517,24620.7761259787,1ffxBAzwk2MmO-ozRskEoA,https://s3-media3.fl.yelpcdn.com/bphoto/7Hpwc9sqD1yAW9pgJ8Hznw/o.jpg,17300 Depot St,,,Morgan Hill,US,CA,95037,Jonty's Vietnamese Eatery,+14087220517,$,4.5,338,[],https://www.yelp.com/biz/jontys-vietnamese-eatery-morgan-hill?adjust_creative=Wu9gfEkr1Iqmmu5UKQvcJw&utm_campaign=yelp_api_v3&utm_medium=api_v3_business_search&utm_source=Wu9gfEkr1Iqmmu5UKQvcJw
qq-noodle-marina,['vietnamese'],['Vietnamese'],36.6827251122071,-121.790388624714,(831) 384-7256,27640.279085861166,H_ev8vWtkmIB1ppsQcs9Jg,https://s3-media3.fl.yelpcdn.com/bphoto/9J9I1er8mOHbVVCSi5YQtg/o.jpg,330 Reservation Rd,Ste H,,Marina,US,CA,93933,QQ Noodle,+18313847256,$,4.5,60,[],https://www.yelp.com/biz/qq-noodle-marina?adjust_creative=Wu9gfEkr1Iqmmu5UKQvcJw&utm_campaign=yelp_api_v3&utm_medium=api_v3_business_search&utm_source=Wu9gfEkr1Iqmmu5UKQvcJw
orient-restaurant-seaside,"['vietnamese', 'chinese']","['Vietnamese', 'Chinese']",36.613624,-121.841987,(831) 394-2223,35802.996872235424,NgQoVmUJlm2GW4QllbmlAg,https://s3-media1.fl.yelpcdn.com/bphoto/otQsrKtYiWXUeAkKOefAFA/o.jpg,1760 Fremont Blvd,Ste C2,,Seaside,US,CA,93955,Orient Restaurant,+18313942223,$,4.0,105,[],https://www.yelp.com/biz/orient-restaurant-seaside?adjust_creative=Wu9gfEkr1Iqmmu5UKQvcJw&utm_campaign=yelp_api_v3&utm_medium=api_v3_business_search&utm_source=Wu9gfEkr1Iqmmu5UKQvcJw
mr-noodles-salinas-2,"['vietnamese', 'noodles']","['Vietnamese', 'Noodles']",36.6583292506424,-121.660647025394,(831) 272-3024,31945.18039192107,asEyKL2MJMTF0-IVcEX_iw,https://s3-media1.fl.yelpcdn.com/bphoto/hsocWW9gvUtd1JRIiLGtNg/o.jpg,1176 S Main St,,,Salinas,US,CA,93901,Mr Noodles,+18312723024,$,3.5,184,[],https://www.yelp.com/biz/mr-noodles-salinas-2?adjust_creative=Wu9gfEkr1Iqmmu5UKQvcJw&utm_campaign=yelp_api_v3&utm_medium=api_v3_business_search&utm_source=Wu9gfEkr1Iqmmu5UKQvcJw
pho-morgan-hill-morgan-hill,['vietnamese'],['Vietnamese'],37.123765,-121.65081,(408) 779-1728,24061.60458717921,GkQgGEP9mWXcsUa9DML9AA,https://s3-media2.fl.yelpcdn.com/bphoto/MEvX9_sHkwlibxJDdHZiYw/o.jpg,16965 Monterey Rd,,Ste 102 B,Morgan Hill,US,CA,95037,Pho Morgan Hill,+14087791728,$$,4.0,260,[],https://www.yelp.com/biz/pho-morgan-hill-morgan-hill?adjust_creative=Wu9gfEkr1Iqmmu5UKQvcJw&utm_campaign=yelp_api_v3&utm_medium=api_v3_business_search&utm_source=Wu9gfEkr1Iqmmu5UKQvcJw
simmering-pho-cafe-morgan-hill-2,"['vietnamese', 'cafes']","['Vietnamese', 'Cafes']",37.128375,-121.659042,(408) 779-2233,24202.69926480046,Stw4U6F52AoD21d4mQ3TTg,https://s3-media2.fl.yelpcdn.com/bphoto/aFDawezdFGB-aV0vsGzbQA/o.jpg,213 W Main Ave,,,Morgan Hill,US,CA,95037,Simmering Pho Cafe,+14087792233,$$,4.0,260,[],https://www.yelp.com/biz/simmering-pho-cafe-morgan-hill-2?adjust_creative=Wu9gfEkr1Iqmmu5UKQvcJw&utm_campaign=yelp_api_v3&utm_medium=api_v3_business_search&utm_source=Wu9gfEkr1Iqmmu5UKQvcJw
chopstix-seaside-2,['vietnamese'],['Vietnamese'],36.6160559219163,-121.841628712271,(831) 899-2622,35531.07091987336,9nn8-7DA-aBmFPBhpjrUVg,https://s3-media4.fl.yelpcdn.com/bphoto/INjuSLKZWcE5wEwqAkkhyA/o.jpg,1868 Fremont Blvd,,,Seaside,US,CA,93955,Chopstix,+18318992622,$,3.5,357,['pickup'],https://www.yelp.com/biz/chopstix-seaside-2?adjust_creative=Wu9gfEkr1Iqmmu5UKQvcJw&utm_campaign=yelp_api_v3&utm_medium=api_v3_business_search&utm_source=Wu9gfEkr1Iqmmu5UKQvcJw
pineapple-village-gilroy,"['asianfusion', 'vietnamese', 'thai']","['Asian Fusion', 'Vietnamese', 'Thai']",37.01427,-121.585,(408) 842-2888,19187.82156542284,y_3RHd5d-UPziSkYXvahvQ,https://s3-media1.fl.yelpcdn.com/bphoto/m990XIcQpnztyWX0TtWt7A/o.jpg,769 First St,,,Gilroy,US,CA,95020,Pineapple Village,+14088422888,$$,4.0,528,[],https://www.yelp.com/biz/pineapple-village-gilroy?adjust_creative=Wu9gfEkr1Iqmmu5UKQvcJw&utm_campaign=yelp_api_v3&utm_medium=api_v3_business_search&utm_source=Wu9gfEkr1Iqmmu5UKQvcJw
super-noodle-hollister,"['vietnamese', 'noodles']","['Vietnamese', 'Noodles']",36.8522453367962,-121.398166439991,(831) 637-2189,34535.47884414377,GEDdplTOyCV0fsJE7s2Oig,https://s3-media1.fl.yelpcdn.com/bphoto/Z8RRciPcJWrG4t9m2yIL9A/o.jpg,195 Meridian St,,,Hollister,US,CA,95023,Super Noodle,+18316372189,$,4.0,80,[],https://www.yelp.com/biz/super-noodle-hollister?adjust_creative=Wu9gfEkr1Iqmmu5UKQvcJw&utm_campaign=yelp_api_v3&utm_medium=api_v3_business_search&utm_source=Wu9gfEkr1Iqmmu5UKQvcJw
chopstix-vietnamese-restaurant-salinas,"['vietnamese', 'noodles', 'soup']","['Vietnamese', 'Noodles', 'Soup']",36.7167769673057,-121.656121507258,(831) 442-2622,25931.48401256462,Czo2ykNi-lHtNpFvm7W2hg,https://s3-media2.fl.yelpcdn.com/bphoto/0dGlN0astXDYKZLe92DIgg/o.jpg,624 Northridge Mall Shopping Ctr,,,Salinas,US,CA,93906,Chopstix Vietnamese Restaurant,+18314422622,,4.0,37,"['pickup', 'delivery']",https://www.yelp.com/biz/chopstix-vietnamese-restaurant-salinas?adjust_creative=Wu9gfEkr1Iqmmu5UKQvcJw&utm_campaign=yelp_api_v3&utm_medium=api_v3_business_search&utm_source=Wu9gfEkr1Iqmmu5UKQvcJw
simpleviet-san-jose-3,['vietnamese'],['Vietnamese'],37.2322932438436,-121.775167176582,(408) 363-2152,33508.37103609224,ZOlnekJcnu90J8FYXRUaGA,https://s3-media3.fl.yelpcdn.com/bphoto/F8KYsyYO7TriCWGfOQUjBw/o.jpg,125 Bernal Rd,Ste 60,,San Jose,US,CA,95119,SimpleViet,+14083632152,$,4.0,471,"['pickup', 'delivery']",https://www.yelp.com/biz/simpleviet-san-jose-3?adjust_creative=Wu9gfEkr1Iqmmu5UKQvcJw&utm_campaign=yelp_api_v3&utm_medium=api_v3_business_search&utm_source=Wu9gfEkr1Iqmmu5UKQvcJw
pho-1-salinas-2,"['vietnamese', 'noodles', 'sandwiches']","['Vietnamese', 'Noodles', 'Sandwiches']",36.7194086,-121.6513862,(831) 998-8887,26003.98753135723,9LF9RLcqEklEw5t3DZTvqg,https://s3-media1.fl.yelpcdn.com/bphoto/vdrQH7X0c0Bexsz3QvelkQ/o.jpg,1818 North Main St,,,Salinas,US,CA,93906,Pho 1,+18319988887,,4.0,38,[],https://www.yelp.com/biz/pho-1-salinas-2?adjust_creative=Wu9gfEkr1Iqmmu5UKQvcJw&utm_campaign=yelp_api_v3&utm_medium=api_v3_business_search&utm_source=Wu9gfEkr1Iqmmu5UKQvcJw
santa-cruz-diner-santa-cruz,"['diners', 'vietnamese', 'asianfusion']","['Diners', 'Vietnamese', 'Asian Fusion']",36.98039,-122.02187,(831) 426-7151,22717.721179055297,J_-b5tt-w5wTw2YFaoBUEA,https://s3-media3.fl.yelpcdn.com/bphoto/QQYoiv2RBXnEcfnQybbFnw/o.jpg,909 Ocean St,,,Santa Cruz,US,CA,95060,Santa Cruz Diner,+18314267151,$,2.5,1286,['pickup'],https://www.yelp.com/biz/santa-cruz-diner-santa-cruz?adjust_creative=Wu9gfEkr1Iqmmu5UKQvcJw&utm_campaign=yelp_api_v3&utm_medium=api_v3_business_search&utm_source=Wu9gfEkr1Iqmmu5UKQvcJw
new-tung-kee-noddle-house-gilroy,['noodles'],['Noodles'],37.002594,-121.55466,(408) 847-6988,21038.806839504865,qd0rPyJMuXOZ93YT50y1DA,https://s3-media3.fl.yelpcdn.com/bphoto/DcUhHbrsHzJez_qq9a3Qpg/o.jpg,6905 Camino Arroyo,Ste 10,,Gilroy,US,CA,95020,New Tung Kee Noddle House,+14088476988,$,3.0,187,[],https://www.yelp.com/biz/new-tung-kee-noddle-house-gilroy?adjust_creative=Wu9gfEkr1Iqmmu5UKQvcJw&utm_campaign=yelp_api_v3&utm_medium=api_v3_business_search&utm_source=Wu9gfEkr1Iqmmu5UKQvcJw
lemongrass-moss-landing-3,"['thai', 'bars', 'seafood']","['Thai', 'Bars', 'Seafood']",36.791317,-121.78415,(831) 633-0700,15553.204969087223,C_7_M4k64aD1EtywariGpg,https://s3-media1.fl.yelpcdn.com/bphoto/b3c_io0gQU69Tr-v2aX02Q/o.jpg,413 Moss Landing Rd,,,Moss Landing,US,CA,95039,Lemongrass,+18316330700,$$,4.5,311,[],https://www.yelp.com/biz/lemongrass-moss-landing-3?adjust_creative=Wu9gfEkr1Iqmmu5UKQvcJw&utm_campaign=yelp_api_v3&utm_medium=api_v3_business_search&utm_source=Wu9gfEkr1Iqmmu5UKQvcJw
oyunaas-mongolian-cuisine-santa-cruz,"['mongolian', 'russian', 'asianfusion']","['Mongolian', 'Russian', 'Asian Fusion']",36.9800638543251,-122.010261917183,(831) 469-9900,21706.354662837864,vEyMpA_6NgKZgLowwUPSFA,https://s3-media3.fl.yelpcdn.com/bphoto/WFJHQWN7r9IaM0oWVyyWkA/o.jpg,1209 Soquel Ave,,,Santa Cruz,US,CA,95062,Oyunaa's Mongolian Cuisine,+18314699900,$$,4.5,262,[],https://www.yelp.com/biz/oyunaas-mongolian-cuisine-santa-cruz?adjust_creative=Wu9gfEkr1Iqmmu5UKQvcJw&utm_campaign=yelp_api_v3&utm_medium=api_v3_business_search&utm_source=Wu9gfEkr1Iqmmu5UKQvcJw
charlie-hong-kong-santa-cruz,"['vegan', 'gluten_free']","['Vegan', 'Gluten-Free']",36.97989,-122.01092,(831) 426-5664,21750.734283189704,a3Gv6M0nVvcAdzcJHwWWwA,https://s3-media4.fl.yelpcdn.com/bphoto/-lAB2Eh8LIP3XxWaLkR8Mg/o.jpg,1141 Soquel Ave,,,Santa Cruz,US,CA,95062,Charlie Hong Kong,+18314265664,$,3.5,853,"['pickup', 'delivery']",https://www.yelp.com/biz/charlie-hong-kong-santa-cruz?adjust_creative=Wu9gfEkr1Iqmmu5UKQvcJw&utm_campaign=yelp_api_v3&utm_medium=api_v3_business_search&utm_source=Wu9gfEkr1Iqmmu5UKQvcJw
second-street-cafe-watsonville,"['coffee', 'sandwiches', 'juicebars']","['Coffee & Tea', 'Sandwiches', 'Juice Bars & Smoothies']",36.9087219238281,-121.756622314453,(831) 724-7500,2905.0894269775968,7-EywTGxMHK9B76CRzJX7Q,https://s3-media3.fl.yelpcdn.com/bphoto/zPCFbrYU834ztVql_H1DiA/o.jpg,28 Second St,Ste 100,,Watsonville,US,CA,95076,Second Street Cafe,+18317247500,$,3.0,141,[],https://www.yelp.com/biz/second-street-cafe-watsonville?adjust_creative=Wu9gfEkr1Iqmmu5UKQvcJw&utm_campaign=yelp_api_v3&utm_medium=api_v3_business_search&utm_source=Wu9gfEkr1Iqmmu5UKQvcJw
eyefinitea-optique-and-lounge-morgan-hill-5,"['opticians', 'bubbletea', 'icecream']","['Eyewear & Opticians', 'Bubble Tea', 'Ice Cream & Frozen Yogurt']",37.11032,-121.63882,(669) 888-3883,23271.135586408254,SX84XqxDsw5wzllbWGsmgg,https://s3-media4.fl.yelpcdn.com/bphoto/fDfmjOZjzYL_f9ukAeHoZw/o.jpg,15700 Monterey Rd,Ste 100,,Morgan Hill,US,CA,95037,EYEfiniTEA Optique & Lounge,+16698883883,$,4.5,148,[],https://www.yelp.com/biz/eyefinitea-optique-and-lounge-morgan-hill-5?adjust_creative=Wu9gfEkr1Iqmmu5UKQvcJw&utm_campaign=yelp_api_v3&utm_medium=api_v3_business_search&utm_source=Wu9gfEkr1Iqmmu5UKQvcJw
pho-spot-san-jose,['vietnamese'],['Vietnamese'],37.2363749,-121.91516,(408) 402-5799,36223.09674275965,lkFiGowkFs8U35Tw9mE_jA,https://s3-media1.fl.yelpcdn.com/bphoto/4o-WO3n1Co0JE6B1UwMLww/o.jpg,1769 Blossom Hill Rd,,,San Jose,US,CA,95124,Pho Spot,+14084025799,$$,4.0,341,[],https://www.yelp.com/biz/pho-spot-san-jose?adjust_creative=Wu9gfEkr1Iqmmu5UKQvcJw&utm_campaign=yelp_api_v3&utm_medium=api_v3_business_search&utm_source=Wu9gfEkr1Iqmmu5UKQvcJw
golden-fu-wah-soquel-2,"['chinese', 'asianfusion']","['Chinese', 'Asian Fusion']",36.98758,-121.95797,(831) 515-7508,17547.263072789974,jXymrUth8YdD4E_GwECUOg,https://s3-media3.fl.yelpcdn.com/bphoto/VFfE9GK7nx_Of-76b_LoRQ/o.jpg,4610 Soquel Dr,,,Soquel,US,CA,95073,Golden Fu Wah,+18315157508,$$,4.0,230,[],https://www.yelp.com/biz/golden-fu-wah-soquel-2?adjust_creative=Wu9gfEkr1Iqmmu5UKQvcJw&utm_campaign=yelp_api_v3&utm_medium=api_v3_business_search&utm_source=Wu9gfEkr1Iqmmu5UKQvcJw
fujiyama-salinas-2,"['japanese', 'sushi', 'asianfusion']","['Japanese', 'Sushi Bars', 'Asian Fusion']",36.69471,-121.66803,(831) 422-6888,27905.321353973082,M0OCGDn6_Hn8bbtMor4z4A,https://s3-media3.fl.yelpcdn.com/bphoto/kKl216UMqPpcZVCT7AR6Xw/o.jpg,1000 N Davis Rd,,,Salinas,US,CA,93907,Fujiyama,+18314226888,$$,4.0,215,[],https://www.yelp.com/biz/fujiyama-salinas-2?adjust_creative=Wu9gfEkr1Iqmmu5UKQvcJw&utm_campaign=yelp_api_v3&utm_medium=api_v3_business_search&utm_source=Wu9gfEkr1Iqmmu5UKQvcJw
pho-la-san-jose,"['vietnamese', 'soup']","['Vietnamese', 'Soup']",37.2380180354242,-121.832337589827,(408) 363-7998,34536.84873781878,AF64tcDNOE9shHNHC9hOfw,https://s3-media1.fl.yelpcdn.com/bphoto/ilAjkyR04rawyRlB7MdNFA/o.jpg,6055 Snell Ave,,,San Jose,US,CA,95123,Pho LA,+14083637998,$,4.0,245,[],https://www.yelp.com/biz/pho-la-san-jose?adjust_creative=Wu9gfEkr1Iqmmu5UKQvcJw&utm_campaign=yelp_api_v3&utm_medium=api_v3_business_search&utm_source=Wu9gfEkr1Iqmmu5UKQvcJw
lees-garden-restaurant-marina,['chinese'],['Chinese'],36.6877212524414,-121.797927856445,(831) 384-6888,27095.98469447813,WxCP3J6-KT6wOryb1hFYvw,https://s3-media1.fl.yelpcdn.com/bphoto/ITwCq6KIndnITIauDDypOg/o.jpg,215 Reservation Rd,Ste A,,Marina,US,CA,93933,Lee's Garden Restaurant,+18313846888,$$,3.0,178,[],https://www.yelp.com/biz/lees-garden-restaurant-marina?adjust_creative=Wu9gfEkr1Iqmmu5UKQvcJw&utm_campaign=yelp_api_v3&utm_medium=api_v3_business_search&utm_source=Wu9gfEkr1Iqmmu5UKQvcJw
sala-thai-santa-cruz-2,['thai'],['Thai'],36.975006,-122.01935,(831) 426-1214,22359.603300782623,-agF_hmNFJXGDuDNa_olqw,https://s3-media3.fl.yelpcdn.com/bphoto/o9btjXnM4FloJlTteazvxw/o.jpg,353 Soquel Ave,,,Santa Cruz,US,CA,95062,Sala Thai,+18314261214,$$,4.0,161,[],https://www.yelp.com/biz/sala-thai-santa-cruz-2?adjust_creative=Wu9gfEkr1Iqmmu5UKQvcJw&utm_campaign=yelp_api_v3&utm_medium=api_v3_business_search&utm_source=Wu9gfEkr1Iqmmu5UKQvcJw
the-sandwich-maker-los-gatos,"['sandwiches', 'vietnamese']","['Sandwiches', 'Vietnamese']",37.25235,-121.96693,(408) 395-6331,39627.53838073997,co8pku00QuwIDdAsGd8JEw,https://s3-media2.fl.yelpcdn.com/bphoto/VBXjBs5LnkFj-mJTwpzujw/o.jpg,987 University Ave,,,Los Gatos,US,CA,95032,The Sandwich Maker,+14083956331,$,4.0,109,[],https://www.yelp.com/biz/the-sandwich-maker-los-gatos?adjust_creative=Wu9gfEkr1Iqmmu5UKQvcJw&utm_campaign=yelp_api_v3&utm_medium=api_v3_business_search&utm_source=Wu9gfEkr1Iqmmu5UKQvcJw
thai-basil-capitola,['thai'],['Thai'],36.9732399,-121.95025,(831) 479-8985,16372.055166617307,kVoN3Da1oBoGTy8AEJewpQ,https://s3-media2.fl.yelpcdn.com/bphoto/Q3RB3EYXXG8PKL3EJkz5-A/o.jpg,210 Monterey Ave,Ste 3,,Capitola,US,CA,95010,Thai Basil,+18314798985,$,4.0,210,[],https://www.yelp.com/biz/thai-basil-capitola?adjust_creative=Wu9gfEkr1Iqmmu5UKQvcJw&utm_campaign=yelp_api_v3&utm_medium=api_v3_business_search&utm_source=Wu9gfEkr1Iqmmu5UKQvcJw
aloha-island-grille-santa-cruz,"['hawaiian', 'asianfusion']","['Hawaiian', 'Asian Fusion']",36.96262,-121.98781,(831) 479-3299,19338.642363068848,WpPfPwz--zi-McfCUTidHA,https://s3-media1.fl.yelpcdn.com/bphoto/2auBujL9IzdzWTQ1xPSWiQ/o.jpg,1700 Portola Dr,,,Santa Cruz,US,CA,95062,Aloha Island Grille,+18314793299,$,4.0,417,[],https://www.yelp.com/biz/aloha-island-grille-santa-cruz?adjust_creative=Wu9gfEkr1Iqmmu5UKQvcJw&utm_campaign=yelp_api_v3&utm_medium=api_v3_business_search&utm_source=Wu9gfEkr1Iqmmu5UKQvcJw
pho-24-san-jose-5,['vietnamese'],['Vietnamese'],37.25113,-121.85841,(408) 224-3888,36381.79571490142,mYd2pUZ7BHc0WiB7dBjx6Q,https://s3-media1.fl.yelpcdn.com/bphoto/indCYYMN8l0-7scTNIKBVg/o.jpg,5592 Santa Teresa Blvd,Ste B,,San Jose,US,CA,95123,Pho 24,+14082243888,$$,4.5,102,"['pickup', 'delivery']",https://www.yelp.com/biz/pho-24-san-jose-5?adjust_creative=Wu9gfEkr1Iqmmu5UKQvcJw&utm_campaign=yelp_api_v3&utm_medium=api_v3_business_search&utm_source=Wu9gfEkr1Iqmmu5UKQvcJw
pho-enjoy-san-jose-6,"['vietnamese', 'coffee', 'sandwiches']","['Vietnamese', 'Coffee & Tea', 'Sandwiches']",37.2534981657963,-121.797234900053,(408) 784-3168,35926.04459586531,eClvA6mZSmOIVaTGclzm3Q,https://s3-media4.fl.yelpcdn.com/bphoto/EdICgY74TGXh3SgVMEtpmQ/o.jpg,5556 Monterey Rd,,,San Jose,US,CA,95138,Pho Enjoy,+14087843168,$,4.0,32,[],https://www.yelp.com/biz/pho-enjoy-san-jose-6?adjust_creative=Wu9gfEkr1Iqmmu5UKQvcJw&utm_campaign=yelp_api_v3&utm_medium=api_v3_business_search&utm_source=Wu9gfEkr1Iqmmu5UKQvcJw
hulas-island-grill-monterey-2,"['asianfusion', 'hawaiian', 'seafood']","['Asian Fusion', 'Hawaiian', 'Seafood']",36.6139988,-121.9018829,(831) 655-4852,37038.28489661995,pxzd8IsDLzJhF442xacbfA,https://s3-media1.fl.yelpcdn.com/bphoto/BBRV4PxCI-H75PdU8F1vmQ/o.jpg,622 Lighthouse Ave,,,Monterey,US,CA,93940,Hula's Island Grill,+18316554852,$$,4.0,2152,[],https://www.yelp.com/biz/hulas-island-grill-monterey-2?adjust_creative=Wu9gfEkr1Iqmmu5UKQvcJw&utm_campaign=yelp_api_v3&utm_medium=api_v3_business_search&utm_source=Wu9gfEkr1Iqmmu5UKQvcJw
tk-noodle-gilroy,"['vietnamese', 'noodles']","['Vietnamese', 'Noodles']",37.0271595480529,-121.566629818389,,21289.043831789182,XLNDNhd7g1T74_uomntIEw,https://s3-media4.fl.yelpcdn.com/bphoto/o2jCtNAImS6lajz5v9sBPg/o.jpg,8660 San Ysidro Ave,Ste 108,San Ysidro Shopping Ctr,Gilroy,US,CA,95020,TK Noodle,,$,3.0,99,[],https://www.yelp.com/biz/tk-noodle-gilroy?adjust_creative=Wu9gfEkr1Iqmmu5UKQvcJw&utm_campaign=yelp_api_v3&utm_medium=api_v3_business_search&utm_source=Wu9gfEkr1Iqmmu5UKQvcJw
zab-zab-thai-cuisine-monterey,['thai'],['Thai'],36.6115,-121.90038,(831) 747-2225,37266.36525750863,5JTNFNyhHgbSqCyqmanGrw,https://s3-media2.fl.yelpcdn.com/bphoto/3Jbz6KVz-oN4ekSyWnM97w/o.jpg,401 Lighthouse Ave,,,Monterey,US,CA,93940,Zab Zab Thai Cuisine,+18317472225,$$,4.0,447,[],https://www.yelp.com/biz/zab-zab-thai-cuisine-monterey?adjust_creative=Wu9gfEkr1Iqmmu5UKQvcJw&utm_campaign=yelp_api_v3&utm_medium=api_v3_business_search&utm_source=Wu9gfEkr1Iqmmu5UKQvcJw
mumfresh-vietnamese-eatery-san-jose,['vietnamese'],['Vietnamese'],37.2512105534747,-121.864456845882,(408) 622-8110,36507.53525907195,njlYH4DoOMwGa01IZbaCSw,https://s3-media3.fl.yelpcdn.com/bphoto/Nzv5vIWdnynwW0ld2TEg5A/o.jpg,925 Blossom Hill Rd,,Westfield's Shopping Ctr,San Jose,US,CA,95123,Mumfresh Vietnamese Eatery,+14086228110,$,3.5,122,"['pickup', 'delivery']",https://www.yelp.com/biz/mumfresh-vietnamese-eatery-san-jose?adjust_creative=Wu9gfEkr1Iqmmu5UKQvcJw&utm_campaign=yelp_api_v3&utm_medium=api_v3_business_search&utm_source=Wu9gfEkr1Iqmmu5UKQvcJw
tealite-drinks-and-snow-morgan-hill,"['icecream', 'bubbletea']","['Ice Cream & Frozen Yogurt', 'Bubble Tea']",37.1133500672568,-121.638360587448,(408) 778-4222,23580.13421791447,2G7EDdQ9jAtmhDetVx_gkA,https://s3-media3.fl.yelpcdn.com/bphoto/y4p7wbJwO05lUTEmbcBmXw/o.jpg,624 Tennant Station,,,Morgan Hill,US,CA,95037,TeaLite Drinks & Snow,+14087784222,$,4.0,175,['pickup'],https://www.yelp.com/biz/tealite-drinks-and-snow-morgan-hill?adjust_creative=Wu9gfEkr1Iqmmu5UKQvcJw&utm_campaign=yelp_api_v3&utm_medium=api_v3_business_search&utm_source=Wu9gfEkr1Iqmmu5UKQvcJw
union-foodie-truck-santa-cruz,"['foodtrucks', 'asianfusion']","['Food Trucks', 'Asian Fusion']",36.9741171915012,-122.030796222389,,23332.64804855412,FP-rRvYTqPztVmfP3k7Z7w,https://s3-media2.fl.yelpcdn.com/bphoto/hI-mMajad-R1W0dqqMH7KQ/o.jpg,,,,Santa Cruz,US,CA,95060,Union Foodie Truck,,,4.0,2,[],https://www.yelp.com/biz/union-foodie-truck-santa-cruz?adjust_creative=Wu9gfEkr1Iqmmu5UKQvcJw&utm_campaign=yelp_api_v3&utm_medium=api_v3_business_search&utm_source=Wu9gfEkr1Iqmmu5UKQvcJw
tea-zone-santa-cruz-santa-cruz,"['bubbletea', 'juicebars']","['Bubble Tea', 'Juice Bars & Smoothies']",36.9648326,-122.0416559,(831) 772-1717,24066.069586353853,tMsgLEI3rcA4czX2C7jTpw,https://s3-media1.fl.yelpcdn.com/bphoto/5rZ2ozFUd15SgU5EHGKMDw/o.jpg,1717 Mission St,,,Santa Cruz,US,CA,95060,Tea Zone - Santa Cruz,+18317721717,$,4.0,76,[],https://www.yelp.com/biz/tea-zone-santa-cruz-santa-cruz?adjust_creative=Wu9gfEkr1Iqmmu5UKQvcJw&utm_campaign=yelp_api_v3&utm_medium=api_v3_business_search&utm_source=Wu9gfEkr1Iqmmu5UKQvcJw
eagle-restaurant-salinas-2,['chinese'],['Chinese'],36.6738012,-121.6556379,(831) 751-2312,30448.91570154044,dJfBvnejPc0Aey5-hq5MSg,https://s3-media2.fl.yelpcdn.com/bphoto/urnheaaiNe7JHUpBfWwYaA/o.jpg,26 W Alisal St,,,Salinas,US,CA,93901,Eagle Restaurant,+18317512312,$$,4.0,244,[],https://www.yelp.com/biz/eagle-restaurant-salinas-2?adjust_creative=Wu9gfEkr1Iqmmu5UKQvcJw&utm_campaign=yelp_api_v3&utm_medium=api_v3_business_search&utm_source=Wu9gfEkr1Iqmmu5UKQvcJw
sawasdee-soquel,['thai'],['Thai'],36.9875221252441,-121.952949523926,(831) 462-5051,17106.26419498079,48LjA6bMGVwH1Xamu2zV6g,https://s3-media2.fl.yelpcdn.com/bphoto/Vjx6O_QsJjOX70DEcn-W0g/o.jpg,5050 Soquel Dr,,,Soquel,US,CA,95073,Sawasdee,+18314625051,$$,4.0,324,[],https://www.yelp.com/biz/sawasdee-soquel?adjust_creative=Wu9gfEkr1Iqmmu5UKQvcJw&utm_campaign=yelp_api_v3&utm_medium=api_v3_business_search&utm_source=Wu9gfEkr1Iqmmu5UKQvcJw
sonnys-cafe-san-jose,['vietnamese'],['Vietnamese'],37.250661739771,-121.80450731761,(408) 281-7899,35654.59434960795,4843BqFnRS-6urUEDao1jg,https://s3-media3.fl.yelpcdn.com/bphoto/Crrv3qnrvh1zPvFJCU2hRQ/o.jpg,5643 Cottle Rd,,,San Jose,US,CA,95123,Sonny's Cafe,+14082817899,$,3.5,247,[],https://www.yelp.com/biz/sonnys-cafe-san-jose?adjust_creative=Wu9gfEkr1Iqmmu5UKQvcJw&utm_campaign=yelp_api_v3&utm_medium=api_v3_business_search&utm_source=Wu9gfEkr1Iqmmu5UKQvcJw
lin-garden-san-jose,"['chinese', 'noodles']","['Chinese', 'Noodles']",37.211175,-121.84631,(408) 997-1566,31816.460120769654,HHqrGJImVtamtnKfPsiJPQ,https://s3-media3.fl.yelpcdn.com/bphoto/LTx0fZk6yyAgVoK6lWlOEA/o.jpg,6924 Almaden Expy,,,San Jose,US,CA,95120,Lin Garden,+14089971566,$,4.0,65,[],https://www.yelp.com/biz/lin-garden-san-jose?adjust_creative=Wu9gfEkr1Iqmmu5UKQvcJw&utm_campaign=yelp_api_v3&utm_medium=api_v3_business_search&utm_source=Wu9gfEkr1Iqmmu5UKQvcJw
house-of-pho-san-jose,['vietnamese'],['Vietnamese'],37.2520402575783,-121.879298,(408) 266-6683,36908.98827540994,VoRDJOdgaUTaNLRp9WbRXg,https://s3-media3.fl.yelpcdn.com/bphoto/BKYcINzI4nLLFsHNaVlMwQ/o.jpg,5353 Almaden Expy,Ste 50,,San Jose,US,CA,95118,House of Pho,+14082666683,$,3.5,420,[],https://www.yelp.com/biz/house-of-pho-san-jose?adjust_creative=Wu9gfEkr1Iqmmu5UKQvcJw&utm_campaign=yelp_api_v3&utm_medium=api_v3_business_search&utm_source=Wu9gfEkr1Iqmmu5UKQvcJw
ginger-cafe-gilroy,"['asianfusion', 'chinese']","['Asian Fusion', 'Chinese']",37.0263876,-121.5667884,(408) 847-2625,21233.916765232527,fjmr2KhfHqa1lMR5yf6uLg,https://s3-media4.fl.yelpcdn.com/bphoto/tymoMncH2tgjNAJsAeUn4Q/o.jpg,8657 San Ysidro Ave,,,Gilroy,US,CA,95020,Ginger Cafe,+14088472625,$$,3.5,305,['pickup'],https://www.yelp.com/biz/ginger-cafe-gilroy?adjust_creative=Wu9gfEkr1Iqmmu5UKQvcJw&utm_campaign=yelp_api_v3&utm_medium=api_v3_business_search&utm_source=Wu9gfEkr1Iqmmu5UKQvcJw
siam-thai-restaurant-morgan-hill,['thai'],['Thai'],37.12685,-121.65093,(408) 776-1559,24357.444893067233,IwnZSWYOeIWCYJCXCJTX5w,https://s3-media4.fl.yelpcdn.com/bphoto/PLNvHcg8EYf_4CSitdBBVg/o.jpg,17120 Monterey Rd,,,Morgan Hill,US,CA,95037,Siam Thai Restaurant,+14087761559,$$,4.0,623,[],https://www.yelp.com/biz/siam-thai-restaurant-morgan-hill?adjust_creative=Wu9gfEkr1Iqmmu5UKQvcJw&utm_campaign=yelp_api_v3&utm_medium=api_v3_business_search&utm_source=Wu9gfEkr1Iqmmu5UKQvcJw
canton-santa-cruz,['chinese'],['Chinese'],36.96485,-121.96453,(831) 475-8751,17367.908404071408,mjvr9c14kkQZKE-tAuvMcw,https://s3-media2.fl.yelpcdn.com/bphoto/CMHrJRmsKBQJLP_YhrS7AA/o.jpg,900 41st Ave,,,Santa Cruz,US,CA,95062,Canton,+18314758751,$$,3.5,230,[],https://www.yelp.com/biz/canton-santa-cruz?adjust_creative=Wu9gfEkr1Iqmmu5UKQvcJw&utm_campaign=yelp_api_v3&utm_medium=api_v3_business_search&utm_source=Wu9gfEkr1Iqmmu5UKQvcJw
pho-boba-san-jose,"['vietnamese', 'bubbletea']","['Vietnamese', 'Bubble Tea']",37.245196,-121.804763,(408) 226-2013,35079.70856464725,2drx1FyipItFw3_I0FpX5g,https://s3-media3.fl.yelpcdn.com/bphoto/JZHM5HHXfSyq9XqNPJRbLQ/o.jpg,5815 Cottle Rd,,,San Jose,US,CA,95123,Pho Boba,+14082262013,,4.0,52,"['pickup', 'delivery']",https://www.yelp.com/biz/pho-boba-san-jose?adjust_creative=Wu9gfEkr1Iqmmu5UKQvcJw&utm_campaign=yelp_api_v3&utm_medium=api_v3_business_search&utm_source=Wu9gfEkr1Iqmmu5UKQvcJw
roys-at-pebble-beach-pebble-beach-2,"['asianfusion', 'hawaiian', 'seafood']","['Asian Fusion', 'Hawaiian', 'Seafood']",36.6124865800223,-121.942866789688,(831) 647-7423,38478.83618763535,5OdMAhFOM9cdxwMDDTpKJQ,https://s3-media2.fl.yelpcdn.com/bphoto/-QFAlNcIuIC25fCdHw_quQ/o.jpg,The Inn At Spanish Bay,2700 17 Mile Dr,,Pebble Beach,US,CA,93953,Roy's at Pebble Beach,+18316477423,$$$,4.0,437,[],https://www.yelp.com/biz/roys-at-pebble-beach-pebble-beach-2?adjust_creative=Wu9gfEkr1Iqmmu5UKQvcJw&utm_campaign=yelp_api_v3&utm_medium=api_v3_business_search&utm_source=Wu9gfEkr1Iqmmu5UKQvcJw
thai-love-you-san-jose,"['thai', 'asianfusion', 'noodles']","['Thai', 'Asian Fusion', 'Noodles']",37.23033,-121.88501,(408) 268-8499,34720.179305868085,SacjM5laxwNnXTpWdggoOg,https://s3-media4.fl.yelpcdn.com/bphoto/1OW5RFHxaQAao3YTt6ylkg/o.jpg,6055 Meridian Ave,Ste 100,,San Jose,US,CA,95120,Thai Love You,+14082688499,$$,4.5,311,"['pickup', 'delivery']",https://www.yelp.com/biz/thai-love-you-san-jose?adjust_creative=Wu9gfEkr1Iqmmu5UKQvcJw&utm_campaign=yelp_api_v3&utm_medium=api_v3_business_search&utm_source=Wu9gfEkr1Iqmmu5UKQvcJw
malabar-restaurant-santa-cruz,"['vegan', 'vegetarian', 'asianfusion']","['Vegan', 'Vegetarian', 'Asian Fusion']",36.97251,-122.02403,(831) 458-3023,22727.206303304083,FlOc_y0Iv_QtmUuIUYW2pg,https://s3-media2.fl.yelpcdn.com/bphoto/kUta3xp4-9osviVc7SHHTg/o.jpg,514 Front St,,,Santa Cruz,US,CA,95060,Malabar Restaurant,+18314583023,$$,4.0,737,[],https://www.yelp.com/biz/malabar-restaurant-santa-cruz?adjust_creative=Wu9gfEkr1Iqmmu5UKQvcJw&utm_campaign=yelp_api_v3&utm_medium=api_v3_business_search&utm_source=Wu9gfEkr1Iqmmu5UKQvcJw
pho-to-thi-san-jose-3,"['vietnamese', 'juicebars', 'noodles']","['Vietnamese', 'Juice Bars & Smoothies', 'Noodles']",37.2533792099095,-121.831229142845,(408) 365-2042,36212.420399560106,q0YoOORPp5EMj5EzkixY7g,https://s3-media1.fl.yelpcdn.com/bphoto/QRcrYG2yyiIzPoyEtgsRkw/o.jpg,5499 Snell Ave,,,San Jose,US,CA,95123,Pho To Thi,+14083652042,$,3.5,80,[],https://www.yelp.com/biz/pho-to-thi-san-jose-3?adjust_creative=Wu9gfEkr1Iqmmu5UKQvcJw&utm_campaign=yelp_api_v3&utm_medium=api_v3_business_search&utm_source=Wu9gfEkr1Iqmmu5UKQvcJw
bonchon-santa-teresa-san-jose,"['korean', 'asianfusion', 'chicken_wings']","['Korean', 'Asian Fusion', 'Chicken Wings']",37.2266245570388,-121.775692575984,(408) 300-0927,32878.24720706934,4LVXBl7qitiDuYb8w9PrKw,https://s3-media3.fl.yelpcdn.com/bphoto/RZsmzLi1fkiJFrca_xoKhg/o.jpg,7026 Santa Teresa Blvd,Ste 30,,San Jose,US,CA,95139,Bonchon - Santa Teresa,+14083000927,,3.5,55,[],https://www.yelp.com/biz/bonchon-santa-teresa-san-jose?adjust_creative=Wu9gfEkr1Iqmmu5UKQvcJw&utm_campaign=yelp_api_v3&utm_medium=api_v3_business_search&utm_source=Wu9gfEkr1Iqmmu5UKQvcJw
bai-tong-thai-bistro-saratoga,['thai'],['Thai'],37.25738,-122.03429,(408) 872-1319,43021.19275890606,8nDBHlKu7sUshOMiDy8Jww,https://s3-media3.fl.yelpcdn.com/bphoto/7ItrBW2A8nYP-yAGd-KRUw/o.jpg,14515 Big Basin Way,,,Saratoga,US,CA,95070,Bai Tong Thai Bistro,+14088721319,$$,4.0,382,[],https://www.yelp.com/biz/bai-tong-thai-bistro-saratoga?adjust_creative=Wu9gfEkr1Iqmmu5UKQvcJw&utm_campaign=yelp_api_v3&utm_medium=api_v3_business_search&utm_source=Wu9gfEkr1Iqmmu5UKQvcJw
tealeaf-gilroy-3,['bubbletea'],['Bubble Tea'],37.01405,-121.59475,(408) 767-2087,18384.34040742219,C05gvFycHJYY1odX-sbKIA,https://s3-media2.fl.yelpcdn.com/bphoto/kXaToslD83IxjkIRko8p1g/o.jpg,1275 1st St,,,Gilroy,US,CA,95020,TeaLeaf,+14087672087,$,4.0,106,[],https://www.yelp.com/biz/tealeaf-gilroy-3?adjust_creative=Wu9gfEkr1Iqmmu5UKQvcJw&utm_campaign=yelp_api_v3&utm_medium=api_v3_business_search&utm_source=Wu9gfEkr1Iqmmu5UKQvcJw
dynasty-restaurant-pacific-grove,"['chinese', 'seafood', 'soup']","['Chinese', 'Seafood', 'Soup']",36.607976,-121.923104,(831) 648-9264,38294.887316714485,lSI4Lv61LbheB31IfsPL6A,https://s3-media3.fl.yelpcdn.com/bphoto/Ut87jDnDCQgsrskyP8Sb4w/o.jpg,1116 Forest Ave,Ste A,,Pacific Grove,US,CA,93950,Dynasty Restaurant,+18316489264,$$,3.0,189,"['pickup', 'delivery']",https://www.yelp.com/biz/dynasty-restaurant-pacific-grove?adjust_creative=Wu9gfEkr1Iqmmu5UKQvcJw&utm_campaign=yelp_api_v3&utm_medium=api_v3_business_search&utm_source=Wu9gfEkr1Iqmmu5UKQvcJw
happy-cafe-hollister,"['chinese', 'cafes']","['Chinese', 'Cafes']",36.85873,-121.400314,(831) 635-9286,34172.809282382485,SxjX05Qs5qPIPbu6TS4Hkw,https://s3-media4.fl.yelpcdn.com/bphoto/GASmfM4otWo2tzHudNlVxg/o.jpg,191 San Felipe Rd,Ste G,,Hollister,US,CA,95023,Happy Cafe,+18316359286,$,3.5,81,[],https://www.yelp.com/biz/happy-cafe-hollister?adjust_creative=Wu9gfEkr1Iqmmu5UKQvcJw&utm_campaign=yelp_api_v3&utm_medium=api_v3_business_search&utm_source=Wu9gfEkr1Iqmmu5UKQvcJw
surf-city-sandwich-soquel-2,['sandwiches'],['Sandwiches'],36.98776,-121.96506,(831) 346-6952,18101.797677254115,APr6z__fdz_-80X8VyKZFg,https://s3-media1.fl.yelpcdn.com/bphoto/Al_kTexdKJOqXRGQ725Evw/o.jpg,4101 B1 Soquel Dr,,,Soquel,US,CA,95073,Surf City Sandwich,+18313466952,$$,4.0,263,[],https://www.yelp.com/biz/surf-city-sandwich-soquel-2?adjust_creative=Wu9gfEkr1Iqmmu5UKQvcJw&utm_campaign=yelp_api_v3&utm_medium=api_v3_business_search&utm_source=Wu9gfEkr1Iqmmu5UKQvcJw
india-joze-santa-cruz,"['indpak', 'mideastern', 'panasian']","['Indian', 'Middle Eastern', 'Pan Asian']",36.9710655212402,-122.02384185791,(831) 325-3633,22658.78598668184,16Z5GForQgBtmtVgP1gSGg,https://s3-media2.fl.yelpcdn.com/bphoto/e5sEesQq4kpsZhRfROR-IA/o.jpg,418 Front St,,,Santa Cruz,US,CA,95060,India Joze,+18313253633,$$,4.0,152,[],https://www.yelp.com/biz/india-joze-santa-cruz?adjust_creative=Wu9gfEkr1Iqmmu5UKQvcJw&utm_campaign=yelp_api_v3&utm_medium=api_v3_business_search&utm_source=Wu9gfEkr1Iqmmu5UKQvcJw
sakura-seafood-buffet-salinas-salinas-2,"['buffets', 'chinese']","['Buffets', 'Chinese']",36.7064073,-121.6535499,(831) 443-3880,27074.661282727557,RCA_krNsCLVo2HlSDvD74Q,https://s3-media3.fl.yelpcdn.com/bphoto/AaHm7G6HMw75lZytqv9aJw/o.jpg,1433 N Main St,,,Salinas,US,CA,93906,Sakura Seafood Buffet - Salinas,+18314433880,$$,3.0,169,[],https://www.yelp.com/biz/sakura-seafood-buffet-salinas-salinas-2?adjust_creative=Wu9gfEkr1Iqmmu5UKQvcJw&utm_campaign=yelp_api_v3&utm_medium=api_v3_business_search&utm_source=Wu9gfEkr1Iqmmu5UKQvcJw
pacific-thai-santa-cruz-santa-cruz,"['thai', 'vegetarian', 'asianfusion']","['Thai', 'Vegetarian', 'Asian Fusion']",36.9737777709961,-122.026306152344,(831) 420-1700,22934.526642295612,I3MajY2cY9IkoD43ok-xqw,https://s3-media2.fl.yelpcdn.com/bphoto/I0QlVWJKA84l9VK7gpsX3g/o.jpg,1319 Pacific Ave,,,Santa Cruz,US,CA,95060,Pacific Thai Santa Cruz,+18314201700,$$,3.0,345,[],https://www.yelp.com/biz/pacific-thai-santa-cruz-santa-cruz?adjust_creative=Wu9gfEkr1Iqmmu5UKQvcJw&utm_campaign=yelp_api_v3&utm_medium=api_v3_business_search&utm_source=Wu9gfEkr1Iqmmu5UKQvcJw
oros-thai-chicken-and-rice-san-jose,"['thai', 'bubbletea']","['Thai', 'Bubble Tea']",37.249168,-121.831525,(408) 620-1200,35764.697394833194,6IKQzAh8PwZ52k3Sj9ZdDg,https://s3-media2.fl.yelpcdn.com/bphoto/2UFELlVHZsYj__uUBBxsGA/o.jpg,5663 Snell Ave,,,San Jose,US,CA,95123,Oros Thai Chicken & Rice,+14086201200,,4.0,51,[],https://www.yelp.com/biz/oros-thai-chicken-and-rice-san-jose?adjust_creative=Wu9gfEkr1Iqmmu5UKQvcJw&utm_campaign=yelp_api_v3&utm_medium=api_v3_business_search&utm_source=Wu9gfEkr1Iqmmu5UKQvcJw
mint-leaf-cuisine-saratoga,['asianfusion'],['Asian Fusion'],37.2585359886942,-122.032593594842,(408) 872-3763,43053.20478448382,oepCDGyni-Okl6XiCfclHw,https://s3-media1.fl.yelpcdn.com/bphoto/5O_72fFHTSFxItgcmCf4wQ/o.jpg,14420 Big Basin Way,,,Saratoga,US,CA,95070,Mint Leaf Cuisine,+14088723763,$$,4.0,328,"['pickup', 'delivery']",https://www.yelp.com/biz/mint-leaf-cuisine-saratoga?adjust_creative=Wu9gfEkr1Iqmmu5UKQvcJw&utm_campaign=yelp_api_v3&utm_medium=api_v3_business_search&utm_source=Wu9gfEkr1Iqmmu5UKQvcJw
golden-star-restaurant-salinas,['chinese'],['Chinese'],36.6618804931641,-121.658470153809,(831) 422-4132,31631.98497441802,CJnGWiacKhRIPzQu-hHZyw,https://s3-media2.fl.yelpcdn.com/bphoto/lIUpiYR-xVvzyF99ekNbMQ/o.jpg,1024 S Main St,,,Salinas,US,CA,93901,Golden Star Restaurant,+18314224132,$,3.5,125,[],https://www.yelp.com/biz/golden-star-restaurant-salinas?adjust_creative=Wu9gfEkr1Iqmmu5UKQvcJw&utm_campaign=yelp_api_v3&utm_medium=api_v3_business_search&utm_source=Wu9gfEkr1Iqmmu5UKQvcJw
grotto-fish-market-monterey,"['seafood', 'sandwiches', 'seafoodmarkets']","['Seafood', 'Sandwiches', 'Seafood Markets']",36.6043632718919,-121.892705479623,(831) 372-3769,37826.560763435875,7iZZ0fWLytXabwu5DPfOfQ,https://s3-media2.fl.yelpcdn.com/bphoto/DYA6NBfpvm1z74odqcmF7Q/o.jpg,42 Fishermans Wharf,Ste 1,,Monterey,US,CA,93940,Grotto Fish Market,+18313723769,$$,4.0,461,[],https://www.yelp.com/biz/grotto-fish-market-monterey?adjust_creative=Wu9gfEkr1Iqmmu5UKQvcJw&utm_campaign=yelp_api_v3&utm_medium=api_v3_business_search&utm_source=Wu9gfEkr1Iqmmu5UKQvcJw
jia-tellas-scotts-valley-2,"['asianfusion', 'cambodian', 'sportsbars']","['Asian Fusion', 'Cambodian', 'Sports Bars']",37.059408724308,-122.007642388344,(831) 438-5005,25230.91640295742,NZ6GZy44ARfRepJWiYCmdg,https://s3-media4.fl.yelpcdn.com/bphoto/Bk7HAbE0nBNYd7t_rTEyjw/o.jpg,18 Victor Sq,Ste D,,Scotts Valley,US,CA,95066,Jia Tella's,+18314385005,$$,3.5,318,[],https://www.yelp.com/biz/jia-tellas-scotts-valley-2?adjust_creative=Wu9gfEkr1Iqmmu5UKQvcJw&utm_campaign=yelp_api_v3&utm_medium=api_v3_business_search&utm_source=Wu9gfEkr1Iqmmu5UKQvcJw
kao-sook-scotts-valley,['thai'],['Thai'],37.0464155,-122.0294372,(831) 439-9520,26072.457016744625,Kfhr-yjf0A8wC7pSG-Wdhg,https://s3-media1.fl.yelpcdn.com/bphoto/XSkgUPA0LAFMHOv_bKQlhg/o.jpg,245 H Mt Hermon Rd,,,Scotts Valley,US,CA,95066,Kao Sook,+18314399520,$$,4.0,228,[],https://www.yelp.com/biz/kao-sook-scotts-valley?adjust_creative=Wu9gfEkr1Iqmmu5UKQvcJw&utm_campaign=yelp_api_v3&utm_medium=api_v3_business_search&utm_source=Wu9gfEkr1Iqmmu5UKQvcJw
mint-and-basil-san-jose-4,"['vietnamese', 'vegetarian']","['Vietnamese', 'Vegetarian']",37.258469,-121.874639,(408) 809-4910,37500.16866399112,D0Dja6FYqV7tylx48ksR0A,https://s3-media4.fl.yelpcdn.com/bphoto/6xqFNZ3Ski3z9tAZJR8cOA/o.jpg,5130 Cherry Ave,Ste 30,,San Jose,US,CA,95118,Mint & Basil,+14088094910,$$,3.5,223,[],https://www.yelp.com/biz/mint-and-basil-san-jose-4?adjust_creative=Wu9gfEkr1Iqmmu5UKQvcJw&utm_campaign=yelp_api_v3&utm_medium=api_v3_business_search&utm_source=Wu9gfEkr1Iqmmu5UKQvcJw
shake-tea-san-jose,"['coffee', 'bubbletea', 'juicebars']","['Coffee & Tea', 'Bubble Tea', 'Juice Bars & Smoothies']",37.252379,-121.86477601632,(669) 234-7498,36640.49146359685,9qiWRFH9Va7Lznnw1o_U3Q,https://s3-media3.fl.yelpcdn.com/bphoto/QJ5MOgDu-x-RuTwfsk8nFQ/o.jpg,925 Blossom Hill Rd,,,San Jose,US,CA,95123,Shake Tea,+16692347498,$,4.0,111,"['pickup', 'delivery']",https://www.yelp.com/biz/shake-tea-san-jose?adjust_creative=Wu9gfEkr1Iqmmu5UKQvcJw&utm_campaign=yelp_api_v3&utm_medium=api_v3_business_search&utm_source=Wu9gfEkr1Iqmmu5UKQvcJw
daily-bagel-cafe-morgan-hill,"['bagels', 'sandwiches', 'coffee']","['Bagels', 'Sandwiches', 'Coffee & Tea']",37.1132073144711,-121.638772259148,(408) 779-3933,23547.857059014077,F3mq40P2YFSRi7zKw6V88A,https://s3-media4.fl.yelpcdn.com/bphoto/u7CcWS3sKUXPbTXODPutnQ/o.jpg,614 Tennant Station,,,Morgan Hill,US,CA,95037,Daily Bagel Cafe,+14087793933,$,4.0,83,[],https://www.yelp.com/biz/daily-bagel-cafe-morgan-hill?adjust_creative=Wu9gfEkr1Iqmmu5UKQvcJw&utm_campaign=yelp_api_v3&utm_medium=api_v3_business_search&utm_source=Wu9gfEkr1Iqmmu5UKQvcJw
star-tea-gilroy-6,"['bubbletea', 'juicebars', 'sandwiches']","['Bubble Tea', 'Juice Bars & Smoothies', 'Sandwiches']",37.02704,-121.56556,,21355.52478080948,LLLvKuD83y2MbbgaaMP9AQ,https://s3-media1.fl.yelpcdn.com/bphoto/ns9I8NiSPm80E3l_BMkHVQ/o.jpg,8650 San Ysidro Ave,Ste 102,,Gilroy,US,CA,95020,Star Tea,,$,4.0,85,[],https://www.yelp.com/biz/star-tea-gilroy-6?adjust_creative=Wu9gfEkr1Iqmmu5UKQvcJw&utm_campaign=yelp_api_v3&utm_medium=api_v3_business_search&utm_source=Wu9gfEkr1Iqmmu5UKQvcJw
tapioca-express-san-jose-4,"['coffee', 'juicebars', 'bubbletea']","['Coffee & Tea', 'Juice Bars & Smoothies', 'Bubble Tea']",37.249274269839,-121.83123597583,(408) 972-2587,35760.668709392194,Hm8TBlyM_OJbZmykCEA2zw,https://s3-media2.fl.yelpcdn.com/bphoto/I8KvZ35_sXy5kzRKgh6X7Q/o.jpg,5681 Snell Ave,Ste 1,,San Jose,US,CA,95123,Tapioca Express,+14089722587,$,3.0,259,[],https://www.yelp.com/biz/tapioca-express-san-jose-4?adjust_creative=Wu9gfEkr1Iqmmu5UKQvcJw&utm_campaign=yelp_api_v3&utm_medium=api_v3_business_search&utm_source=Wu9gfEkr1Iqmmu5UKQvcJw
jefferys-restaurant-santa-cruz,"['diners', 'breakfast_brunch', 'sandwiches']","['Diners', 'Breakfast & Brunch', 'Sandwiches']",36.9821166992188,-121.996002197266,(831) 425-1485,20563.60969985483,6llvHR2LZW2QsxXymYtlDQ,https://s3-media3.fl.yelpcdn.com/bphoto/hnVw_8n78DXsVubRCE_gCw/o.jpg,2050 Soquel Ave,,,Santa Cruz,US,CA,95062,Jeffery's Restaurant,+18314251485,$$,3.0,238,[],https://www.yelp.com/biz/jefferys-restaurant-santa-cruz?adjust_creative=Wu9gfEkr1Iqmmu5UKQvcJw&utm_campaign=yelp_api_v3&utm_medium=api_v3_business_search&utm_source=Wu9gfEkr1Iqmmu5UKQvcJw
china-chef-salinas,"['chinese', 'noodles', 'soup']","['Chinese', 'Noodles', 'Soup']",36.701588,-121.668179,(831) 771-0401,27182.474873510168,YOKI_jUY3kG6a90oTHGxfA,https://s3-media2.fl.yelpcdn.com/bphoto/yQGCBqEOPp7M9HNZUmknYw/o.jpg,1255 N Davis Rd,,,Salinas,US,CA,93907,China Chef,+18317710401,$,2.5,15,[],https://www.yelp.com/biz/china-chef-salinas?adjust_creative=Wu9gfEkr1Iqmmu5UKQvcJw&utm_campaign=yelp_api_v3&utm_medium=api_v3_business_search&utm_source=Wu9gfEkr1Iqmmu5UKQvcJw
king-eggroll-gilroy,['chinese'],['Chinese'],37.026236,-121.566131,(408) 846-8897,21276.132316477426,szBb1y3sbfG_zEmv7EAzbw,https://s3-media1.fl.yelpcdn.com/bphoto/GX85KsBHqMk_ZRPPDrmj-g/o.jpg,8610 San Ysidro Ave,Ste A,,Gilroy,US,CA,95020,King Eggroll,+14088468897,$,3.0,130,[],https://www.yelp.com/biz/king-eggroll-gilroy?adjust_creative=Wu9gfEkr1Iqmmu5UKQvcJw&utm_campaign=yelp_api_v3&utm_medium=api_v3_business_search&utm_source=Wu9gfEkr1Iqmmu5UKQvcJw
the-red-pearl-boulder-creek-2,"['chinese', 'vegetarian']","['Chinese', 'Vegetarian']",37.124599,-122.122444,(831) 338-9800,37701.38382000166,bZUBGGnDAc91q0EzI-L4Bg,https://s3-media2.fl.yelpcdn.com/bphoto/5gy9irq3igVlShLdA6bJPg/o.jpg,13151 Hwy 9,,,Boulder Creek,US,CA,95006,The Red Pearl,+18313389800,$,4.5,267,[],https://www.yelp.com/biz/the-red-pearl-boulder-creek-2?adjust_creative=Wu9gfEkr1Iqmmu5UKQvcJw&utm_campaign=yelp_api_v3&utm_medium=api_v3_business_search&utm_source=Wu9gfEkr1Iqmmu5UKQvcJw
boba-pub-san-jose,['bubbletea'],['Bubble Tea'],37.25336,-121.9015,(408) 622-8680,37607.03647026847,nn8PuuVImVFCS9_6abL6zw,https://s3-media4.fl.yelpcdn.com/bphoto/bHkRa-TeOUk9qm14sairWQ/o.jpg,1576 Branham Ln,,,San Jose,US,CA,95118,Boba Pub,+14086228680,$,3.5,491,[],https://www.yelp.com/biz/boba-pub-san-jose?adjust_creative=Wu9gfEkr1Iqmmu5UKQvcJw&utm_campaign=yelp_api_v3&utm_medium=api_v3_business_search&utm_source=Wu9gfEkr1Iqmmu5UKQvcJw
eriks-delicafé-santa-cruz-5,"['delis', 'sandwiches', 'soup']","['Delis', 'Sandwiches', 'Soup']",36.98875,-121.98111,(831) 462-1919,19504.059315773542,78rBZUbkOSJSAOZGrqBW2A,https://s3-media1.fl.yelpcdn.com/bphoto/rObjbPBTw8-QjTNMqU07Xg/o.jpg,1664 Soquel Dr,,,Santa Cruz,US,CA,95065,Erik's DeliCafé,+18314621919,$,3.5,95,[],https://www.yelp.com/biz/eriks-delicaf%C3%A9-santa-cruz-5?adjust_creative=Wu9gfEkr1Iqmmu5UKQvcJw&utm_campaign=yelp_api_v3&utm_medium=api_v3_business_search&utm_source=Wu9gfEkr1Iqmmu5UKQvcJw
thai-spice-los-gatos,['thai'],['Thai'],37.2286338471153,-121.981339690321,(408) 354-2785,37875.38589397709,lXpHSXs4oS4ylJFudGImPA,https://s3-media4.fl.yelpcdn.com/bphoto/hycytK1QED8-WDmuOtBeUw/o.jpg,337 N Santa Cruz Ave,,,Los Gatos,US,CA,95030,Thai Spice,+14083542785,$$,3.5,318,[],https://www.yelp.com/biz/thai-spice-los-gatos?adjust_creative=Wu9gfEkr1Iqmmu5UKQvcJw&utm_campaign=yelp_api_v3&utm_medium=api_v3_business_search&utm_source=Wu9gfEkr1Iqmmu5UKQvcJw
wiki-wiki-cafe-hollister-3,"['bubbletea', 'hawaiian', 'asianfusion']","['Bubble Tea', 'Hawaiian', 'Asian Fusion']",36.8387673808438,-121.396187413492,(831) 207-4400,35116.45132067147,S1wZ0FqjOceIXwWGweR4Kw,https://s3-media2.fl.yelpcdn.com/bphoto/SlJgWOsLEbW1m9nmfsVphQ/o.jpg,341 Tres Pinos Rd,Ste 101,,Hollister,US,CA,95023,Wiki Wiki Cafe,+18312074400,$,3.0,83,"['pickup', 'delivery']",https://www.yelp.com/biz/wiki-wiki-cafe-hollister-3?adjust_creative=Wu9gfEkr1Iqmmu5UKQvcJw&utm_campaign=yelp_api_v3&utm_medium=api_v3_business_search&utm_source=Wu9gfEkr1Iqmmu5UKQvcJw
cafe-iveta-ucsc-santa-cruz-2,"['breakfast_brunch', 'cafes', 'sandwiches']","['Breakfast & Brunch', 'Cafes', 'Sandwiches']",36.998146187024,-122.05582919472,(831) 459-3066,26144.51668295701,5Zm7Bkr2s0_oqVnLrsev-Q,https://s3-media4.fl.yelpcdn.com/bphoto/HGVZYL1ybBnF8amaQZH0Bw/o.jpg,1156 High St,,Graduate Student Commons,Santa Cruz,US,CA,95064,Cafe Iveta UCSC,+18314593066,$,3.0,28,[],https://www.yelp.com/biz/cafe-iveta-ucsc-santa-cruz-2?adjust_creative=Wu9gfEkr1Iqmmu5UKQvcJw&utm_campaign=yelp_api_v3&utm_medium=api_v3_business_search&utm_source=Wu9gfEkr1Iqmmu5UKQvcJw
sabieng-thai-cuisine-santa-cruz,['thai'],['Thai'],36.969154,-122.037925,(831) 425-1020,23862.19855238066,io-t_aqBt-i9HhqX8CimtA,https://s3-media1.fl.yelpcdn.com/bphoto/tWEM_8FIqhbW7iEm0szR8Q/o.jpg,1218 Mission St,,,Santa Cruz,US,CA,95060,Sabieng Thai Cuisine,+18314251020,$$,4.0,474,[],https://www.yelp.com/biz/sabieng-thai-cuisine-santa-cruz?adjust_creative=Wu9gfEkr1Iqmmu5UKQvcJw&utm_campaign=yelp_api_v3&utm_medium=api_v3_business_search&utm_source=Wu9gfEkr1Iqmmu5UKQvcJw
at-thai-recipe-santa-cruz-3,['thai'],['Thai'],36.9626491,-122.0440347,(831) 457-0238,24309.23159175946,qcbQpqC_CWQZM2oEpxMHkg,https://s3-media2.fl.yelpcdn.com/bphoto/ZNjgr8lbZZ81WTVYg1haXA/o.jpg,2106 Mission St,,,Santa Cruz,US,CA,95060,At Thai Recipe,+18314570238,$$,4.0,299,[],https://www.yelp.com/biz/at-thai-recipe-santa-cruz-3?adjust_creative=Wu9gfEkr1Iqmmu5UKQvcJw&utm_campaign=yelp_api_v3&utm_medium=api_v3_business_search&utm_source=Wu9gfEkr1Iqmmu5UKQvcJw
sawasdee-by-the-sea-santa-cruz,"['thai', 'bars']","['Thai', 'Bars']",36.9634944576864,-122.022339433679,(831) 466-9009,22378.181208274316,FnUgKZ2yQBxBN8WPdA6oKg,https://s3-media2.fl.yelpcdn.com/bphoto/L_2pn3nzGMdf7DHq6WGkXg/o.jpg,101 Main St,,,Santa Cruz,US,CA,95060,Sawasdee By The Sea,+18314669009,$$,4.0,308,[],https://www.yelp.com/biz/sawasdee-by-the-sea-santa-cruz?adjust_creative=Wu9gfEkr1Iqmmu5UKQvcJw&utm_campaign=yelp_api_v3&utm_medium=api_v3_business_search&utm_source=Wu9gfEkr1Iqmmu5UKQvcJw
the-happy-hooligans-san-jose,"['vegan', 'comfortfood']","['Vegan', 'Comfort Food']",37.2522295,-121.9097605,(408) 694-0740,37704.45325479199,I_yVoAo641jkOp8SVbQQbQ,https://s3-media1.fl.yelpcdn.com/bphoto/-n6JTEcNeNv0Oq3MpeTyrQ/o.jpg,1711 Branham Ln,Ste A9,,San Jose,US,CA,95118,The Happy Hooligans,+14086940740,$$,4.0,1005,['pickup'],https://www.yelp.com/biz/the-happy-hooligans-san-jose?adjust_creative=Wu9gfEkr1Iqmmu5UKQvcJw&utm_campaign=yelp_api_v3&utm_medium=api_v3_business_search&utm_source=Wu9gfEkr1Iqmmu5UKQvcJw
loving-hut-san-jose,['vegan'],['Vegan'],37.2516569195822,-121.861481414762,(408) 229-2795,36498.82607805759,jy4Gdv3FIDAmtLDUi5gcig,https://s3-media2.fl.yelpcdn.com/bphoto/Dc8TsgaCM0m2aZey-_TSXg/o.jpg,925 Blossom Hill Rd,Ste 1746,,San Jose,US,CA,95123,Loving Hut,+14082292795,$,4.0,363,"['pickup', 'delivery']",https://www.yelp.com/biz/loving-hut-san-jose?adjust_creative=Wu9gfEkr1Iqmmu5UKQvcJw&utm_campaign=yelp_api_v3&utm_medium=api_v3_business_search&utm_source=Wu9gfEkr1Iqmmu5UKQvcJw
hubs-coffee-san-jose,"['coffee', 'sandwiches']","['Coffee & Tea', 'Sandwiches']",37.2500908692612,-121.844339291171,(408) 622-8304,36033.97224960077,mVTd_mqoNNyFwJeINuwlDw,https://s3-media2.fl.yelpcdn.com/bphoto/aSIReaUSuK6FroqZuMeuwA/o.jpg,630 Blossom Hill Rd,Ste 50,,San  Jose,US,CA,95123,Hub's  Coffee,+14086228304,$,4.0,131,[],https://www.yelp.com/biz/hubs-coffee-san-jose?adjust_creative=Wu9gfEkr1Iqmmu5UKQvcJw&utm_campaign=yelp_api_v3&utm_medium=api_v3_business_search&utm_source=Wu9gfEkr1Iqmmu5UKQvcJw
oros-thai-restaurant-san-jose,['thai'],['Thai'],37.236274,-121.8048176,(408) 809-7878,34061.866076061546,YuGmYLFnHCjPvcsTNA7D8w,https://s3-media4.fl.yelpcdn.com/bphoto/ovJ1tpgnE_NDJOlDuyQbQQ/o.jpg,6177 Santa Teresa Blvd,,,San Jose,US,CA,95123,Oros Thai Restaurant,+14088097878,$$,4.0,498,[],https://www.yelp.com/biz/oros-thai-restaurant-san-jose?adjust_creative=Wu9gfEkr1Iqmmu5UKQvcJw&utm_campaign=yelp_api_v3&utm_medium=api_v3_business_search&utm_source=Wu9gfEkr1Iqmmu5UKQvcJw
phoenix-asian-restaurant-santa-cruz,['chinese'],['Chinese'],36.9611320495605,-122.046699523926,(831) 466-3888,24486.054652852585,S-JdLktKxrGckfjY58Poew,https://s3-media3.fl.yelpcdn.com/bphoto/TtMrGkzMacj6AjcPUtZpYw/o.jpg,2301 Mission St,,,Santa Cruz,US,CA,95060,Phoenix Asian Restaurant,+18314663888,$,3.5,187,"['pickup', 'delivery']",https://www.yelp.com/biz/phoenix-asian-restaurant-santa-cruz?adjust_creative=Wu9gfEkr1Iqmmu5UKQvcJw&utm_campaign=yelp_api_v3&utm_medium=api_v3_business_search&utm_source=Wu9gfEkr1Iqmmu5UKQvcJw
bagel-bakery-salinas-4,"['bakeries', 'bagels', 'sandwiches']","['Bakeries', 'Bagels', 'Sandwiches']",36.7015783,-121.6670561,(831) 757-9933,27179.230682111312,krVvCatJn0PKANRsFSRbSg,https://s3-media1.fl.yelpcdn.com/bphoto/cI3kcGCR-e-I_43DWR4uQQ/o.jpg,1257 North Davis Rd,,,Salinas,US,CA,93907,Bagel Bakery,+18317579933,$,3.0,37,[],https://www.yelp.com/biz/bagel-bakery-salinas-4?adjust_creative=Wu9gfEkr1Iqmmu5UKQvcJw&utm_campaign=yelp_api_v3&utm_medium=api_v3_business_search&utm_source=Wu9gfEkr1Iqmmu5UKQvcJw
bonchon-almaden-san-jose-2,"['chicken_wings', 'korean', 'asianfusion']","['Chicken Wings', 'Korean', 'Asian Fusion']",37.245479133742,-121.888971659061,(408) 677-4893,36434.96709325555,3FpL-b_srpW8J15001yU2w,https://s3-media2.fl.yelpcdn.com/bphoto/lt99697fw9RNJz8guCqUmA/o.jpg,1375 Blossom Hill Rd,Ste 66,,San Jose,US,CA,95118,Bonchon - Almaden,+14086774893,$$,4.0,600,"['pickup', 'delivery']",https://www.yelp.com/biz/bonchon-almaden-san-jose-2?adjust_creative=Wu9gfEkr1Iqmmu5UKQvcJw&utm_campaign=yelp_api_v3&utm_medium=api_v3_business_search&utm_source=Wu9gfEkr1Iqmmu5UKQvcJw
cafe-iveta-santa-cruz,"['cafes', 'sandwiches', 'breakfast_brunch']","['Cafes', 'Sandwiches', 'Breakfast & Brunch']",36.9550628662109,-122.050285339355,(831) 713-0320,24714.289949447448,DT74WaOqIZkiL1otlxNhQg,https://s3-media1.fl.yelpcdn.com/bphoto/D-q5tctYfGRM4wNwJWQSMA/o.jpg,2125 Delaware Ave,Ste F,,Santa Cruz,US,CA,95060,Cafe Iveta,+18317130320,$,4.0,182,"['pickup', 'delivery']",https://www.yelp.com/biz/cafe-iveta-santa-cruz?adjust_creative=Wu9gfEkr1Iqmmu5UKQvcJw&utm_campaign=yelp_api_v3&utm_medium=api_v3_business_search&utm_source=Wu9gfEkr1Iqmmu5UKQvcJw
mandarin-house-san-jose-2,"['chinese', 'seafood', 'soup']","['Chinese', 'Seafood', 'Soup']",37.2446232933486,-121.889558452923,(408) 826-4232,36358.30364569123,-dQiW4xcXrusOjpcw1k7-Q,https://s3-media3.fl.yelpcdn.com/bphoto/rqbnG-q5t6ATDRg41978QA/o.jpg,1375 Blossom Hill Rd,Ste 12,,San Jose,US,CA,95118,Mandarin House,+14088264232,$$,4.0,165,[],https://www.yelp.com/biz/mandarin-house-san-jose-2?adjust_creative=Wu9gfEkr1Iqmmu5UKQvcJw&utm_campaign=yelp_api_v3&utm_medium=api_v3_business_search&utm_source=Wu9gfEkr1Iqmmu5UKQvcJw
thai-grata-san-jose,['thai'],['Thai'],37.2498588562012,-121.856727600098,(408) 224-8600,36241.51829089827,ueDHKr5ELmh2z7H0DFK02w,https://s3-media2.fl.yelpcdn.com/bphoto/Kjsu7WIrrSgSadsMUiaBcg/o.jpg,846 Blossom Hill Rd,Ste C,,San Jose,US,CA,95123,Thai Grata,+14082248600,$$,3.5,627,[],https://www.yelp.com/biz/thai-grata-san-jose?adjust_creative=Wu9gfEkr1Iqmmu5UKQvcJw&utm_campaign=yelp_api_v3&utm_medium=api_v3_business_search&utm_source=Wu9gfEkr1Iqmmu5UKQvcJw
maple-leaf-donuts-los-gatos,"['donuts', 'coffee', 'sandwiches']","['Donuts', 'Coffee & Tea', 'Sandwiches']",37.233335,-121.9786477,(408) 395-0205,38218.708108407016,fKSTP8ChMja60eGZIntZ2Q,https://s3-media2.fl.yelpcdn.com/bphoto/WytqwRq8KVncsBKdhsYv_Q/o.jpg,540 N Santa Cruz Ave,Ste J,,Los Gatos,US,CA,95030,Maple Leaf Donuts,+14083950205,$,4.0,56,[],https://www.yelp.com/biz/maple-leaf-donuts-los-gatos?adjust_creative=Wu9gfEkr1Iqmmu5UKQvcJw&utm_campaign=yelp_api_v3&utm_medium=api_v3_business_search&utm_source=Wu9gfEkr1Iqmmu5UKQvcJw
tleaf-teapresso-san-jose-3,"['coffee', 'bubbletea']","['Coffee & Tea', 'Bubble Tea']",37.248688599353,-121.857970789389,,36110.80349227812,G_kNDp6zC39woiEyUsc0ag,https://s3-media1.fl.yelpcdn.com/bphoto/TYRLr9ylnqn-cFyXIHaBow/o.jpg,860 Blossom Hill Rd,,,San Jose,US,CA,95123,Tleaf Teapresso,,$,4.0,263,[],https://www.yelp.com/biz/tleaf-teapresso-san-jose-3?adjust_creative=Wu9gfEkr1Iqmmu5UKQvcJw&utm_campaign=yelp_api_v3&utm_medium=api_v3_business_search&utm_source=Wu9gfEkr1Iqmmu5UKQvcJw
fu-kee-restaurant-san-jose,"['chinese', 'asianfusion']","['Chinese', 'Asian Fusion']",37.2312862,-121.7756776,(408) 225-3218,33396.58470777209,HV6HPatoLKsxERWBaqP8pA,https://s3-media1.fl.yelpcdn.com/bphoto/R36Y7x4ghe9bY0skvJYFsw/o.jpg,121 Bernal Rd,Ste 50,,San Jose,US,CA,95119,Fu Kee Restaurant,+14082253218,$$,3.0,187,"['pickup', 'delivery']",https://www.yelp.com/biz/fu-kee-restaurant-san-jose?adjust_creative=Wu9gfEkr1Iqmmu5UKQvcJw&utm_campaign=yelp_api_v3&utm_medium=api_v3_business_search&utm_source=Wu9gfEkr1Iqmmu5UKQvcJw
twister-food-truck-san-jose-14,"['foodtrucks', 'asianfusion']","['Food Trucks', 'Asian Fusion']",37.36971,-121.89675,(510) 695-3921,49912.00002130579,gMzVS6LgUkUpip1NwwHaLQ,https://s3-media4.fl.yelpcdn.com/bphoto/R_s82Wu2MBCHOM6xMRNzIg/o.jpg,660 East Gish Rd,,,San Jose,US,CA,95112,Twister Food Truck,+15106953921,$,3.5,42,[],https://www.yelp.com/biz/twister-food-truck-san-jose-14?adjust_creative=Wu9gfEkr1Iqmmu5UKQvcJw&utm_campaign=yelp_api_v3&utm_medium=api_v3_business_search&utm_source=Wu9gfEkr1Iqmmu5UKQvcJw
1-chinese-kitchen-san-jose-2,['chinese'],['Chinese'],37.2521682579759,-121.831224678574,(408) 363-8989,36079.060853003975,_us5qOY9AafKtmBdje6mIg,https://s3-media2.fl.yelpcdn.com/bphoto/Q40DW9OpjfyFclN3ZI0lcg/o.jpg,5585 Snell Ave,,,San Jose,US,CA,95123,#1 Chinese Kitchen,+14083638989,$,4.0,350,"['pickup', 'delivery']",https://www.yelp.com/biz/1-chinese-kitchen-san-jose-2?adjust_creative=Wu9gfEkr1Iqmmu5UKQvcJw&utm_campaign=yelp_api_v3&utm_medium=api_v3_business_search&utm_source=Wu9gfEkr1Iqmmu5UKQvcJw
chopstix-felton,"['chinese', 'korean']","['Chinese', 'Korean']",37.0517835,-122.0734133,(831) 335-9770,29831.72902227987,qneoSvZMYOBwGE3tE5BUhA,https://s3-media3.fl.yelpcdn.com/bphoto/IvJIgGcEFJYeUZB7JOzODw/o.jpg,6249 Hwy 9,,,Felton,US,CA,95018,Chopstix,+18313359770,$$,3.5,136,[],https://www.yelp.com/biz/chopstix-felton?adjust_creative=Wu9gfEkr1Iqmmu5UKQvcJw&utm_campaign=yelp_api_v3&utm_medium=api_v3_business_search&utm_source=Wu9gfEkr1Iqmmu5UKQvcJw
pure-tea-bar-san-jose,"['bubbletea', 'juicebars']","['Bubble Tea', 'Juice Bars & Smoothies']",37.236431,-121.804763,(408) 300-1531,34051.70543707769,7b7lIA5WlnnqycTKoLVKCA,https://s3-media4.fl.yelpcdn.com/bphoto/PwRg1ZEN1nSyZy6oODxsaA/o.jpg,6195 Santa Teresa Blvd,,,San Jose,US,CA,95123,Pure Tea Bar,+14083001531,$,3.5,169,[],https://www.yelp.com/biz/pure-tea-bar-san-jose?adjust_creative=Wu9gfEkr1Iqmmu5UKQvcJw&utm_campaign=yelp_api_v3&utm_medium=api_v3_business_search&utm_source=Wu9gfEkr1Iqmmu5UKQvcJw
zoccolis-delicatessen-santa-cruz,"['delis', 'italian', 'sandwiches']","['Delis', 'Italian', 'Sandwiches']",36.9760513305664,-122.026519775391,(831) 423-1711,23004.70426897192,bD5-lIjvV6miih3O1eqW_w,https://s3-media3.fl.yelpcdn.com/bphoto/7xJBGhlavcipfeH8kr-4YA/o.jpg,1534 Pacific Ave,,,Santa Cruz,US,CA,95060,Zoccoli's Delicatessen,+18314231711,$,4.0,689,[],https://www.yelp.com/biz/zoccolis-delicatessen-santa-cruz?adjust_creative=Wu9gfEkr1Iqmmu5UKQvcJw&utm_campaign=yelp_api_v3&utm_medium=api_v3_business_search&utm_source=Wu9gfEkr1Iqmmu5UKQvcJw
what-the-cup-san-jose,"['ramen', 'asianfusion', 'shavedice']","['Ramen', 'Asian Fusion', 'Shaved Ice']",37.2540453107379,-121.831238865852,(669) 234-7000,36285.87116939682,2t8-Oc3Ki6JPtq_axFFa-Q,https://s3-media1.fl.yelpcdn.com/bphoto/xh4R3pxIVCvwTO3JvG2O7A/o.jpg,5469 Snell Ave,,,San Jose,US,CA,95123,What The Cup,+16692347000,$,3.5,517,[],https://www.yelp.com/biz/what-the-cup-san-jose?adjust_creative=Wu9gfEkr1Iqmmu5UKQvcJw&utm_campaign=yelp_api_v3&utm_medium=api_v3_business_search&utm_source=Wu9gfEkr1Iqmmu5UKQvcJw
china-palace-morgan-hill,['chinese'],['Chinese'],37.1299,-121.65588,(408) 779-0618,24473.69642130205,VFS6aSlGZGr-kW1eZrzvzQ,https://s3-media2.fl.yelpcdn.com/bphoto/Rzk6baxK7lkDRlRqpCcajQ/o.jpg,65 W Main Ave,,,Morgan Hill,US,CA,95037,China Palace,+14087790618,$$,2.5,266,[],https://www.yelp.com/biz/china-palace-morgan-hill?adjust_creative=Wu9gfEkr1Iqmmu5UKQvcJw&utm_campaign=yelp_api_v3&utm_medium=api_v3_business_search&utm_source=Wu9gfEkr1Iqmmu5UKQvcJw
ocean-delight-seafood-restaurant-san-jose,"['dimsum', 'seafood']","['Dim Sum', 'Seafood']",37.2571940149072,-121.804095664943,(408) 281-3838,36376.15296241283,CzA8YGTbxj4fJbPHAaFw-Q,https://s3-media1.fl.yelpcdn.com/bphoto/ivEvIlSeUx5O8djjVh1rNA/o.jpg,5400 Monterey Rd,,,San Jose,US,CA,95111,Ocean Delight Seafood Restaurant,+14082813838,$$,3.5,612,[],https://www.yelp.com/biz/ocean-delight-seafood-restaurant-san-jose?adjust_creative=Wu9gfEkr1Iqmmu5UKQvcJw&utm_campaign=yelp_api_v3&utm_medium=api_v3_business_search&utm_source=Wu9gfEkr1Iqmmu5UKQvcJw
mandarin-gourmet-san-jose,['chinese'],['Chinese'],37.2524529036556,-121.858452223241,(408) 281-8898,36529.15247492108,uxY_FqM0Zmd7Ijd_Yi6fBA,https://s3-media2.fl.yelpcdn.com/bphoto/IuVQls1_s3POKzTfZfj8bw/o.jpg,5560 Santa Teresa Blvd,,,San Jose,US,CA,95123,Mandarin Gourmet,+14082818898,$$,3.5,497,[],https://www.yelp.com/biz/mandarin-gourmet-san-jose?adjust_creative=Wu9gfEkr1Iqmmu5UKQvcJw&utm_campaign=yelp_api_v3&utm_medium=api_v3_business_search&utm_source=Wu9gfEkr1Iqmmu5UKQvcJw
erawan-thai-cuisine-san-jose,"['thai', 'bars']","['Thai', 'Bars']",37.2352468315709,-121.87427532596,(408) 268-3200,34989.98473730043,4uR0PeEUK_4yb1mF32ZNSQ,https://s3-media3.fl.yelpcdn.com/bphoto/YJRg5VoIzDZ185XeyYQpUg/o.jpg,5945 Almaden Expy,Ste 150,,San Jose,US,CA,95120,Erawan Thai Cuisine,+14082683200,$$,4.0,428,[],https://www.yelp.com/biz/erawan-thai-cuisine-san-jose?adjust_creative=Wu9gfEkr1Iqmmu5UKQvcJw&utm_campaign=yelp_api_v3&utm_medium=api_v3_business_search&utm_source=Wu9gfEkr1Iqmmu5UKQvcJw
boudin-sf-san-jose-2,"['bakeries', 'sandwiches', 'salad']","['Bakeries', 'Sandwiches', 'Salad']",37.2513126675218,-121.877515892585,(408) 513-1050,36790.91389978294,0omKicbiYya0WPkK5YwWkw,https://s3-media2.fl.yelpcdn.com/bphoto/UHpz6koXa8Sy49evwoNPsA/o.jpg,5353 Almaden Expy,,,San Jose,US,CA,95118,Boudin SF,+14085131050,$$,3.5,161,"['pickup', 'delivery']",https://www.yelp.com/biz/boudin-sf-san-jose-2?adjust_creative=Wu9gfEkr1Iqmmu5UKQvcJw&utm_campaign=yelp_api_v3&utm_medium=api_v3_business_search&utm_source=Wu9gfEkr1Iqmmu5UKQvcJw
p-f-changs-san-jose,"['chinese', 'asianfusion', 'gluten_free']","['Chinese', 'Asian Fusion', 'Gluten-Free']",37.251249,-121.864128,(408) 960-2940,36505.294835525805,sd7BGja8QYMFKuGVb6h3gA,https://s3-media1.fl.yelpcdn.com/bphoto/jr8rg-thAycEWakrpeDyeA/o.jpg,925 Blossom Hill Rd,Ste 1515,,San Jose,US,CA,95123,P.F. Chang's,+14089602940,$$,2.5,562,"['pickup', 'delivery']",https://www.yelp.com/biz/p-f-changs-san-jose?adjust_creative=Wu9gfEkr1Iqmmu5UKQvcJw&utm_campaign=yelp_api_v3&utm_medium=api_v3_business_search&utm_source=Wu9gfEkr1Iqmmu5UKQvcJw
eriks-delicafé-san-jose-17,"['delis', 'sandwiches']","['Delis', 'Sandwiches']",37.2492,-121.80454,(408) 365-1515,35485.289365805016,HXB-u0tDoo2s4pmchvbr0Q,https://s3-media1.fl.yelpcdn.com/bphoto/e6YheBshYtcWkwDb4aJAXw/o.jpg,5705 Cottle Rd,,,San Jose,US,CA,95123,Erik's DeliCafé,+14083651515,$,3.5,140,[],https://www.yelp.com/biz/eriks-delicaf%C3%A9-san-jose-17?adjust_creative=Wu9gfEkr1Iqmmu5UKQvcJw&utm_campaign=yelp_api_v3&utm_medium=api_v3_business_search&utm_source=Wu9gfEkr1Iqmmu5UKQvcJw
tzone-san-jose-2,"['bubbletea', 'juicebars']","['Bubble Tea', 'Juice Bars & Smoothies']",37.247244,-121.801729,(669) 999-8969,35257.53348864894,FbpNG9mI5pIgkdtVUSoCnQ,https://s3-media4.fl.yelpcdn.com/bphoto/ruWWVC0YU9cTK5LdamQHuw/o.jpg,5700 Village Oaks Dr,Ste 40,,San Jose,US,CA,95123,TZONE,+16699998969,,3.5,29,"['pickup', 'delivery']",https://www.yelp.com/biz/tzone-san-jose-2?adjust_creative=Wu9gfEkr1Iqmmu5UKQvcJw&utm_campaign=yelp_api_v3&utm_medium=api_v3_business_search&utm_source=Wu9gfEkr1Iqmmu5UKQvcJw
ginger-thai-kitchen-salinas,['thai'],['Thai'],36.660401730141,-121.65869858826,(831) 422-8424,31782.079526472968,IAlsIjC9c3NJ9Q_wTUxn_g,https://s3-media1.fl.yelpcdn.com/bphoto/kkjOJn76G8vGmw0FQpKHIw/o.jpg,1104 S Main St Salinas,,,Salinas,US,CA,93901,Ginger Thai Kitchen,+18314228424,$$,4.0,182,[],https://www.yelp.com/biz/ginger-thai-kitchen-salinas?adjust_creative=Wu9gfEkr1Iqmmu5UKQvcJw&utm_campaign=yelp_api_v3&utm_medium=api_v3_business_search&utm_source=Wu9gfEkr1Iqmmu5UKQvcJw
