alias,categories_alias,categories_title,coordinates_latitude,coordinates_longitude,display_phone,distance,id,image_url,location_address1,location_address2,location_address3,location_city,location_country,location_state,location_zip_code,name,phone,price,rating,review_count,transactions,url
noahs-vietnamese-fusion-cuisine-merced-2,['vietnamese'],['Vietnamese'],37.30732,-120.49517,(209) 349-8660,19575.603571895368,mnWlqpe03CtVyk7-ZMPdbg,https://s3-media1.fl.yelpcdn.com/bphoto/zWipAjzCQHIGM2oGOTl5GQ/o.jpg,1327 W 18th St,,,Merced,US,CA,95340,Noahs Vietnamese Fusion Cuisine,+12093498660,$,4.0,232,[],https://www.yelp.com/biz/noahs-vietnamese-fusion-cuisine-merced-2?adjust_creative=Wu9gfEkr1Iqmmu5UKQvcJw&utm_campaign=yelp_api_v3&utm_medium=api_v3_business_search&utm_source=Wu9gfEkr1Iqmmu5UKQvcJw
pho-7-anh-turlock,"['vietnamese', 'thai', 'laotian']","['Vietnamese', 'Thai', 'Laotian']",37.4981137,-120.8487334,(209) 620-8022,51279.11510147424,VNf6jfpjO5ydi1G9W0FV-g,https://s3-media2.fl.yelpcdn.com/bphoto/MmWP0j9mZqYlMHPUe_AT0g/o.jpg,503 N Golden State Blvd,,,Turlock,US,CA,95380,Pho 7 Anh,+12096208022,$,4.0,213,"['pickup', 'delivery']",https://www.yelp.com/biz/pho-7-anh-turlock?adjust_creative=Wu9gfEkr1Iqmmu5UKQvcJw&utm_campaign=yelp_api_v3&utm_medium=api_v3_business_search&utm_source=Wu9gfEkr1Iqmmu5UKQvcJw
saigon-pho-and-sandwiches-merced-2,['vietnamese'],['Vietnamese'],37.317673,-120.4727,(209) 233-9234,20829.983190401417,O5w01A7zVeQt-uNRLb--xA,https://s3-media4.fl.yelpcdn.com/bphoto/hOJ5ywjC5o1YdYPJIZBp5g/o.jpg,3040 Park Ave,Ste E3,,Merced,US,CA,95348,Saigon Pho & Sandwiches,+12092339234,$,2.5,169,[],https://www.yelp.com/biz/saigon-pho-and-sandwiches-merced-2?adjust_creative=Wu9gfEkr1Iqmmu5UKQvcJw&utm_campaign=yelp_api_v3&utm_medium=api_v3_business_search&utm_source=Wu9gfEkr1Iqmmu5UKQvcJw
phodera-madera,"['vietnamese', 'asianfusion', 'chinese']","['Vietnamese', 'Asian Fusion', 'Chinese']",36.9521553084448,-120.058760046959,(559) 395-4510,43661.14941747912,heK-S5sE6u0TeQw_MLFfdQ,https://s3-media2.fl.yelpcdn.com/bphoto/IQMaEIcBPM122az3Dmpq1w/o.jpg,200 W Olive Ave,,,Madera,US,CA,93637,Pho'dera,+15593954510,$,3.5,184,[],https://www.yelp.com/biz/phodera-madera?adjust_creative=Wu9gfEkr1Iqmmu5UKQvcJw&utm_campaign=yelp_api_v3&utm_medium=api_v3_business_search&utm_source=Wu9gfEkr1Iqmmu5UKQvcJw
pho-38-noodle-house-oakdale,"['vietnamese', 'chinese', 'noodles']","['Vietnamese', 'Chinese', 'Noodles']",37.7750021,-120.8522532,(209) 845-8617,78253.99979029849,-0WDoFZLaCmpVN3qvLix0A,https://s3-media2.fl.yelpcdn.com/bphoto/lXIZSQ2rN6HXPrDGiK1FkA/o.jpg,818 N Yosemite Ave,,,Oakdale,US,CA,95361,Pho 38 Noodle House,+12098458617,$,4.5,212,[],https://www.yelp.com/biz/pho-38-noodle-house-oakdale?adjust_creative=Wu9gfEkr1Iqmmu5UKQvcJw&utm_campaign=yelp_api_v3&utm_medium=api_v3_business_search&utm_source=Wu9gfEkr1Iqmmu5UKQvcJw
pho-zab-merced,"['laotian', 'thai']","['Laotian', 'Thai']",37.33099,-120.5284,(209) 354-0108,22381.65569090245,zhXjVBc4VG6-6h0rF_mMoA,https://s3-media2.fl.yelpcdn.com/bphoto/9Xn0lPk-dRONQMGvquabjg/o.jpg,2961 Beachwood Dr,,,Merced,US,CA,95348,Pho Zab,+12093540108,$,4.0,40,[],https://www.yelp.com/biz/pho-zab-merced?adjust_creative=Wu9gfEkr1Iqmmu5UKQvcJw&utm_campaign=yelp_api_v3&utm_medium=api_v3_business_search&utm_source=Wu9gfEkr1Iqmmu5UKQvcJw
phoenix-noodle-house-modesto,"['vietnamese', 'noodles']","['Vietnamese', 'Noodles']",37.6403884887695,-120.995101928711,(209) 526-9706,71742.63766814224,tjrW7UQmDkwwotAXwlfujg,https://s3-media1.fl.yelpcdn.com/bphoto/6Z4HWyw1DKS2AgwRq4d5pg/o.jpg,1222 H St,,,Modesto,US,CA,95354,Phoenix Noodle House,+12095269706,$,4.0,485,[],https://www.yelp.com/biz/phoenix-noodle-house-modesto?adjust_creative=Wu9gfEkr1Iqmmu5UKQvcJw&utm_campaign=yelp_api_v3&utm_medium=api_v3_business_search&utm_source=Wu9gfEkr1Iqmmu5UKQvcJw
pho-americana-turlock,"['vietnamese', 'noodles', 'sandwiches']","['Vietnamese', 'Noodles', 'Sandwiches']",37.5266550611739,-120.862776339054,(209) 427-2006,54601.789438162654,n94ppFlvjqPoOWfHRkv_LQ,https://s3-media3.fl.yelpcdn.com/bphoto/3j_i7sW315_0uKl0cVF0-Q/o.jpg,3821 Crowell Rd,,,Turlock,US,CA,95382,Pho Americana,+12094272006,$,3.5,194,"['pickup', 'delivery']",https://www.yelp.com/biz/pho-americana-turlock?adjust_creative=Wu9gfEkr1Iqmmu5UKQvcJw&utm_campaign=yelp_api_v3&utm_medium=api_v3_business_search&utm_source=Wu9gfEkr1Iqmmu5UKQvcJw
saigon-one-modesto-3,"['vietnamese', 'noodles']","['Vietnamese', 'Noodles']",37.6476577175883,-121.031557001452,(209) 248-7612,74370.85017853086,K3TvxZYnUguPKQbc25GDqQ,https://s3-media1.fl.yelpcdn.com/bphoto/0KnxWezPPjUG0wueH9AJNw/o.jpg,901 N Carpenter Rd,Ste 61,,Modesto,US,CA,95351,Saigon One,+12092487612,$$,4.0,98,[],https://www.yelp.com/biz/saigon-one-modesto-3?adjust_creative=Wu9gfEkr1Iqmmu5UKQvcJw&utm_campaign=yelp_api_v3&utm_medium=api_v3_business_search&utm_source=Wu9gfEkr1Iqmmu5UKQvcJw
le-saigon-modesto-3,"['sandwiches', 'vietnamese', 'asianfusion']","['Sandwiches', 'Vietnamese', 'Asian Fusion']",37.6643508966431,-121.021497984114,(209) 284-0018,75258.95855673218,E8gtfQnH2a4wCJIwkJNzzQ,https://s3-media2.fl.yelpcdn.com/bphoto/uAZkmCImVWSmhoEjc1Fyrg/o.jpg,1645 W Orangeburg Ave,,,Modesto,US,CA,95350,Le Saigon,+12092840018,$,4.5,181,[],https://www.yelp.com/biz/le-saigon-modesto-3?adjust_creative=Wu9gfEkr1Iqmmu5UKQvcJw&utm_campaign=yelp_api_v3&utm_medium=api_v3_business_search&utm_source=Wu9gfEkr1Iqmmu5UKQvcJw
huong-lan-11-fresno,['vietnamese'],['Vietnamese'],36.80809,-119.86183,(559) 271-9998,66892.27382976274,l-0JdBhCfJ549WEaDS9taA,https://s3-media2.fl.yelpcdn.com/bphoto/rbfC1seDU2hU-MJTAr3IlQ/o.jpg,3757 West Shaw Ave,,,Fresno,US,CA,93711,Huong Lan 11,+15592719998,,4.0,11,[],https://www.yelp.com/biz/huong-lan-11-fresno?adjust_creative=Wu9gfEkr1Iqmmu5UKQvcJw&utm_campaign=yelp_api_v3&utm_medium=api_v3_business_search&utm_source=Wu9gfEkr1Iqmmu5UKQvcJw
new-thai-cuisine-merced,['thai'],['Thai'],37.3029670715332,-120.49015045166,(209) 726-1048,19096.160810969715,S4Pdp9pV9OocTEmzGBW1KQ,https://s3-media3.fl.yelpcdn.com/bphoto/Yu4aLm010uX7r1F6Em4-6Q/o.jpg,909 W 16th St,,,Merced,US,CA,95340,New Thai Cuisine,+12097261048,$$,4.0,293,[],https://www.yelp.com/biz/new-thai-cuisine-merced?adjust_creative=Wu9gfEkr1Iqmmu5UKQvcJw&utm_campaign=yelp_api_v3&utm_medium=api_v3_business_search&utm_source=Wu9gfEkr1Iqmmu5UKQvcJw
sam-cafe-merced,['thai'],['Thai'],37.29508,-120.48258,(209) 383-5350,18266.025152711554,0VjXSKtLG0NYRog6M1-qRg,https://s3-media4.fl.yelpcdn.com/bphoto/6BCZTDJ2LwmpweouQ_4--g/o.jpg,235 W 12th St,,,Merced,US,CA,95340,Sam Cafe,+12093835350,$$,4.0,326,[],https://www.yelp.com/biz/sam-cafe-merced?adjust_creative=Wu9gfEkr1Iqmmu5UKQvcJw&utm_campaign=yelp_api_v3&utm_medium=api_v3_business_search&utm_source=Wu9gfEkr1Iqmmu5UKQvcJw
crawfish-noodle-and-grill-modesto,"['cajun', 'seafood', 'vietnamese']","['Cajun/Creole', 'Seafood', 'Vietnamese']",37.67596,-120.99333,(209) 238-9558,74778.87962188397,u4-gf2T20CeI2kekkcny8w,https://s3-media2.fl.yelpcdn.com/bphoto/SYXF6BQ-BEO0bS7T9LubVw/o.jpg,2312 McHenry Ave,,,Modesto,US,CA,95350,Crawfish Noodle & Grill,+12092389558,$$,4.0,318,['pickup'],https://www.yelp.com/biz/crawfish-noodle-and-grill-modesto?adjust_creative=Wu9gfEkr1Iqmmu5UKQvcJw&utm_campaign=yelp_api_v3&utm_medium=api_v3_business_search&utm_source=Wu9gfEkr1Iqmmu5UKQvcJw
huong-lan-sandwiches-fresno,['vietnamese'],['Vietnamese'],36.8074801604157,-119.781784934546,(559) 221-8000,72994.28644463829,vrVVOcZ9RzVNgAjhl1-cjw,https://s3-media4.fl.yelpcdn.com/bphoto/9oOTEcpohZeoEzu9LzceRA/o.jpg,4965 N Fresno St,,,Fresno,US,CA,93726,Huong Lan Sandwiches,+15592218000,$,3.5,470,[],https://www.yelp.com/biz/huong-lan-sandwiches-fresno?adjust_creative=Wu9gfEkr1Iqmmu5UKQvcJw&utm_campaign=yelp_api_v3&utm_medium=api_v3_business_search&utm_source=Wu9gfEkr1Iqmmu5UKQvcJw
pho-2006-clovis,['vietnamese'],['Vietnamese'],36.8133511,-119.7012152,(559) 322-8922,79002.44946592409,AUeUStvQTE8-UBUW0siHWQ,https://s3-media4.fl.yelpcdn.com/bphoto/pv1Rsp1BPbMKTd-bzdmcEw/o.jpg,1468 Clovis Ave,,,Clovis,US,CA,93612,Pho 2006,+15593228922,$,4.0,252,[],https://www.yelp.com/biz/pho-2006-clovis?adjust_creative=Wu9gfEkr1Iqmmu5UKQvcJw&utm_campaign=yelp_api_v3&utm_medium=api_v3_business_search&utm_source=Wu9gfEkr1Iqmmu5UKQvcJw
saigon-restaurant-modesto,"['vietnamese', 'noodles']","['Vietnamese', 'Noodles']",37.6794177369985,-120.958549976349,(209) 576-2878,73349.47675818327,JdzCAMARpFFtjo33k6ZrYA,https://s3-media4.fl.yelpcdn.com/bphoto/6FQPldRUsOG9aYAeBJ72mQ/o.jpg,2601 Oakdale Rd,Ste K,,Modesto,US,CA,95355,Saigon Restaurant,+12095762878,$,3.5,196,[],https://www.yelp.com/biz/saigon-restaurant-modesto?adjust_creative=Wu9gfEkr1Iqmmu5UKQvcJw&utm_campaign=yelp_api_v3&utm_medium=api_v3_business_search&utm_source=Wu9gfEkr1Iqmmu5UKQvcJw
com-and-pho-bamboo-fresno,['vietnamese'],['Vietnamese'],36.85033,-119.77672,(559) 319-8167,71138.34283437245,vmFiXs3o8Afet3oH1hG6Ng,https://s3-media4.fl.yelpcdn.com/bphoto/ZLagQM1DVs9Ecby3iq80nQ/o.jpg,7737 North First St,,,Fresno,US,CA,93720,Com and Pho Bamboo,+15593198167,,4.0,46,[],https://www.yelp.com/biz/com-and-pho-bamboo-fresno?adjust_creative=Wu9gfEkr1Iqmmu5UKQvcJw&utm_campaign=yelp_api_v3&utm_medium=api_v3_business_search&utm_source=Wu9gfEkr1Iqmmu5UKQvcJw
pho-89-fresno-2,"['vietnamese', 'soup']","['Vietnamese', 'Soup']",36.83642578125,-119.75511932373,(559) 345-4789,73519.22808835568,zwXiEA94LmdERurFf1m5Wg,https://s3-media3.fl.yelpcdn.com/bphoto/4fjYLbq3XpSJuUE_1KGQ3w/o.jpg,6769 N Cedar Ave,,,Fresno,US,CA,93710,Pho 89,+15593454789,$,3.5,118,[],https://www.yelp.com/biz/pho-89-fresno-2?adjust_creative=Wu9gfEkr1Iqmmu5UKQvcJw&utm_campaign=yelp_api_v3&utm_medium=api_v3_business_search&utm_source=Wu9gfEkr1Iqmmu5UKQvcJw
pho-vn-clovis-2,['vietnamese'],['Vietnamese'],36.85164,-119.72789,(559) 324-8677,75023.92141182494,IWJCs_Fp9OKfOZ7cH360lQ,https://s3-media3.fl.yelpcdn.com/bphoto/868vf8oHCc9aKQFDNKFSlw/o.jpg,1187 N Willow Ave,Ste 104,,Clovis,US,CA,93611,Pho VN,+15593248677,$,3.5,120,[],https://www.yelp.com/biz/pho-vn-clovis-2?adjust_creative=Wu9gfEkr1Iqmmu5UKQvcJw&utm_campaign=yelp_api_v3&utm_medium=api_v3_business_search&utm_source=Wu9gfEkr1Iqmmu5UKQvcJw
pho-phuong-nine-restaurant-fresno,['vietnamese'],['Vietnamese'],36.73709,-119.73155,(559) 454-1762,80866.85769980753,jhZ1jvsFMNBps67Dv81xDg,https://s3-media3.fl.yelpcdn.com/bphoto/yw1KjP4oKAM9cqyLsGoBDw/o.jpg,4903 E Kings Canyon Rd,Ste 107,,Fresno,US,CA,93727,Pho Phuong Nine Restaurant,+15594541762,$,4.0,165,[],https://www.yelp.com/biz/pho-phuong-nine-restaurant-fresno?adjust_creative=Wu9gfEkr1Iqmmu5UKQvcJw&utm_campaign=yelp_api_v3&utm_medium=api_v3_business_search&utm_source=Wu9gfEkr1Iqmmu5UKQvcJw
pho-delite-clovis,['vietnamese'],['Vietnamese'],36.80943,-119.71747,(559) 322-8688,77897.86792671388,XkrnBmg0LMqdzD2uMcAMdg,https://s3-media1.fl.yelpcdn.com/bphoto/W3L8F80dFcEF_IVCQ-_E5g/o.jpg,393 W Shaw Ave,Ste A14,,Clovis,US,CA,93612,Pho Delite,+15593228688,$,4.0,239,[],https://www.yelp.com/biz/pho-delite-clovis?adjust_creative=Wu9gfEkr1Iqmmu5UKQvcJw&utm_campaign=yelp_api_v3&utm_medium=api_v3_business_search&utm_source=Wu9gfEkr1Iqmmu5UKQvcJw
houa-khong-restaurant-merced,['thai'],['Thai'],37.29423,-120.47694,(209) 722-5541,18205.239154948446,08dL7eunshx9QRfaYiKJKQ,https://s3-media2.fl.yelpcdn.com/bphoto/TEHn2f7vTaFle_7BIiVUxA/o.jpg,85 E 13th St,,,Merced,US,CA,95340,Houa Khong Restaurant,+12097225541,$,4.0,87,[],https://www.yelp.com/biz/houa-khong-restaurant-merced?adjust_creative=Wu9gfEkr1Iqmmu5UKQvcJw&utm_campaign=yelp_api_v3&utm_medium=api_v3_business_search&utm_source=Wu9gfEkr1Iqmmu5UKQvcJw
pho-fresno-fresno,['vietnamese'],['Vietnamese'],36.778806866027,-119.800363406539,(559) 229-9879,73229.11524339912,48bsok70ZzYhcPyKVCtzvw,https://s3-media1.fl.yelpcdn.com/bphoto/BXGUbVfWFKHkQ9fwJeoJ9g/o.jpg,3111 N Maroa Ave,,,Fresno,US,CA,93704,PHO FRESNO,+15592299879,$,4.5,99,"['pickup', 'delivery']",https://www.yelp.com/biz/pho-fresno-fresno?adjust_creative=Wu9gfEkr1Iqmmu5UKQvcJw&utm_campaign=yelp_api_v3&utm_medium=api_v3_business_search&utm_source=Wu9gfEkr1Iqmmu5UKQvcJw
basil-bistro-fresno,"['vietnamese', 'sandwiches', 'soup']","['Vietnamese', 'Sandwiches', 'Soup']",36.77188,-119.78193,(559) 225-7990,75034.33722182563,MRf5tWpm3wpZSgZ17HMivA,https://s3-media2.fl.yelpcdn.com/bphoto/a1hwHMf9jBljbJkXAdleNQ/o.jpg,2327 N Fresno St,Ste 102,,Fresno,US,CA,93703,Basil Bistro,+15592257990,,4.0,36,[],https://www.yelp.com/biz/basil-bistro-fresno?adjust_creative=Wu9gfEkr1Iqmmu5UKQvcJw&utm_campaign=yelp_api_v3&utm_medium=api_v3_business_search&utm_source=Wu9gfEkr1Iqmmu5UKQvcJw
the-papaya-lady-merced,['importedfood'],['Imported Food'],37.3004032983338,-120.47969520092,(209) 756-8131,18861.6049414912,AOtc84nxT32LoaICSTRFZA,https://s3-media4.fl.yelpcdn.com/bphoto/tArzdDtZQvoCp2pvq0sg4g/o.jpg,235 W Main St,,,Merced,US,CA,95340,The Papaya Lady,+12097568131,$,5.0,61,[],https://www.yelp.com/biz/the-papaya-lady-merced?adjust_creative=Wu9gfEkr1Iqmmu5UKQvcJw&utm_campaign=yelp_api_v3&utm_medium=api_v3_business_search&utm_source=Wu9gfEkr1Iqmmu5UKQvcJw
dk-noodle-vietnamese-cuisine-modesto-2,"['vietnamese', 'noodles', 'soup']","['Vietnamese', 'Noodles', 'Soup']",37.69458,-120.99248,(209) 572-1727,76443.93183012342,bt5PrwnDJOjPziXssQIyoQ,https://s3-media2.fl.yelpcdn.com/bphoto/rxZ7k5WdOJ5kXgCezFu_ig/o.jpg,3848 McHenry Ave,Ste 115,,Modesto,US,CA,95356,DK Noodle Vietnamese Cuisine,+12095721727,$,3.5,149,['pickup'],https://www.yelp.com/biz/dk-noodle-vietnamese-cuisine-modesto-2?adjust_creative=Wu9gfEkr1Iqmmu5UKQvcJw&utm_campaign=yelp_api_v3&utm_medium=api_v3_business_search&utm_source=Wu9gfEkr1Iqmmu5UKQvcJw
ipho-vietnamese-noodle-house-modesto-2,"['vietnamese', 'desserts', 'coffee']","['Vietnamese', 'Desserts', 'Coffee & Tea']",37.6891162367533,-121.015754488159,(209) 529-1423,77139.07334970322,yiufO-GqJlu6DQhKZ_IITA,https://s3-media3.fl.yelpcdn.com/bphoto/9Ygou8fnYFkNu0PbQXymwA/o.jpg,1400 Standiford Ave,Ste 7,,Modesto,US,CA,95350,iPho Vietnamese Noodle House,+12095291423,$$,4.0,121,[],https://www.yelp.com/biz/ipho-vietnamese-noodle-house-modesto-2?adjust_creative=Wu9gfEkr1Iqmmu5UKQvcJw&utm_campaign=yelp_api_v3&utm_medium=api_v3_business_search&utm_source=Wu9gfEkr1Iqmmu5UKQvcJw
thai-cuisine-merced,['thai'],['Thai'],37.2977219,-120.4756622,(209) 724-9466,18608.726918979413,WR1xfzEC1e-N8rRncJSMCQ,https://s3-media1.fl.yelpcdn.com/bphoto/FE8EUk4KCMSLBwrJyFUjPA/o.jpg,23 E 16th St,,,Merced,US,CA,95340,Thai Cuisine,+12097249466,$$,4.0,93,[],https://www.yelp.com/biz/thai-cuisine-merced?adjust_creative=Wu9gfEkr1Iqmmu5UKQvcJw&utm_campaign=yelp_api_v3&utm_medium=api_v3_business_search&utm_source=Wu9gfEkr1Iqmmu5UKQvcJw
pho-le-777-clovis,['vietnamese'],['Vietnamese'],36.854018,-119.728403,(559) 297-7776,74860.99909449765,_yP8_cwzZvWKkCLD77wvZQ,https://s3-media4.fl.yelpcdn.com/bphoto/jGl6TACkPFSn_F7-5UhB-A/o.jpg,1365 N Willow Ave,Ste 100,,Clovis,US,CA,93619,Pho Le 777,+15592977776,$,3.5,179,[],https://www.yelp.com/biz/pho-le-777-clovis?adjust_creative=Wu9gfEkr1Iqmmu5UKQvcJw&utm_campaign=yelp_api_v3&utm_medium=api_v3_business_search&utm_source=Wu9gfEkr1Iqmmu5UKQvcJw
noodle-bar-asian-bistro-coarsegold,"['asianfusion', 'sushi', 'noodles']","['Asian Fusion', 'Sushi Bars', 'Noodles']",37.2119875,-119.6994662,(866) 794-6946,71187.30490937404,TGVUR13qiNSsCGsUN8zEmA,https://s3-media2.fl.yelpcdn.com/bphoto/zSkdbQKx6e9NJTdDIQlnSw/o.jpg,711 Lucky Ln,,,Coarsegold,US,CA,93614,Noodle Bar Asian Bistro,+18667946946,$$,3.0,40,[],https://www.yelp.com/biz/noodle-bar-asian-bistro-coarsegold?adjust_creative=Wu9gfEkr1Iqmmu5UKQvcJw&utm_campaign=yelp_api_v3&utm_medium=api_v3_business_search&utm_source=Wu9gfEkr1Iqmmu5UKQvcJw
bangkok-thai-restaurant-merced,['thai'],['Thai'],37.30036,-120.4795,(209) 383-9999,18861.866317440374,ztk6zZ3fVikY1eX_Rda8-Q,https://s3-media3.fl.yelpcdn.com/bphoto/SOAhuMCYxNyBTXnEZIW1Eg/o.jpg,235 W Main St,,,Merced,US,CA,95340,Bangkok Thai Restaurant,+12093839999,$,3.5,127,[],https://www.yelp.com/biz/bangkok-thai-restaurant-merced?adjust_creative=Wu9gfEkr1Iqmmu5UKQvcJw&utm_campaign=yelp_api_v3&utm_medium=api_v3_business_search&utm_source=Wu9gfEkr1Iqmmu5UKQvcJw
blú-lotus-lao-and-thai-restaurant-ceres-2,"['laotian', 'thai']","['Laotian', 'Thai']",37.58444,-120.93938,(209) 900-7598,63799.3017417169,lXCJKFX-1PSFqC11dTTOIA,https://s3-media2.fl.yelpcdn.com/bphoto/-C85hKRgIv6-70ZUVdwEVw/o.jpg,3641 Mitchell Rd,Ste F,,Ceres,US,CA,95307,Blú Lotus Lao & Thai Restaurant,+12099007598,$$,4.5,121,[],https://www.yelp.com/biz/bl%C3%BA-lotus-lao-and-thai-restaurant-ceres-2?adjust_creative=Wu9gfEkr1Iqmmu5UKQvcJw&utm_campaign=yelp_api_v3&utm_medium=api_v3_business_search&utm_source=Wu9gfEkr1Iqmmu5UKQvcJw
wah-sing-chowchilla,['chinese'],['Chinese'],37.123241,-120.259829,(559) 665-0168,21001.44493084634,K1fKweWYVnsYQC5TMb9ajQ,https://s3-media4.fl.yelpcdn.com/bphoto/QAw5gice4em97t4ZlbG1bw/o.jpg,126 Robertson Blvd,,,Chowchilla,US,CA,93610,Wah Sing,+15596650168,$$,3.5,36,[],https://www.yelp.com/biz/wah-sing-chowchilla?adjust_creative=Wu9gfEkr1Iqmmu5UKQvcJw&utm_campaign=yelp_api_v3&utm_medium=api_v3_business_search&utm_source=Wu9gfEkr1Iqmmu5UKQvcJw
pho-7-vietnamese-restaurant-modesto-2,['vietnamese'],['Vietnamese'],37.6595802307129,-121.02123260498,(209) 571-9655,74870.27109502743,YRnUYZtT3XEClnFldbNZmA,https://s3-media3.fl.yelpcdn.com/bphoto/UmF5Sb5cv3skj46PU1XCWA/o.jpg,1100 Carver Rd,Ste 17,,Modesto,US,CA,95350,Pho 7 Vietnamese Restaurant,+12095719655,$,3.5,129,[],https://www.yelp.com/biz/pho-7-vietnamese-restaurant-modesto-2?adjust_creative=Wu9gfEkr1Iqmmu5UKQvcJw&utm_campaign=yelp_api_v3&utm_medium=api_v3_business_search&utm_source=Wu9gfEkr1Iqmmu5UKQvcJw
sweet-mango-mart-and-deli-fresno-2,"['vietnamese', 'thai']","['Vietnamese', 'Thai']",36.75889,-119.7723,(559) 515-6889,76549.27827832002,5allUwDDWvYeZmkCEttXnw,https://s3-media1.fl.yelpcdn.com/bphoto/A1Iq0couMDJJ6_3L7Udopw/o.jpg,1244 N First St,,,Fresno,US,CA,93703,Sweet Mango Mart & Deli,+15595156889,,4.5,20,[],https://www.yelp.com/biz/sweet-mango-mart-and-deli-fresno-2?adjust_creative=Wu9gfEkr1Iqmmu5UKQvcJw&utm_campaign=yelp_api_v3&utm_medium=api_v3_business_search&utm_source=Wu9gfEkr1Iqmmu5UKQvcJw
chongs-cuisine-turlock-2,"['chinese', 'thai']","['Chinese', 'Thai']",37.5095770001035,-120.876725240314,(209) 656-9189,53848.50523530489,-fhWh8_irvmwR3vug-zc1w,https://s3-media1.fl.yelpcdn.com/bphoto/M1xPkjt80mz5-s0BNdanQg/o.jpg,1801 Countryside Dr,,,Turlock,US,CA,95380,Chong's Cuisine,+12096569189,$,4.0,223,[],https://www.yelp.com/biz/chongs-cuisine-turlock-2?adjust_creative=Wu9gfEkr1Iqmmu5UKQvcJw&utm_campaign=yelp_api_v3&utm_medium=api_v3_business_search&utm_source=Wu9gfEkr1Iqmmu5UKQvcJw
pho-bac-noodle-palace-modesto,"['vietnamese', 'noodles']","['Vietnamese', 'Noodles']",37.659550992577,-120.993499978401,(209) 579-5899,73333.26890802091,p_PvZ9W9nwpfoL4hY2_qnQ,https://s3-media1.fl.yelpcdn.com/bphoto/eRg15zwaAOJxhboznLIM3Q/o.jpg,1100 McHenry Ave,,,Modesto,US,CA,95350,Pho Bac Noodle Palace,+12095795899,$,3.0,225,"['pickup', 'delivery']",https://www.yelp.com/biz/pho-bac-noodle-palace-modesto?adjust_creative=Wu9gfEkr1Iqmmu5UKQvcJw&utm_campaign=yelp_api_v3&utm_medium=api_v3_business_search&utm_source=Wu9gfEkr1Iqmmu5UKQvcJw
pho-viet-restaurant-modesto,"['vietnamese', 'soup']","['Vietnamese', 'Soup']",37.6455383300781,-121.020515441895,(209) 524-3032,73558.06127182368,qw-GHme9OFsNfk5z6DcAsQ,https://s3-media3.fl.yelpcdn.com/bphoto/j5YQl_KiJdEvFuaJYKg7Fw/o.jpg,900 Kansas Ave,Ste B,,Modesto,US,CA,95351,Pho Viet Restaurant,+12095243032,$,3.5,110,"['pickup', 'delivery']",https://www.yelp.com/biz/pho-viet-restaurant-modesto?adjust_creative=Wu9gfEkr1Iqmmu5UKQvcJw&utm_campaign=yelp_api_v3&utm_medium=api_v3_business_search&utm_source=Wu9gfEkr1Iqmmu5UKQvcJw
donut-kings-merced-4,"['donuts', 'sandwiches', 'bubbletea']","['Donuts', 'Sandwiches', 'Bubble Tea']",37.3000913,-120.4802063,(209) 383-5411,18823.497371845217,dEQ96-S9WQfY-MXuBxADCg,https://s3-media1.fl.yelpcdn.com/bphoto/fQkXCofjSIGeZijaBWnVPg/o.jpg,260 W Main St,Ste A,,Merced,US,CA,95340,Donut King's,+12093835411,$,4.5,123,[],https://www.yelp.com/biz/donut-kings-merced-4?adjust_creative=Wu9gfEkr1Iqmmu5UKQvcJw&utm_campaign=yelp_api_v3&utm_medium=api_v3_business_search&utm_source=Wu9gfEkr1Iqmmu5UKQvcJw
paradise-restaurant-fresno,['vietnamese'],['Vietnamese'],36.7674560546875,-119.772163391113,(559) 264-9025,76036.87499035787,ZM4CVbA_Yb8PETqb71w4QQ,https://s3-media2.fl.yelpcdn.com/bphoto/Fm6Nv4XvOwkpSpnyPb6xwA/o.jpg,1848 N 1st St,,,Fresno,US,CA,93703,Paradise Restaurant,+15592649025,$,4.0,132,[],https://www.yelp.com/biz/paradise-restaurant-fresno?adjust_creative=Wu9gfEkr1Iqmmu5UKQvcJw&utm_campaign=yelp_api_v3&utm_medium=api_v3_business_search&utm_source=Wu9gfEkr1Iqmmu5UKQvcJw
t-cups-cafe-modesto,"['desserts', 'bubbletea', 'vietnamese']","['Desserts', 'Bubble Tea', 'Vietnamese']",37.6405904155595,-121.000844592351,(209) 300-7473,72058.54240718835,VQ3TqxClC4rUtdRm-b2tUw,https://s3-media4.fl.yelpcdn.com/bphoto/k6R4Lmm_7fdvm_hMEakQUA/o.jpg,1021 10th St,Ste A,,Modesto,US,CA,95354,T-Cups Cafe,+12093007473,$,4.0,223,[],https://www.yelp.com/biz/t-cups-cafe-modesto?adjust_creative=Wu9gfEkr1Iqmmu5UKQvcJw&utm_campaign=yelp_api_v3&utm_medium=api_v3_business_search&utm_source=Wu9gfEkr1Iqmmu5UKQvcJw
noodle-q-home-style-fresh-noodles-fresno-3,['noodles'],['Noodles'],36.7939751,-119.7796802,(559) 558-8973,73906.84554434483,eQT08GgVIYQi5wi6ciHbSQ,https://s3-media4.fl.yelpcdn.com/bphoto/AMKzF2dvozzDMu-llfk3Gg/o.jpg,2648 E Ashlan Ave,,,Fresno,US,CA,93726,Noodle Q Home Style Fresh Noodles,+15595588973,$,4.0,517,[],https://www.yelp.com/biz/noodle-q-home-style-fresh-noodles-fresno-3?adjust_creative=Wu9gfEkr1Iqmmu5UKQvcJw&utm_campaign=yelp_api_v3&utm_medium=api_v3_business_search&utm_source=Wu9gfEkr1Iqmmu5UKQvcJw
saigon-garden-fresno,['vietnamese'],['Vietnamese'],36.762123,-119.753906,(559) 251-7949,77743.25432082258,RhewwUMiRcBUGYC1X49hpA,https://s3-media4.fl.yelpcdn.com/bphoto/Qy-5emoNUMkGouSgj9GnsQ/o.jpg,1432 N Cedar Ave,,,Fresno,US,CA,93703,Saigon Garden,+15592517949,$,3.0,43,[],https://www.yelp.com/biz/saigon-garden-fresno?adjust_creative=Wu9gfEkr1Iqmmu5UKQvcJw&utm_campaign=yelp_api_v3&utm_medium=api_v3_business_search&utm_source=Wu9gfEkr1Iqmmu5UKQvcJw
ju-ju-thai-cuisine-turlock,['thai'],['Thai'],37.4928849,-120.8487714,(209) 815-8424,50866.46767925645,9pDR1dr0x_ESCp-7fc3GAw,https://s3-media4.fl.yelpcdn.com/bphoto/1p8esJsf-vZ4HP4pj1IKIw/o.jpg,235 W Main St,,,Turlock,US,CA,95380,Ju Ju Thai Cuisine,+12098158424,$$,4.5,239,[],https://www.yelp.com/biz/ju-ju-thai-cuisine-turlock?adjust_creative=Wu9gfEkr1Iqmmu5UKQvcJw&utm_campaign=yelp_api_v3&utm_medium=api_v3_business_search&utm_source=Wu9gfEkr1Iqmmu5UKQvcJw
pho-1-fresno,['vietnamese'],['Vietnamese'],36.765913,-119.772164,(559) 233-9674,76117.74810143244,oDXWskRUfQOwRj-VXV3gGA,https://s3-media1.fl.yelpcdn.com/bphoto/vAvpFWpwO4L5bZQR_wcc0Q/o.jpg,1656 N First,,,Fresno,US,CA,93703,Pho #1,+15592339674,$,3.5,135,[],https://www.yelp.com/biz/pho-1-fresno?adjust_creative=Wu9gfEkr1Iqmmu5UKQvcJw&utm_campaign=yelp_api_v3&utm_medium=api_v3_business_search&utm_source=Wu9gfEkr1Iqmmu5UKQvcJw
patterson-cafe-patterson-2,"['coffee', 'bubbletea', 'sandwiches']","['Coffee & Tea', 'Bubble Tea', 'Sandwiches']",37.46676,-121.17673,(209) 892-9099,70800.00334553455,OZ2pet64uNO8FcEkzI4HJQ,https://s3-media2.fl.yelpcdn.com/bphoto/8_sc9ykHSXNRdRBZnC1p5A/o.jpg,2985 Renzo Ln,Ste C,,Patterson,US,CA,95363,Patterson Cafe,+12098929099,$,5.0,79,[],https://www.yelp.com/biz/patterson-cafe-patterson-2?adjust_creative=Wu9gfEkr1Iqmmu5UKQvcJw&utm_campaign=yelp_api_v3&utm_medium=api_v3_business_search&utm_source=Wu9gfEkr1Iqmmu5UKQvcJw
pho-lao-vieng-fresno-3,"['vietnamese', 'laotian', 'thai']","['Vietnamese', 'Laotian', 'Thai']",36.75801,-119.73771,(559) 389-0025,79178.92320510108,NrPbkVLqozxr1khTNvnPEQ,https://s3-media2.fl.yelpcdn.com/bphoto/Zp5pwFHHQB64cf65pRv9yQ/o.jpg,4767 E Olive Ave,,,Fresno,US,CA,93702,Pho Lao Vieng,+15593890025,$,3.5,57,[],https://www.yelp.com/biz/pho-lao-vieng-fresno-3?adjust_creative=Wu9gfEkr1Iqmmu5UKQvcJw&utm_campaign=yelp_api_v3&utm_medium=api_v3_business_search&utm_source=Wu9gfEkr1Iqmmu5UKQvcJw
jasmine-garden-fresno,['vietnamese'],['Vietnamese'],36.8084927,-119.7398986,(559) 294-2199,76199.76403960054,bInMyFmYDELGlrUtRYy19Q,https://s3-media4.fl.yelpcdn.com/bphoto/k05MLo2iVTZnEi7iXGvsuw/o.jpg,2633 E Shaw Ave,,,Fresno,US,CA,93710,Jasmine Garden,+15592942199,$,3.5,64,[],https://www.yelp.com/biz/jasmine-garden-fresno?adjust_creative=Wu9gfEkr1Iqmmu5UKQvcJw&utm_campaign=yelp_api_v3&utm_medium=api_v3_business_search&utm_source=Wu9gfEkr1Iqmmu5UKQvcJw
kings-kitchen-fresno,"['vietnamese', 'chinese']","['Vietnamese', 'Chinese']",36.736202,-119.746507,(559) 385-7325,79835.55955638643,tVdmWpfUIbB5LQXRDk9keA,https://s3-media3.fl.yelpcdn.com/bphoto/n9sppddwrKa11VTtwTbrLg/o.jpg,4579 East Kings Canyon Rd,,,Fresno,US,CA,93702,Kings Kitchen,+15593857325,,4.5,25,[],https://www.yelp.com/biz/kings-kitchen-fresno?adjust_creative=Wu9gfEkr1Iqmmu5UKQvcJw&utm_campaign=yelp_api_v3&utm_medium=api_v3_business_search&utm_source=Wu9gfEkr1Iqmmu5UKQvcJw
quickly-merced,"['bubbletea', 'juicebars', 'desserts']","['Bubble Tea', 'Juice Bars & Smoothies', 'Desserts']",37.33266,-120.46121,(209) 354-4520,22601.704895066534,iLq9yPouxn6VbX9eelPQ0g,https://s3-media1.fl.yelpcdn.com/bphoto/ens65yLfJ4lGINfuUSU_tw/o.jpg,731 E Yosemite Ave,Ste G,,Merced,US,CA,95340,Quickly,+12093544520,$,4.0,69,[],https://www.yelp.com/biz/quickly-merced?adjust_creative=Wu9gfEkr1Iqmmu5UKQvcJw&utm_campaign=yelp_api_v3&utm_medium=api_v3_business_search&utm_source=Wu9gfEkr1Iqmmu5UKQvcJw
pho-lao-vientiane-fresno-2,"['laotian', 'thai', 'chinese']","['Laotian', 'Thai', 'Chinese']",36.77953,-119.82557,,71291.66897754313,cGk3pkPADElTK_LwYXFE_Q,https://s3-media3.fl.yelpcdn.com/bphoto/S3Fm1R5RMf9RJc-Ha2vyvA/o.jpg,1220 W Shields Ave,,,Fresno,US,CA,93705,Pho Lao Vientiane,,,4.5,11,[],https://www.yelp.com/biz/pho-lao-vientiane-fresno-2?adjust_creative=Wu9gfEkr1Iqmmu5UKQvcJw&utm_campaign=yelp_api_v3&utm_medium=api_v3_business_search&utm_source=Wu9gfEkr1Iqmmu5UKQvcJw
pho-90-fresno,['vietnamese'],['Vietnamese'],36.771271,-119.78118,(559) 248-9090,75120.38172260817,hyhViDi3NgEl2w4DHJrU3w,https://s3-media3.fl.yelpcdn.com/bphoto/w1A02z8cV0vhlOFhyctZ_g/o.jpg,2256 N Fresno St,,,Fresno,US,CA,93703,Pho 90,+15592489090,$,3.5,128,[],https://www.yelp.com/biz/pho-90-fresno?adjust_creative=Wu9gfEkr1Iqmmu5UKQvcJw&utm_campaign=yelp_api_v3&utm_medium=api_v3_business_search&utm_source=Wu9gfEkr1Iqmmu5UKQvcJw
wayside-noodles-fresno-2,['vietnamese'],['Vietnamese'],36.809379,-119.806806,(559) 389-0506,70961.77693041497,KN5c3Z1Vg4gPNtYwU47qhw,https://s3-media4.fl.yelpcdn.com/bphoto/eDEZpRpgdFR2iAyvWBZEcg/o.jpg,760 W Shaw,Ste 101,,Fresno,US,CA,93704,Wayside Noodles,+15593890506,$,3.0,243,['pickup'],https://www.yelp.com/biz/wayside-noodles-fresno-2?adjust_creative=Wu9gfEkr1Iqmmu5UKQvcJw&utm_campaign=yelp_api_v3&utm_medium=api_v3_business_search&utm_source=Wu9gfEkr1Iqmmu5UKQvcJw
rice-bowl-madera,['asianfusion'],['Asian Fusion'],36.9234580993652,-119.868606567383,(559) 645-5454,60338.32781257759,w1NWyOGCESF6KtES-pRQMQ,https://s3-media2.fl.yelpcdn.com/bphoto/m8vxzLTGCPQaEEL2Ti3Kpg/o.jpg,37405 Ave 12,,,Madera,US,CA,93636,Rice Bowl,+15596455454,$,4.5,36,[],https://www.yelp.com/biz/rice-bowl-madera?adjust_creative=Wu9gfEkr1Iqmmu5UKQvcJw&utm_campaign=yelp_api_v3&utm_medium=api_v3_business_search&utm_source=Wu9gfEkr1Iqmmu5UKQvcJw
pho-99-fresno,['vietnamese'],['Vietnamese'],36.7652049,-119.77131,(559) 485-1233,76218.10339126637,u3pmDFEHU9X7GNx4iv2B5g,https://s3-media1.fl.yelpcdn.com/bphoto/-ylxoVQV5UQ3qMMBR7gNeg/o.jpg,3141 E McKinley Ave,,,Fresno,US,CA,93703,Pho 99,+15594851233,$,4.0,96,[],https://www.yelp.com/biz/pho-99-fresno?adjust_creative=Wu9gfEkr1Iqmmu5UKQvcJw&utm_campaign=yelp_api_v3&utm_medium=api_v3_business_search&utm_source=Wu9gfEkr1Iqmmu5UKQvcJw
lotus-kitchen-fresno-2,"['seafood', 'laotian', 'thai']","['Seafood', 'Laotian', 'Thai']",36.7619,-119.75423,(559) 374-5200,77743.25432082258,g3H7MFSUydHJsphkOYgKOA,https://s3-media2.fl.yelpcdn.com/bphoto/dH22VxDHnlmsapTih3Xfqw/o.jpg,1432 N Cedar Ave,Ste 106,,Fresno,US,CA,93703,Lotus Kitchen,+15593745200,$$$,4.0,53,"['delivery', 'pickup']",https://www.yelp.com/biz/lotus-kitchen-fresno-2?adjust_creative=Wu9gfEkr1Iqmmu5UKQvcJw&utm_campaign=yelp_api_v3&utm_medium=api_v3_business_search&utm_source=Wu9gfEkr1Iqmmu5UKQvcJw
asian-cuisine-fresno,['vietnamese'],['Vietnamese'],36.73451,-119.73441,(559) 255-1878,80847.83643797251,f-Oo5vTnBleAJKDPE5go1w,https://s3-media4.fl.yelpcdn.com/bphoto/-tSQgperBbEKcp-bBZFxRw/o.jpg,4842 E Kings Canyon Rd,,,Fresno,US,CA,93727,Asian Cuisine,+15592551878,$,3.5,49,[],https://www.yelp.com/biz/asian-cuisine-fresno?adjust_creative=Wu9gfEkr1Iqmmu5UKQvcJw&utm_campaign=yelp_api_v3&utm_medium=api_v3_business_search&utm_source=Wu9gfEkr1Iqmmu5UKQvcJw
huong-lan-pho-and-sandwiches-fresno-2,['vietnamese'],['Vietnamese'],36.7377760792984,-119.696696698666,(559) 251-5000,83475.09927256462,iH4VvDDVdPR96Dif3mvv7Q,https://s3-media3.fl.yelpcdn.com/bphoto/TBlhUqnZkRRuPxATORqMRA/o.jpg,5669 E Kings Canyon Rd,Ste 102,,Fresno,US,CA,93727,Huong Lan Pho & Sandwiches,+15592515000,$,3.5,136,[],https://www.yelp.com/biz/huong-lan-pho-and-sandwiches-fresno-2?adjust_creative=Wu9gfEkr1Iqmmu5UKQvcJw&utm_campaign=yelp_api_v3&utm_medium=api_v3_business_search&utm_source=Wu9gfEkr1Iqmmu5UKQvcJw
thai-noodle-atwater-2,"['thai', 'noodles']","['Thai', 'Noodles']",37.361401,-120.61375,(209) 812-6454,27610.184998150544,pjfRflOIBQTxTPoUgdincA,https://s3-media2.fl.yelpcdn.com/bphoto/Rz76f5Ry4PBVHwiVc542bA/o.jpg,1847 Bellevue Rd,,,Atwater,US,CA,95301,Thai Noodle,+12098126454,$$,3.5,112,[],https://www.yelp.com/biz/thai-noodle-atwater-2?adjust_creative=Wu9gfEkr1Iqmmu5UKQvcJw&utm_campaign=yelp_api_v3&utm_medium=api_v3_business_search&utm_source=Wu9gfEkr1Iqmmu5UKQvcJw
angkor-asian-bistro-and-bar-fresno-5,"['cambodian', 'asianfusion', 'bars']","['Cambodian', 'Asian Fusion', 'Bars']",36.86786,-119.75561,(559) 492-2344,72102.92340892844,8WHl9xsVO-EwvKcwVzyyHg,https://s3-media1.fl.yelpcdn.com/bphoto/isDFNq2-hMBpqZpg6ZpaUw/o.jpg,1568 E Champlain Dr,Ste 105,,Fresno,US,CA,93720,Angkor Asian Bistro & Bar,+15594922344,$$,4.5,70,[],https://www.yelp.com/biz/angkor-asian-bistro-and-bar-fresno-5?adjust_creative=Wu9gfEkr1Iqmmu5UKQvcJw&utm_campaign=yelp_api_v3&utm_medium=api_v3_business_search&utm_source=Wu9gfEkr1Iqmmu5UKQvcJw
nho-cafe-fresno,['vietnamese'],['Vietnamese'],36.7654722,-119.7712919,(559) 233-4195,76209.60190081479,ms6DuGorkj_gp6KU7Sa0jg,https://s3-media4.fl.yelpcdn.com/bphoto/aHKxyHZql5sxBoLk5iSB0g/o.jpg,3145 E McKinley Ave,,,Fresno,US,CA,93703,Nho Cafe,+15592334195,$,4.0,57,[],https://www.yelp.com/biz/nho-cafe-fresno?adjust_creative=Wu9gfEkr1Iqmmu5UKQvcJw&utm_campaign=yelp_api_v3&utm_medium=api_v3_business_search&utm_source=Wu9gfEkr1Iqmmu5UKQvcJw
green-papaya-mart-and-deli-fresno,"['thai', 'grocery', 'sandwiches']","['Thai', 'Grocery', 'Sandwiches']",36.7725,-119.78263,(559) 570-8450,74936.27167130489,dKgDEWMMh3XstU7MAuTDWw,https://s3-media3.fl.yelpcdn.com/bphoto/psL5h3hd8tYY9wxfJmgwMQ/o.jpg,2403 E Clinton Ave,,,Fresno,US,CA,93703,Green Papaya Mart & Deli,+15595708450,$,4.5,95,[],https://www.yelp.com/biz/green-papaya-mart-and-deli-fresno?adjust_creative=Wu9gfEkr1Iqmmu5UKQvcJw&utm_campaign=yelp_api_v3&utm_medium=api_v3_business_search&utm_source=Wu9gfEkr1Iqmmu5UKQvcJw
thai-cuisine-ii-merced,['thai'],['Thai'],37.33252,-120.46019,(209) 726-0334,22606.95521905751,dNb0W0Solzuh1hzC3JLcAQ,https://s3-media1.fl.yelpcdn.com/bphoto/v3KmTXvZOl--F9fnVOzu_g/o.jpg,779 E Yosemite Ave,Ste G,,Merced,US,CA,95340,Thai Cuisine II,+12097260334,$$,3.5,249,[],https://www.yelp.com/biz/thai-cuisine-ii-merced?adjust_creative=Wu9gfEkr1Iqmmu5UKQvcJw&utm_campaign=yelp_api_v3&utm_medium=api_v3_business_search&utm_source=Wu9gfEkr1Iqmmu5UKQvcJw
legendary-pho-restaurant-fresno,['vietnamese'],['Vietnamese'],36.7942374140322,-119.872007899197,(559) 271-8889,66957.39606228829,p8wh2Xjt0JEFmM5oy2Lm5Q,https://s3-media2.fl.yelpcdn.com/bphoto/vYy_4gw0y29_y_DHqmAooQ/o.jpg,4446 W Ashlan Ave,,,Fresno,US,CA,93722,Legendary Pho Restaurant,+15592718889,$,2.5,180,[],https://www.yelp.com/biz/legendary-pho-restaurant-fresno?adjust_creative=Wu9gfEkr1Iqmmu5UKQvcJw&utm_campaign=yelp_api_v3&utm_medium=api_v3_business_search&utm_source=Wu9gfEkr1Iqmmu5UKQvcJw
one-tea-modesto,['bubbletea'],['Bubble Tea'],37.68895,-121.01375,(209) 300-7857,77017.22532711497,ic7EgyFbtuiy8qkS9JQ_Ag,https://s3-media1.fl.yelpcdn.com/bphoto/-2QxWXF4yGNgYe-FJECmJg/o.jpg,1320 Standiford Ave,,,Modesto,US,CA,95350,One Tea,+12093007857,$,4.5,57,"['delivery', 'pickup']",https://www.yelp.com/biz/one-tea-modesto?adjust_creative=Wu9gfEkr1Iqmmu5UKQvcJw&utm_campaign=yelp_api_v3&utm_medium=api_v3_business_search&utm_source=Wu9gfEkr1Iqmmu5UKQvcJw
angkor-restaurant-fresno,"['cambodian', 'vietnamese']","['Cambodian', 'Vietnamese']",36.757774,-119.734843,(559) 454-0887,79414.73505969439,tQp56e8LxqX1oYPSQu8-Mw,https://s3-media1.fl.yelpcdn.com/bphoto/D2jXzrVSg4CTjveJ3_8czA/o.jpg,4853 E Olive Ave,,,Fresno,US,CA,93727,Angkor Restaurant,+15594540887,$$,3.5,66,[],https://www.yelp.com/biz/angkor-restaurant-fresno?adjust_creative=Wu9gfEkr1Iqmmu5UKQvcJw&utm_campaign=yelp_api_v3&utm_medium=api_v3_business_search&utm_source=Wu9gfEkr1Iqmmu5UKQvcJw
pho-75-2-oriental-restaurant-fresno,['vietnamese'],['Vietnamese'],36.7655,-119.77161,(559) 497-9261,76175.0558258683,gcDAa8HjvEDhsBIOo5UHlQ,https://s3-media3.fl.yelpcdn.com/bphoto/Dswj74LDKmbo0ajptJ26ug/o.jpg,3127 E McKinley Ave,,,Fresno,US,CA,93703,Pho 75-2 Oriental Restaurant,+15594979261,$,3.0,315,[],https://www.yelp.com/biz/pho-75-2-oriental-restaurant-fresno?adjust_creative=Wu9gfEkr1Iqmmu5UKQvcJw&utm_campaign=yelp_api_v3&utm_medium=api_v3_business_search&utm_source=Wu9gfEkr1Iqmmu5UKQvcJw
sticky-rice-restaurant-modesto-2,"['laotian', 'thai', 'salad']","['Laotian', 'Thai', 'Salad']",37.609735,-120.940862,(209) 537-4777,66121.55245586905,ezU4BHW7NLP_KT4IsoFDjQ,https://s3-media1.fl.yelpcdn.com/bphoto/-obWmwRAY8i9Gh806-kkTg/o.jpg,2901 E Hatch Rd,,,Modesto,US,CA,95351,Sticky Rice Restaurant,+12095374777,$$,4.0,205,"['delivery', 'pickup']",https://www.yelp.com/biz/sticky-rice-restaurant-modesto-2?adjust_creative=Wu9gfEkr1Iqmmu5UKQvcJw&utm_campaign=yelp_api_v3&utm_medium=api_v3_business_search&utm_source=Wu9gfEkr1Iqmmu5UKQvcJw
bamboo-garden-oakdale,['chinese'],['Chinese'],37.772452,-120.828607,(209) 848-4845,77084.24437582759,An0hiv5sL632VD0Ie7M-UA,https://s3-media2.fl.yelpcdn.com/bphoto/0-Esyo0HFS4RcAYZ3haSmA/o.jpg,111 S Maag Ave,,,Oakdale,US,CA,95361,Bamboo Garden,+12098484845,$,4.0,99,[],https://www.yelp.com/biz/bamboo-garden-oakdale?adjust_creative=Wu9gfEkr1Iqmmu5UKQvcJw&utm_campaign=yelp_api_v3&utm_medium=api_v3_business_search&utm_source=Wu9gfEkr1Iqmmu5UKQvcJw
sabaidee-thai-lao-cuisine-fresno,"['laotian', 'thai', 'seafood']","['Laotian', 'Thai', 'Seafood']",36.821375,-119.771131,(559) 412-7895,73072.710060167,YTWzj7akSPgdMZ85qh0Smw,https://s3-media4.fl.yelpcdn.com/bphoto/ecXY6LJS_LXjEAZ2YwqjFg/o.jpg,5730 N First St,Ste 103,,Fresno,US,CA,93710,SabaiDee Thai Lao Cuisine,+15594127895,$$,4.0,588,['pickup'],https://www.yelp.com/biz/sabaidee-thai-lao-cuisine-fresno?adjust_creative=Wu9gfEkr1Iqmmu5UKQvcJw&utm_campaign=yelp_api_v3&utm_medium=api_v3_business_search&utm_source=Wu9gfEkr1Iqmmu5UKQvcJw
shangri-la-china-bistro-modesto,['chinese'],['Chinese'],37.6621,-120.99342,(209) 529-7968,73563.2162274677,Rg_glrYWNqjQV_lc1LAjUw,https://s3-media2.fl.yelpcdn.com/bphoto/3s8qpYJTzd7cUFtZ3Wvx6A/o.jpg,1300 McHenry Ave,,,Modesto,US,CA,95350,Shangri-La China Bistro,+12095297968,$$,4.0,182,[],https://www.yelp.com/biz/shangri-la-china-bistro-modesto?adjust_creative=Wu9gfEkr1Iqmmu5UKQvcJw&utm_campaign=yelp_api_v3&utm_medium=api_v3_business_search&utm_source=Wu9gfEkr1Iqmmu5UKQvcJw
thai-house-modesto,['thai'],['Thai'],37.687717,-121.01199,(209) 544-0974,76816.75011117614,EMjhozwdhuO2K45ibbGg6A,https://s3-media2.fl.yelpcdn.com/bphoto/_Y74VBkx-XuUclKvkzDWRg/o.jpg,3430 Tully Rd,Ste 2,,Modesto,US,CA,95350,Thai House,+12095440974,$$,4.0,302,[],https://www.yelp.com/biz/thai-house-modesto?adjust_creative=Wu9gfEkr1Iqmmu5UKQvcJw&utm_campaign=yelp_api_v3&utm_medium=api_v3_business_search&utm_source=Wu9gfEkr1Iqmmu5UKQvcJw
khmer-family-cafe-fresno,"['cambodian', 'cafes']","['Cambodian', 'Cafes']",36.7441736830939,-119.745863408443,(559) 478-4802,79396.36050326822,m4Aozi8fN0xQJyVy3sGIeg,https://s3-media3.fl.yelpcdn.com/bphoto/0mlsY4E7cNRAtkRWCYVHQg/o.jpg,133 North Maple Ave,,,Fresno,US,CA,93702,Khmer Family Cafe,+15594784802,$$,4.5,27,[],https://www.yelp.com/biz/khmer-family-cafe-fresno?adjust_creative=Wu9gfEkr1Iqmmu5UKQvcJw&utm_campaign=yelp_api_v3&utm_medium=api_v3_business_search&utm_source=Wu9gfEkr1Iqmmu5UKQvcJw
tasty-thai-modesto-3,"['thai', 'bars']","['Thai', 'Bars']",37.677354372642,-120.939157416046,(209) 551-4200,72217.70112152572,o4F6cwdzM0uDHLiR0difRQ,https://s3-media2.fl.yelpcdn.com/bphoto/Q9AenpYUTS3BsgcT4Zxutw/o.jpg,3020 Floyd Ave,Ste 105,,Modesto,US,CA,95355,Tasty Thai,+12095514200,$$,3.5,241,"['delivery', 'pickup']",https://www.yelp.com/biz/tasty-thai-modesto-3?adjust_creative=Wu9gfEkr1Iqmmu5UKQvcJw&utm_campaign=yelp_api_v3&utm_medium=api_v3_business_search&utm_source=Wu9gfEkr1Iqmmu5UKQvcJw
tnk-vegan-cafe-modesto,"['vegan', 'cafes']","['Vegan', 'Cafes']",37.6456051,-120.9968358,(209) 567-2232,72289.1550539167,kDx53yZQMt_8NhBv4mxV-g,https://s3-media4.fl.yelpcdn.com/bphoto/mHcUQrthFfUkgiQ6aJICjQ/o.jpg,330 Needham St,,,Modesto,US,CA,95354,TNK Vegan Cafe,+12095672232,$,4.5,76,"['delivery', 'pickup']",https://www.yelp.com/biz/tnk-vegan-cafe-modesto?adjust_creative=Wu9gfEkr1Iqmmu5UKQvcJw&utm_campaign=yelp_api_v3&utm_medium=api_v3_business_search&utm_source=Wu9gfEkr1Iqmmu5UKQvcJw
susan-deli-and-drinking-center-fresno,"['vietnamese', 'laotian', 'thai']","['Vietnamese', 'Laotian', 'Thai']",36.7718227,-119.780759,(559) 224-1905,75119.18336341476,XxXN4hDrh03ltwRZWxj8iA,https://s3-media2.fl.yelpcdn.com/bphoto/qtr8_flFjqGRabWa8IMa3Q/o.jpg,2302 N Fresno St,,,Fresno,US,CA,93703,Susan Deli and Drinking Center,+15592241905,$,3.5,43,[],https://www.yelp.com/biz/susan-deli-and-drinking-center-fresno?adjust_creative=Wu9gfEkr1Iqmmu5UKQvcJw&utm_campaign=yelp_api_v3&utm_medium=api_v3_business_search&utm_source=Wu9gfEkr1Iqmmu5UKQvcJw
popping-ave-boba-tea-fresno,['bubbletea'],['Bubble Tea'],36.81021,-119.78164,,72807.1608469408,cDexQMo_RGh7txBWUGW2Dg,https://s3-media1.fl.yelpcdn.com/bphoto/Gc2QRnSsoUhLrPKH4myeaA/o.jpg,5091 N Fresno St,Ste 124,,Fresno,US,CA,93710,Popping Ave Boba Tea,,$$,4.5,23,[],https://www.yelp.com/biz/popping-ave-boba-tea-fresno?adjust_creative=Wu9gfEkr1Iqmmu5UKQvcJw&utm_campaign=yelp_api_v3&utm_medium=api_v3_business_search&utm_source=Wu9gfEkr1Iqmmu5UKQvcJw
pho-76-restaurant-and-bakery-fresno,['vietnamese'],['Vietnamese'],36.765697,-119.736667,(559) 255-2510,78815.62513063545,fgD3sDklUrRAx1eamIXQuQ,https://s3-media4.fl.yelpcdn.com/bphoto/RhZnaVeXpdgnB2tS4ln_kA/o.jpg,4793 E McKinley Ave,,,Fresno,US,CA,93703,Pho 76 Restaurant & Bakery,+15592552510,$,3.0,135,[],https://www.yelp.com/biz/pho-76-restaurant-and-bakery-fresno?adjust_creative=Wu9gfEkr1Iqmmu5UKQvcJw&utm_campaign=yelp_api_v3&utm_medium=api_v3_business_search&utm_source=Wu9gfEkr1Iqmmu5UKQvcJw
taipei-101-fresno,"['coffee', 'desserts', 'bubbletea']","['Coffee & Tea', 'Desserts', 'Bubble Tea']",36.83546,-119.75277,(559) 323-4804,73818.48220601307,f7ntqpgWlH0RL4OyaiYf9Q,https://s3-media1.fl.yelpcdn.com/bphoto/u3r1cogHmDmv9n-AFesFsg/o.jpg,6702 N Cedar Ave,Ste 103,,Fresno,US,CA,93710,Taipei 101,+15593234804,$$,4.0,354,[],https://www.yelp.com/biz/taipei-101-fresno?adjust_creative=Wu9gfEkr1Iqmmu5UKQvcJw&utm_campaign=yelp_api_v3&utm_medium=api_v3_business_search&utm_source=Wu9gfEkr1Iqmmu5UKQvcJw
lanxang-kitchen-modesto,"['asianfusion', 'thai']","['Asian Fusion', 'Thai']",37.63473,-121.00349,(209) 589-0712,71690.2748269842,RHjZo0VSUPc7qDIr2op07g,https://s3-media3.fl.yelpcdn.com/bphoto/wFZdfm837OKsQU19yKPMAQ/o.jpg,411 H St,,,Modesto,US,CA,95351,Lanxang Kitchen,+12095890712,$,5.0,75,[],https://www.yelp.com/biz/lanxang-kitchen-modesto?adjust_creative=Wu9gfEkr1Iqmmu5UKQvcJw&utm_campaign=yelp_api_v3&utm_medium=api_v3_business_search&utm_source=Wu9gfEkr1Iqmmu5UKQvcJw
ac-mart-and-deli-fresno,"['grocery', 'laotian']","['Grocery', 'Laotian']",36.75743,-119.77284,(559) 441-7518,76581.46870631284,3z-mWWuWKr6x1GDD70_Ytg,https://s3-media4.fl.yelpcdn.com/bphoto/dKK7_vmN6wzG5RZBCk6PWw/o.jpg,3080 E Olive Ave,,,Fresno,US,CA,93701,AC Mart & Deli,+15594417518,$,4.5,38,[],https://www.yelp.com/biz/ac-mart-and-deli-fresno?adjust_creative=Wu9gfEkr1Iqmmu5UKQvcJw&utm_campaign=yelp_api_v3&utm_medium=api_v3_business_search&utm_source=Wu9gfEkr1Iqmmu5UKQvcJw
thai-season-clovis,['thai'],['Thai'],36.8096750961192,-119.711730504369,(559) 297-0307,78355.41337799796,AjxWtcMpGg_tu6w_tliYOQ,https://s3-media4.fl.yelpcdn.com/bphoto/jouiFq6E7fOZnH41krUwAQ/o.jpg,135 W Shaw Ave,,,Clovis,US,CA,93612,Thai Season,+15592970307,$$,4.0,177,[],https://www.yelp.com/biz/thai-season-clovis?adjust_creative=Wu9gfEkr1Iqmmu5UKQvcJw&utm_campaign=yelp_api_v3&utm_medium=api_v3_business_search&utm_source=Wu9gfEkr1Iqmmu5UKQvcJw
p-f-changs-fresno,"['chinese', 'asianfusion', 'gluten_free']","['Chinese', 'Asian Fusion', 'Gluten-Free']",36.8514566941257,-119.790229357941,(559) 438-0814,70021.09122876995,7YpATMBvXAp1eUGzt9q5Kw,https://s3-media2.fl.yelpcdn.com/bphoto/vmsGOHO-0O0jaXP3FLDKpA/o.jpg,7894 N Blackstone Ave,,,Fresno,US,CA,93720,P.F. Chang's,+15594380814,$$,3.5,248,"['delivery', 'pickup']",https://www.yelp.com/biz/p-f-changs-fresno?adjust_creative=Wu9gfEkr1Iqmmu5UKQvcJw&utm_campaign=yelp_api_v3&utm_medium=api_v3_business_search&utm_source=Wu9gfEkr1Iqmmu5UKQvcJw
pad-thai-restaurant-clovis,['thai'],['Thai'],36.8084135,-119.7063075,(559) 324-1235,78848.67235796171,nIvzmLsg0tWhBVV9RLwHbA,https://s3-media3.fl.yelpcdn.com/bphoto/zB5R0f1VFGGaP8LReZd2fA/o.jpg,198 Shaw Ave,,,Clovis,US,CA,93612,Pad Thai Restaurant,+15593241235,$$,4.0,474,[],https://www.yelp.com/biz/pad-thai-restaurant-clovis?adjust_creative=Wu9gfEkr1Iqmmu5UKQvcJw&utm_campaign=yelp_api_v3&utm_medium=api_v3_business_search&utm_source=Wu9gfEkr1Iqmmu5UKQvcJw
thai-gem-clovis,['thai'],['Thai'],36.8074265708953,-119.725582229015,(559) 298-4425,77379.50002542477,HUKej-hPtP8gflOztZXAPQ,https://s3-media2.fl.yelpcdn.com/bphoto/tqAZCI_TrGm8Ay0Mi4T2Kw/o.jpg,742 W Shaw Ave,,,Clovis,US,CA,93612,Thai Gem,+15592984425,$$,4.0,110,[],https://www.yelp.com/biz/thai-gem-clovis?adjust_creative=Wu9gfEkr1Iqmmu5UKQvcJw&utm_campaign=yelp_api_v3&utm_medium=api_v3_business_search&utm_source=Wu9gfEkr1Iqmmu5UKQvcJw
15-tea-fresno,"['coffee', 'tea', 'bubbletea']","['Coffee & Tea', 'Tea Rooms', 'Bubble Tea']",36.8525029155926,-119.791915118694,(559) 840-1948,69834.89595315623,Lr0yIIpVpu1NFN5vrg5IxQ,https://s3-media2.fl.yelpcdn.com/bphoto/uy0_IIaSdeG-9F1to77-wg/o.jpg,132 W Nees Ave,Ste 103,,Fresno,US,CA,93711,15 Tea,+15598401948,$,3.5,79,[],https://www.yelp.com/biz/15-tea-fresno?adjust_creative=Wu9gfEkr1Iqmmu5UKQvcJw&utm_campaign=yelp_api_v3&utm_medium=api_v3_business_search&utm_source=Wu9gfEkr1Iqmmu5UKQvcJw
thai-chili-clovis,"['thai', 'laotian']","['Thai', 'Laotian']",36.823363,-119.708429,(559) 326-0309,77930.25436473971,1p2GW8gxIrFhQwBOIxAwzA,https://s3-media4.fl.yelpcdn.com/bphoto/6yBWTDUzLcdd8L2_i1s3yg/o.jpg,75 Bullard Ave,,,Clovis,US,CA,93612,Thai Chili,+15593260309,$$,3.5,84,[],https://www.yelp.com/biz/thai-chili-clovis?adjust_creative=Wu9gfEkr1Iqmmu5UKQvcJw&utm_campaign=yelp_api_v3&utm_medium=api_v3_business_search&utm_source=Wu9gfEkr1Iqmmu5UKQvcJw
ding-ho-kitchen-fresno,['chinese'],['Chinese'],36.82319,-119.84549,(559) 431-9685,67205.88633063162,UGjZOtLKYk1_S5FVMOUtog,https://s3-media4.fl.yelpcdn.com/bphoto/UccFGE1zovCHqKXY-65K7w/o.jpg,3022 W Bullard Ave,,,Fresno,US,CA,93711,Ding Ho Kitchen,+15594319685,$,4.0,181,[],https://www.yelp.com/biz/ding-ho-kitchen-fresno?adjust_creative=Wu9gfEkr1Iqmmu5UKQvcJw&utm_campaign=yelp_api_v3&utm_medium=api_v3_business_search&utm_source=Wu9gfEkr1Iqmmu5UKQvcJw
sweet-lyfe-boba-bar-fresno-2,"['bubbletea', 'juicebars', 'coffee']","['Bubble Tea', 'Juice Bars & Smoothies', 'Coffee & Tea']",36.812381,-119.735041,(559) 353-2440,76377.46833842076,ansEh1ZYavcDa5UaVhyXqw,https://s3-media2.fl.yelpcdn.com/bphoto/OmUWqgNlJUE3ZczfPuJQzQ/o.jpg,3052 E Campus Pointe Dr,,,Fresno,US,CA,93710,Sweet Lyfe Boba Bar,+15593532440,$,4.0,295,[],https://www.yelp.com/biz/sweet-lyfe-boba-bar-fresno-2?adjust_creative=Wu9gfEkr1Iqmmu5UKQvcJw&utm_campaign=yelp_api_v3&utm_medium=api_v3_business_search&utm_source=Wu9gfEkr1Iqmmu5UKQvcJw
kung-fu-tea-modesto,"['bubbletea', 'coffee', 'juicebars']","['Bubble Tea', 'Coffee & Tea', 'Juice Bars & Smoothies']",37.6882,-120.99287,(209) 408-0594,75895.0510249729,a3Dr1u7pt_wdHWchmNu9SQ,https://s3-media2.fl.yelpcdn.com/bphoto/8M8vFvPpY31WsiEa9tHPlw/o.jpg,3440 McHenry Ave,Ste D14,,Modesto,US,CA,95355,Kung Fu Tea,+12094080594,$,4.0,49,"['delivery', 'pickup']",https://www.yelp.com/biz/kung-fu-tea-modesto?adjust_creative=Wu9gfEkr1Iqmmu5UKQvcJw&utm_campaign=yelp_api_v3&utm_medium=api_v3_business_search&utm_source=Wu9gfEkr1Iqmmu5UKQvcJw
pho-long-hai-fresno,['vietnamese'],['Vietnamese'],36.7505849,-119.7846893,,76122.95317626825,L61SLl8wE7CnH_XVj-XEwQ,,2213 E Belmont St,Ste 101,,Fresno,US,CA,93701,Pho Long Hai,,$,2.5,4,[],https://www.yelp.com/biz/pho-long-hai-fresno?adjust_creative=Wu9gfEkr1Iqmmu5UKQvcJw&utm_campaign=yelp_api_v3&utm_medium=api_v3_business_search&utm_source=Wu9gfEkr1Iqmmu5UKQvcJw
thai-country-restaurant-clovis,"['thai', 'chinese']","['Thai', 'Chinese']",36.82337,-119.71209,(559) 298-6697,77635.78598215441,TntoHjXiOUHpzdc9rKJVQw,https://s3-media3.fl.yelpcdn.com/bphoto/QSf9qxapUueIx29xqel6dA/o.jpg,151 W Bullard Ave,Ste 103,,Clovis,US,CA,93612,Thai Country Restaurant,+15592986697,$$,4.0,373,[],https://www.yelp.com/biz/thai-country-restaurant-clovis?adjust_creative=Wu9gfEkr1Iqmmu5UKQvcJw&utm_campaign=yelp_api_v3&utm_medium=api_v3_business_search&utm_source=Wu9gfEkr1Iqmmu5UKQvcJw
dai-bai-dang-fresno,"['chinese', 'bars', 'asianfusion']","['Chinese', 'Bars', 'Asian Fusion']",36.849127,-119.788317,(559) 448-8894,70289.39784338344,sGs1vJhLTKedYP3-_G4XUg,https://s3-media2.fl.yelpcdn.com/bphoto/gk-xBe1mEO1XXUsxMpJYKQ/o.jpg,165 E Paseo Del Centro,,,Fresno,US,CA,93720,Dai Bai Dang,+15594488894,$$,3.5,256,['pickup'],https://www.yelp.com/biz/dai-bai-dang-fresno?adjust_creative=Wu9gfEkr1Iqmmu5UKQvcJw&utm_campaign=yelp_api_v3&utm_medium=api_v3_business_search&utm_source=Wu9gfEkr1Iqmmu5UKQvcJw
flower-city-restaurant-fresno,"['chinese', 'bbq', 'seafood']","['Chinese', 'Barbeque', 'Seafood']",36.82218,-119.80854,(559) 432-2030,70042.20747652349,iegmRIXaRljjAYT71cTcFQ,https://s3-media2.fl.yelpcdn.com/bphoto/LdOLkf_JBpVnMoP0ANEimw/o.jpg,5785 N Palm Ave,,,Fresno,US,CA,93704,Flower City Restaurant,+15594322030,$,4.0,139,[],https://www.yelp.com/biz/flower-city-restaurant-fresno?adjust_creative=Wu9gfEkr1Iqmmu5UKQvcJw&utm_campaign=yelp_api_v3&utm_medium=api_v3_business_search&utm_source=Wu9gfEkr1Iqmmu5UKQvcJw
mr-papaya-kitchen-fresno,"['thai', 'laotian', 'vietnamese']","['Thai', 'Laotian', 'Vietnamese']",36.73709,-119.73155,(559) 453-0709,80866.85769980753,Xe3kMAFaBnN02w-m2jcxpQ,https://s3-media4.fl.yelpcdn.com/bphoto/4WFH7yX04NG0CG7U_bFpbw/o.jpg,4903 E Kings Canyon Rd,Ste 106,,Fresno,US,CA,93727,Mr. Papaya Kitchen,+15594530709,$,3.0,144,[],https://www.yelp.com/biz/mr-papaya-kitchen-fresno?adjust_creative=Wu9gfEkr1Iqmmu5UKQvcJw&utm_campaign=yelp_api_v3&utm_medium=api_v3_business_search&utm_source=Wu9gfEkr1Iqmmu5UKQvcJw
four-seasons-chinese-restaurant-clovis,"['dimsum', 'cantonese']","['Dim Sum', 'Cantonese']",36.836089,-119.700546,(559) 324-8438,77948.16270855881,hMfucHIOMz9zKqtRvU_TmQ,https://s3-media2.fl.yelpcdn.com/bphoto/9pT34Z60OHOV2H3XVQrxDg/o.jpg,342 N Clovis Ave,,,Clovis,US,CA,93612,Four Seasons Chinese Restaurant,+15593248438,$$,3.5,353,[],https://www.yelp.com/biz/four-seasons-chinese-restaurant-clovis?adjust_creative=Wu9gfEkr1Iqmmu5UKQvcJw&utm_campaign=yelp_api_v3&utm_medium=api_v3_business_search&utm_source=Wu9gfEkr1Iqmmu5UKQvcJw
bobalicious-modesto-2,"['desserts', 'bubbletea', 'icecream']","['Desserts', 'Bubble Tea', 'Ice Cream & Frozen Yogurt']",37.609746,-120.940584,(209) 416-4544,66107.94875190442,GaB1RZSCPJpx5k8YcY9rKA,https://s3-media1.fl.yelpcdn.com/bphoto/--AcbIqYChbtiMinMO3Oug/o.jpg,2907 E Hatch Rd,,,Modesto,US,CA,95351,Bobalicious,+12094164544,$$,4.0,172,[],https://www.yelp.com/biz/bobalicious-modesto-2?adjust_creative=Wu9gfEkr1Iqmmu5UKQvcJw&utm_campaign=yelp_api_v3&utm_medium=api_v3_business_search&utm_source=Wu9gfEkr1Iqmmu5UKQvcJw
1920-tea-club-fresno,"['desserts', 'coffee', 'bubbletea']","['Desserts', 'Coffee & Tea', 'Bubble Tea']",36.8232011976219,-119.806794300435,(559) 412-4727,70195.07349944481,SS8BAoLlDe48KJVSVhTSYw,https://s3-media1.fl.yelpcdn.com/bphoto/bzCcS-vMFFIH-8DP829cdw/o.jpg,732 W Bullard Ave,,,Fresno,US,CA,93704,1920 Tea Club,+15594124727,$$,3.5,500,"['delivery', 'pickup']",https://www.yelp.com/biz/1920-tea-club-fresno?adjust_creative=Wu9gfEkr1Iqmmu5UKQvcJw&utm_campaign=yelp_api_v3&utm_medium=api_v3_business_search&utm_source=Wu9gfEkr1Iqmmu5UKQvcJw
celsius-poke-bowl-and-boba-bar-fresno,"['bubbletea', 'juicebars', 'poke']","['Bubble Tea', 'Juice Bars & Smoothies', 'Poke']",36.85095,-119.77292,(559) 385-7595,71447.92808484862,EhQ9_wI7PwCR5mR4IQsceA,https://s3-media3.fl.yelpcdn.com/bphoto/qUpI7gLsBatZ3kJOhAqRBw/o.jpg,681 E Nees Ave,,,Fresno,US,CA,93720,Celsius Poke Bowl & Boba Bar,+15593857595,$,4.0,214,[],https://www.yelp.com/biz/celsius-poke-bowl-and-boba-bar-fresno?adjust_creative=Wu9gfEkr1Iqmmu5UKQvcJw&utm_campaign=yelp_api_v3&utm_medium=api_v3_business_search&utm_source=Wu9gfEkr1Iqmmu5UKQvcJw
which-wich-clovis-2,['sandwiches'],['Sandwiches'],36.8074084950424,-119.693597895107,(559) 424-0098,79906.30273423818,tNwFzq_XV2K90uGmerNK3w,https://s3-media4.fl.yelpcdn.com/bphoto/pTrzqG0FqOocukxUOsTqkg/o.jpg,1220 Shaw Ave,Ste 105,,Clovis,US,CA,93612,Which Wich,+15594240098,$,4.0,117,"['pickup', 'delivery']",https://www.yelp.com/biz/which-wich-clovis-2?adjust_creative=Wu9gfEkr1Iqmmu5UKQvcJw&utm_campaign=yelp_api_v3&utm_medium=api_v3_business_search&utm_source=Wu9gfEkr1Iqmmu5UKQvcJw
hunan-chinese-restaurant-fresno,"['chinese', 'breakfast_brunch', 'seafood']","['Chinese', 'Breakfast & Brunch', 'Seafood']",36.835874,-119.752224,(559) 297-0336,73820.93635531727,otDtrKePBs4zNMtZdl6T9Q,https://s3-media1.fl.yelpcdn.com/bphoto/1OjszCPoekFXrmjM2kGH5g/o.jpg,6716 N Cedar Ave,Ste 104,,Fresno,US,CA,93710,Hunan Chinese Restaurant,+15592970336,$$,4.0,407,[],https://www.yelp.com/biz/hunan-chinese-restaurant-fresno?adjust_creative=Wu9gfEkr1Iqmmu5UKQvcJw&utm_campaign=yelp_api_v3&utm_medium=api_v3_business_search&utm_source=Wu9gfEkr1Iqmmu5UKQvcJw
lao-thai-restaurant-fresno,"['thai', 'laotian']","['Thai', 'Laotian']",36.7361285693182,-119.730996638762,(559) 251-2800,80994.62630612413,Tka7z2BD4TjLz9lEcNyjdg,https://s3-media2.fl.yelpcdn.com/bphoto/ZzE2Qt6V5K-k1F8_y2T7-Q/o.jpg,4937 E Kings Canyon Rd,,,Fresno,US,CA,93727,Lao-Thai Restaurant,+15592512800,$,4.0,146,[],https://www.yelp.com/biz/lao-thai-restaurant-fresno?adjust_creative=Wu9gfEkr1Iqmmu5UKQvcJw&utm_campaign=yelp_api_v3&utm_medium=api_v3_business_search&utm_source=Wu9gfEkr1Iqmmu5UKQvcJw
new-city-chinese-cuisine-fresno,"['dimsum', 'cantonese']","['Dim Sum', 'Cantonese']",36.8089294433594,-119.761306762695,(559) 227-0896,74503.9770152482,QFLOgHDkvn52wiK4NsuVaA,https://s3-media3.fl.yelpcdn.com/bphoto/vfzYMYQiD1MsQZcS5n95GA/o.jpg,1484 E Shaw Ave,,,Fresno,US,CA,93710,New City Chinese Cuisine,+15592270896,$$,3.5,177,"['pickup', 'delivery']",https://www.yelp.com/biz/new-city-chinese-cuisine-fresno?adjust_creative=Wu9gfEkr1Iqmmu5UKQvcJw&utm_campaign=yelp_api_v3&utm_medium=api_v3_business_search&utm_source=Wu9gfEkr1Iqmmu5UKQvcJw
fob-fried-or-boiled-seafood-fusion-fresno-3,"['seafood', 'asianfusion']","['Seafood', 'Asian Fusion']",36.79549,-119.78964,(559) 724-9980,73041.31358240027,dIXmowpb43vQWlKXvfPS6w,https://s3-media1.fl.yelpcdn.com/bphoto/lz-jHOoY8WrYtmKL1I-MGQ/o.jpg,4280 N Blackstone Ave,,,Fresno,US,CA,93726,FOB Fried Or Boiled Seafood Fusion,+15597249980,$$,3.5,284,[],https://www.yelp.com/biz/fob-fried-or-boiled-seafood-fusion-fresno-3?adjust_creative=Wu9gfEkr1Iqmmu5UKQvcJw&utm_campaign=yelp_api_v3&utm_medium=api_v3_business_search&utm_source=Wu9gfEkr1Iqmmu5UKQvcJw
bowlzeye-clovis,['asianfusion'],['Asian Fusion'],36.823364,-119.708427,(559) 298-3986,77930.25436473971,Ddx7GmwmQYsRO_pprKXbng,https://s3-media3.fl.yelpcdn.com/bphoto/QrccQopFwFVW7pdn5glPPQ/o.jpg,75 Bullard Ave,Ste 102,,Clovis,US,CA,93612,Bowlzeye,+15592983986,$,4.5,186,[],https://www.yelp.com/biz/bowlzeye-clovis?adjust_creative=Wu9gfEkr1Iqmmu5UKQvcJw&utm_campaign=yelp_api_v3&utm_medium=api_v3_business_search&utm_source=Wu9gfEkr1Iqmmu5UKQvcJw
sf-supermarket-fresno,['importedfood'],['Imported Food'],36.7356988,-119.7283287,(559) 255-5898,81265.79924269386,lJ4P4nk5unDYNsrIuVRUJw,https://s3-media1.fl.yelpcdn.com/bphoto/gIIXtFLdlo5oZTCgx7ymLA/o.jpg,4970 E Kings Canyon Rd,,,Fresno,US,CA,93727,SF Supermarket,+15592555898,$,4.0,60,[],https://www.yelp.com/biz/sf-supermarket-fresno?adjust_creative=Wu9gfEkr1Iqmmu5UKQvcJw&utm_campaign=yelp_api_v3&utm_medium=api_v3_business_search&utm_source=Wu9gfEkr1Iqmmu5UKQvcJw
rocket-dog-gourmet-brats-and-brew-fresno,"['hotdog', 'newamerican', 'sandwiches']","['Hot Dogs', 'American (New)', 'Sandwiches']",36.8088049482694,-119.788546097112,(559) 283-8096,72398.85431041848,N2eqSo_1vpFcICQnZzq3hA,https://s3-media2.fl.yelpcdn.com/bphoto/Nqz7OBNO0UWsac84hrKOHg/o.jpg,88 E Shaw Ave,,,Fresno,US,CA,93710,Rocket Dog Gourmet Brats & Brew,+15592838096,$,4.5,775,"['pickup', 'delivery']",https://www.yelp.com/biz/rocket-dog-gourmet-brats-and-brew-fresno?adjust_creative=Wu9gfEkr1Iqmmu5UKQvcJw&utm_campaign=yelp_api_v3&utm_medium=api_v3_business_search&utm_source=Wu9gfEkr1Iqmmu5UKQvcJw
asian-one-grocery-fresno,['importedfood'],['Imported Food'],36.79388,-119.8727,(559) 271-5981,66916.64903383804,AcIwc04sdK7KwbnkGU5bfw,https://s3-media3.fl.yelpcdn.com/bphoto/ZGVQgg6b1Q3DeL_eMoebqA/o.jpg,4470 W Ashlan Ave,,,Fresno,US,CA,93722,Asian One Grocery,+15592715981,$$,3.5,15,[],https://www.yelp.com/biz/asian-one-grocery-fresno?adjust_creative=Wu9gfEkr1Iqmmu5UKQvcJw&utm_campaign=yelp_api_v3&utm_medium=api_v3_business_search&utm_source=Wu9gfEkr1Iqmmu5UKQvcJw
emw-china-bistro-express-fresno,"['chinese', 'bubbletea', 'gluten_free']","['Chinese', 'Bubble Tea', 'Gluten-Free']",36.8708840435644,-119.765712397132,(559) 434-8399,71063.43633181899,XrpNLBVIijpLKCJddsJUQQ,https://s3-media4.fl.yelpcdn.com/bphoto/COwSQbOi3XfhoHPUg_THUw/o.jpg,1093 E Champlain Dr,,,Fresno,US,CA,93720,EMW China Bistro Express,+15594348399,$,3.5,110,[],https://www.yelp.com/biz/emw-china-bistro-express-fresno?adjust_creative=Wu9gfEkr1Iqmmu5UKQvcJw&utm_campaign=yelp_api_v3&utm_medium=api_v3_business_search&utm_source=Wu9gfEkr1Iqmmu5UKQvcJw
sai-gon-sandwiches-modesto,['sandwiches'],['Sandwiches'],37.6347938,-121.0048162,(209) 578-5143,71773.23803430834,rMsVpq3yL7Ax30_320U2FA,https://s3-media4.fl.yelpcdn.com/bphoto/RcuWR_MvFqWEFlPUoGixTw/o.jpg,328 I St,,,Modesto,US,CA,95351,Sai-Gon Sandwiches,+12095785143,$,2.5,44,[],https://www.yelp.com/biz/sai-gon-sandwiches-modesto?adjust_creative=Wu9gfEkr1Iqmmu5UKQvcJw&utm_campaign=yelp_api_v3&utm_medium=api_v3_business_search&utm_source=Wu9gfEkr1Iqmmu5UKQvcJw
mamas-asian-noodle-house-fresno,"['laotian', 'thai', 'noodles']","['Laotian', 'Thai', 'Noodles']",36.7658877026041,-119.737051978247,(559) 293-3959,78775.3070895349,j8NNSMbL6GX_77kg-5Q54Q,https://s3-media3.fl.yelpcdn.com/bphoto/uR5RXxkeUcFH4IfTIeXQSQ/o.jpg,4787 E McKinley Ave,,,Fresno,US,CA,93703,Mamas Asian Noodle House,+15592933959,$,4.0,316,[],https://www.yelp.com/biz/mamas-asian-noodle-house-fresno?adjust_creative=Wu9gfEkr1Iqmmu5UKQvcJw&utm_campaign=yelp_api_v3&utm_medium=api_v3_business_search&utm_source=Wu9gfEkr1Iqmmu5UKQvcJw
modesto-oriental-market-modesto,['importedfood'],['Imported Food'],37.672635,-121.029218,(209) 524-7186,76403.06191588468,q6Zt3qDKXug-uuNfvdvmTg,https://s3-media2.fl.yelpcdn.com/bphoto/oEEwiBFh7JOz0CsZRivFkg/o.jpg,1800 Prescott Rd,Ste A,,Modesto,US,CA,95350,Modesto Oriental Market,+12095247186,$$,4.0,31,[],https://www.yelp.com/biz/modesto-oriental-market-modesto?adjust_creative=Wu9gfEkr1Iqmmu5UKQvcJw&utm_campaign=yelp_api_v3&utm_medium=api_v3_business_search&utm_source=Wu9gfEkr1Iqmmu5UKQvcJw
tower-tea-fresno-2,"['bubbletea', 'juicebars', 'comfortfood']","['Bubble Tea', 'Juice Bars & Smoothies', 'Comfort Food']",36.764837,-119.798541,(559) 269-8668,74212.19957303238,H-e-QbnJqXq7Q4OiTLQIVg,https://s3-media3.fl.yelpcdn.com/bphoto/bpWkJxKS7oxmEeP_7O1IaQ/o.jpg,1020 E McKinley Ave,,,Fresno,US,CA,93728,Tower Tea,+15592698668,$,4.5,61,[],https://www.yelp.com/biz/tower-tea-fresno-2?adjust_creative=Wu9gfEkr1Iqmmu5UKQvcJw&utm_campaign=yelp_api_v3&utm_medium=api_v3_business_search&utm_source=Wu9gfEkr1Iqmmu5UKQvcJw
lao-cafe-2-fresno-3,"['thai', 'laotian']","['Thai', 'Laotian']",36.78072,-119.75514,(559) 243-7099,76484.21923109241,LKl2VS78sKBVzDPXuh3Rfw,https://s3-media2.fl.yelpcdn.com/bphoto/eU2zaNLit7eq6Wwm8qdKNw/o.jpg,3255 N Cedar Ave,,,Fresno,US,CA,93726,Lao Cafe 2,+15592437099,$$,4.0,83,[],https://www.yelp.com/biz/lao-cafe-2-fresno-3?adjust_creative=Wu9gfEkr1Iqmmu5UKQvcJw&utm_campaign=yelp_api_v3&utm_medium=api_v3_business_search&utm_source=Wu9gfEkr1Iqmmu5UKQvcJw
golden-chopstix-riverbank,['chinese'],['Chinese'],37.731649,-120.956973,(209) 869-4292,78162.0803346474,lgj_tJfdhueKGkeKeGOnbw,https://s3-media2.fl.yelpcdn.com/bphoto/NyPv3KNuJYchyhf6zr9Mag/o.jpg,2232 Patterson Rd,,,Riverbank,US,CA,95367,Golden Chopstix,+12098694292,$,3.5,41,[],https://www.yelp.com/biz/golden-chopstix-riverbank?adjust_creative=Wu9gfEkr1Iqmmu5UKQvcJw&utm_campaign=yelp_api_v3&utm_medium=api_v3_business_search&utm_source=Wu9gfEkr1Iqmmu5UKQvcJw
golden-dragon-oriental-cuisine-fresno,['chinese'],['Chinese'],36.73642,-119.71735,(559) 458-0488,82015.0505593246,gI55HYTq9TOHg8ae2RBZ_g,https://s3-media1.fl.yelpcdn.com/bphoto/rTtyUYHrfDcmpmZxrFIbBQ/o.jpg,5235 E Kings Canyon Rd,Ste 101,,Fresno,US,CA,93727,Golden Dragon Oriental Cuisine,+15594580488,$,3.5,82,[],https://www.yelp.com/biz/golden-dragon-oriental-cuisine-fresno?adjust_creative=Wu9gfEkr1Iqmmu5UKQvcJw&utm_campaign=yelp_api_v3&utm_medium=api_v3_business_search&utm_source=Wu9gfEkr1Iqmmu5UKQvcJw
pearl-tea-house-fresno,"['tea', 'bubbletea', 'juicebars']","['Tea Rooms', 'Bubble Tea', 'Juice Bars & Smoothies']",36.8079387754946,-119.740325713783,(559) 291-1899,76195.55727683156,teIsHtCpNPoBtqiPcaQADQ,https://s3-media3.fl.yelpcdn.com/bphoto/QtbB2VAh3-Aw-q2ru75aRg/o.jpg,2633 E Shaw Ave,Ste 107,,Fresno,US,CA,93710,Pearl Tea House,+15592911899,$,3.5,200,[],https://www.yelp.com/biz/pearl-tea-house-fresno?adjust_creative=Wu9gfEkr1Iqmmu5UKQvcJw&utm_campaign=yelp_api_v3&utm_medium=api_v3_business_search&utm_source=Wu9gfEkr1Iqmmu5UKQvcJw
boba-cafe-fresno-2,['asianfusion'],['Asian Fusion'],36.7371957512638,-119.730633968089,(559) 252-5829,80957.01130719541,G7EhBNNZ1qaXWc8v1EslqQ,https://s3-media3.fl.yelpcdn.com/bphoto/xkYAMwqObgtl0MwoMj_bFg/o.jpg,4917 E Kings Canyon Rd,,,Fresno,US,CA,93727,Boba Cafe,+15592525829,$,3.5,22,[],https://www.yelp.com/biz/boba-cafe-fresno-2?adjust_creative=Wu9gfEkr1Iqmmu5UKQvcJw&utm_campaign=yelp_api_v3&utm_medium=api_v3_business_search&utm_source=Wu9gfEkr1Iqmmu5UKQvcJw
pure-water-and-ice-cream-clovis-2,"['icecream', 'bubbletea', 'juicebars']","['Ice Cream & Frozen Yogurt', 'Bubble Tea', 'Juice Bars & Smoothies']",36.79433,-119.68101,(559) 346-1399,81563.49219286289,OR5ntCIJfyaKPXRJPcHztw,https://s3-media1.fl.yelpcdn.com/bphoto/ZRDlD5jSK3ZIxvYAeGiKlA/o.jpg,1835 Ashlan Ave,Ste 103A,,Clovis,US,CA,93611,Pure Water & Ice Cream,+15593461399,$$,4.0,18,[],https://www.yelp.com/biz/pure-water-and-ice-cream-clovis-2?adjust_creative=Wu9gfEkr1Iqmmu5UKQvcJw&utm_campaign=yelp_api_v3&utm_medium=api_v3_business_search&utm_source=Wu9gfEkr1Iqmmu5UKQvcJw
thai-phuket-restaurant-fresno,['thai'],['Thai'],36.7668432641255,-119.771979600191,(559) 412-8873,76076.12025444108,MTxF02rI-KUfO_1OlNmVUw,https://s3-media1.fl.yelpcdn.com/bphoto/xWPtu-aqYyTBJREBeFPfiA/o.jpg,1830 N First St,,,Fresno,US,CA,93703,Thai Phuket Restaurant,+15594128873,$,3.0,111,[],https://www.yelp.com/biz/thai-phuket-restaurant-fresno?adjust_creative=Wu9gfEkr1Iqmmu5UKQvcJw&utm_campaign=yelp_api_v3&utm_medium=api_v3_business_search&utm_source=Wu9gfEkr1Iqmmu5UKQvcJw
imperial-garden-modesto,['chinese'],['Chinese'],37.668981,-121.032326,(209) 521-1226,76254.18856301848,F6PiSyBNbPx_svJsZ5p80A,https://s3-media4.fl.yelpcdn.com/bphoto/XdpTLP_wYHKc-GNUnOUWgg/o.jpg,2045 W Briggsmore Ave,Ste A1,,Modesto,US,CA,95350,Imperial Garden,+12095211226,$$,3.5,200,"['pickup', 'delivery']",https://www.yelp.com/biz/imperial-garden-modesto?adjust_creative=Wu9gfEkr1Iqmmu5UKQvcJw&utm_campaign=yelp_api_v3&utm_medium=api_v3_business_search&utm_source=Wu9gfEkr1Iqmmu5UKQvcJw
imperial-garden-restaurant-fresno,"['dimsum', 'salad', 'newamerican']","['Dim Sum', 'Salad', 'American (New)']",36.83481,-119.78996,(559) 435-4406,70905.84702711068,W215zFYX0msIHMcPnAyXew,https://s3-media4.fl.yelpcdn.com/bphoto/VhQ41ogI2RzgI96JnIg9aw/o.jpg,6640 N Blackstone Ave,Ste 108,,Fresno,US,CA,93710,Imperial Garden Restaurant,+15594354406,$$,3.0,339,[],https://www.yelp.com/biz/imperial-garden-restaurant-fresno?adjust_creative=Wu9gfEkr1Iqmmu5UKQvcJw&utm_campaign=yelp_api_v3&utm_medium=api_v3_business_search&utm_source=Wu9gfEkr1Iqmmu5UKQvcJw
lins-fusion-fresno,"['chinese', 'bars', 'buffets']","['Chinese', 'Bars', 'Buffets']",36.81135,-119.79097,(559) 222-8478,72069.31878156,B-MwNhiYfGT-AcV4_7shHw,https://s3-media1.fl.yelpcdn.com/bphoto/FlTe96MO_NpEsFrD4n8L3A/o.jpg,5155 N Blackstone Ave,,,Fresno,US,CA,93710,Lin's Fusion,+15592228478,$$,3.0,359,[],https://www.yelp.com/biz/lins-fusion-fresno?adjust_creative=Wu9gfEkr1Iqmmu5UKQvcJw&utm_campaign=yelp_api_v3&utm_medium=api_v3_business_search&utm_source=Wu9gfEkr1Iqmmu5UKQvcJw
b-and-k-asian-kitchen-fresno,['thai'],['Thai'],36.7592982,-119.7720551,(559) 237-3918,76523.36810895224,180F8-rj_e53-2wgnS9HVQ,https://s3-media4.fl.yelpcdn.com/bphoto/thfru4J7NvhuKsyGQ2EKSw/o.jpg,1276 N First St,,,Fresno,US,CA,93703,B & K Asian Kitchen,+15592373918,$$,4.0,175,[],https://www.yelp.com/biz/b-and-k-asian-kitchen-fresno?adjust_creative=Wu9gfEkr1Iqmmu5UKQvcJw&utm_campaign=yelp_api_v3&utm_medium=api_v3_business_search&utm_source=Wu9gfEkr1Iqmmu5UKQvcJw
panera-bread-modesto,"['sandwiches', 'salad', 'soup']","['Sandwiches', 'Salad', 'Soup']",37.674254868909,-120.994523763657,(209) 900-6525,74699.94933945304,5UiSNHIe-2_108Uubu68fg,https://s3-media1.fl.yelpcdn.com/bphoto/dfWhDcWsLLrpJVtPsw8Zyg/o.jpg,2103 Mchenry Ave,,,Modesto,US,CA,95350,Panera Bread,+12099006525,$$,2.5,161,[],https://www.yelp.com/biz/panera-bread-modesto?adjust_creative=Wu9gfEkr1Iqmmu5UKQvcJw&utm_campaign=yelp_api_v3&utm_medium=api_v3_business_search&utm_source=Wu9gfEkr1Iqmmu5UKQvcJw
queen-sandwich-and-cake-fresno,"['bakeries', 'sandwiches', 'coffee']","['Bakeries', 'Sandwiches', 'Coffee & Tea']",36.77194,-119.78075,(559) 225-3192,75126.06073261685,LI-fqdQZxDOj76XJeVGbBg,https://s3-media1.fl.yelpcdn.com/bphoto/6NBYJVF-FgFqLQucGinbbQ/o.jpg,2318 N Fresno St,,,Fresno,US,CA,93703,Queen Sandwich & Cake,+15592253192,$,3.0,84,[],https://www.yelp.com/biz/queen-sandwich-and-cake-fresno?adjust_creative=Wu9gfEkr1Iqmmu5UKQvcJw&utm_campaign=yelp_api_v3&utm_medium=api_v3_business_search&utm_source=Wu9gfEkr1Iqmmu5UKQvcJw
oriental-express-downtown-fresno,['chinese'],['Chinese'],36.7357521057129,-119.784439086914,(559) 268-0036,77068.38494433358,KMUTc17V1qxLEnpSnpbFAA,https://s3-media3.fl.yelpcdn.com/bphoto/Cau4jQniI0N8xcCc2KU_DA/o.jpg,2405 Capitol St,,,Fresno,US,CA,93721,Oriental Express Downtown,+15592680036,$,4.0,34,[],https://www.yelp.com/biz/oriental-express-downtown-fresno?adjust_creative=Wu9gfEkr1Iqmmu5UKQvcJw&utm_campaign=yelp_api_v3&utm_medium=api_v3_business_search&utm_source=Wu9gfEkr1Iqmmu5UKQvcJw
la-boulangerie-fresno,"['bakeries', 'sandwiches', 'cakeshop']","['Bakeries', 'Sandwiches', 'Patisserie/Cake Shop']",36.8102223967567,-119.806757107116,(559) 222-0555,70917.97590157551,yn8hi5pFTl3Ct7sbF2G0kw,https://s3-media2.fl.yelpcdn.com/bphoto/UP5wRe9HoNYs0tg_4Mws_w/o.jpg,730 W Shaw Ave,,,Fresno,US,CA,93704,La Boulangerie,+15592220555,$$,4.0,345,[],https://www.yelp.com/biz/la-boulangerie-fresno?adjust_creative=Wu9gfEkr1Iqmmu5UKQvcJw&utm_campaign=yelp_api_v3&utm_medium=api_v3_business_search&utm_source=Wu9gfEkr1Iqmmu5UKQvcJw
dynasty-garden-modesto,['dimsum'],['Dim Sum'],37.68936,-120.97556,(209) 521-8808,75126.13019756654,BcH4J21M9eTzY4GarXfXNA,https://s3-media1.fl.yelpcdn.com/bphoto/0VuryRraVj7EvFnSAs2CxQ/o.jpg,3500 Coffee Rd,,,Modesto,US,CA,95355,Dynasty Garden,+12095218808,$$,3.5,391,['delivery'],https://www.yelp.com/biz/dynasty-garden-modesto?adjust_creative=Wu9gfEkr1Iqmmu5UKQvcJw&utm_campaign=yelp_api_v3&utm_medium=api_v3_business_search&utm_source=Wu9gfEkr1Iqmmu5UKQvcJw
my-thai-cuisine-ripon,"['thai', 'importedfood']","['Thai', 'Imported Food']",37.7527152232228,-121.136132329702,(209) 599-2388,89236.8905470218,CSi5MRmo10XScygXDoMF4g,https://s3-media3.fl.yelpcdn.com/bphoto/6KTXhZUxHhMhF9x_XH9SGw/o.jpg,1222 W Colony Rd,Ste 150,,Ripon,US,CA,95366,My Thai Cuisine,+12095992388,$$,4.0,126,"['pickup', 'delivery']",https://www.yelp.com/biz/my-thai-cuisine-ripon?adjust_creative=Wu9gfEkr1Iqmmu5UKQvcJw&utm_campaign=yelp_api_v3&utm_medium=api_v3_business_search&utm_source=Wu9gfEkr1Iqmmu5UKQvcJw
little-hong-kong-fresno,['chinese'],['Chinese'],36.7291951,-119.7955728,(559) 268-5899,76667.64677523267,xJReEJnjk7wpKD7oeoH5DA,https://s3-media3.fl.yelpcdn.com/bphoto/hJnjZv0mlJLikHjU3METHQ/o.jpg,943 E St,,,Fresno,US,CA,93706,Little Hong Kong,+15592685899,$,2.5,30,[],https://www.yelp.com/biz/little-hong-kong-fresno?adjust_creative=Wu9gfEkr1Iqmmu5UKQvcJw&utm_campaign=yelp_api_v3&utm_medium=api_v3_business_search&utm_source=Wu9gfEkr1Iqmmu5UKQvcJw
the-loving-hut-fresno,['vegan'],['Vegan'],36.76292,-119.79926,(559) 237-4052,74280.5907036261,Un6lNNQG6guFOy4_KRNJ6A,https://s3-media4.fl.yelpcdn.com/bphoto/qOSUEMJ1x1jlX_U8Bbs_4Q/o.jpg,1495 N Van Ness Ave,,,Fresno,US,CA,93728,The Loving Hut,+15592374052,$,4.0,155,[],https://www.yelp.com/biz/the-loving-hut-fresno?adjust_creative=Wu9gfEkr1Iqmmu5UKQvcJw&utm_campaign=yelp_api_v3&utm_medium=api_v3_business_search&utm_source=Wu9gfEkr1Iqmmu5UKQvcJw
deli-delicious-fresno,"['sandwiches', 'delis']","['Sandwiches', 'Delis']",36.81996,-119.78902,(559) 447-0666,71746.39686471754,9nP3p81r4DjH6z2eZFCObg,https://s3-media3.fl.yelpcdn.com/bphoto/iXhSKoCNguB9se61Q2BpmQ/o.jpg,5628 N Blackstone Ave,,,Fresno,US,CA,93710,Deli Delicious,+15594470666,$,3.5,60,[],https://www.yelp.com/biz/deli-delicious-fresno?adjust_creative=Wu9gfEkr1Iqmmu5UKQvcJw&utm_campaign=yelp_api_v3&utm_medium=api_v3_business_search&utm_source=Wu9gfEkr1Iqmmu5UKQvcJw
