alias,categories_alias,categories_title,coordinates_latitude,coordinates_longitude,display_phone,distance,id,image_url,location_address1,location_address2,location_address3,location_city,location_country,location_state,location_zip_code,name,phone,price,rating,review_count,transactions,url
xiong-pho-n-seafood-visalia-3,"['vietnamese', 'seafood', 'asianfusion']","['Vietnamese', 'Seafood', 'Asian Fusion']",36.3382373622481,-119.291961602374,(559) 732-3663,23362.511145546512,mAK04oKw7dC_ZZuAcmq5tA,https://s3-media4.fl.yelpcdn.com/bphoto/0nWsltPPhgLkS1pMGvE-Bw/o.jpg,924 N Court St,,,Visalia,US,CA,93291,Xiong Pho N Seafood,+15597323663,$,4.0,351,[],https://www.yelp.com/biz/xiong-pho-n-seafood-visalia-3?adjust_creative=Wu9gfEkr1Iqmmu5UKQvcJw&utm_campaign=yelp_api_v3&utm_medium=api_v3_business_search&utm_source=Wu9gfEkr1Iqmmu5UKQvcJw
davorns-place-visalia-4,"['laotian', 'thai', 'vietnamese']","['Laotian', 'Thai', 'Vietnamese']",36.333179473877,-119.298095703125,(559) 733-4885,23822.42501021599,veVqQqX3zkfUiV6aMj9e6Q,https://s3-media1.fl.yelpcdn.com/bphoto/urVP2A7TcaWZaZvmvem5BQ/o.jpg,409 N Willis St,,,Visalia,US,CA,93291,Davorn's Place,+15597334885,$$,4.0,386,[],https://www.yelp.com/biz/davorns-place-visalia-4?adjust_creative=Wu9gfEkr1Iqmmu5UKQvcJw&utm_campaign=yelp_api_v3&utm_medium=api_v3_business_search&utm_source=Wu9gfEkr1Iqmmu5UKQvcJw
pho-king-visalia,"['vietnamese', 'seafood', 'bubbletea']","['Vietnamese', 'Seafood', 'Bubble Tea']",36.342145062106,-119.2771581122,(559) 713-6678,23205.32839530273,02OTUSyeuB7IBqeyV4DUNA,https://s3-media2.fl.yelpcdn.com/bphoto/JpW3ypfdsOL5_eZbrQZaNQ/o.jpg,1424 N Ben Maddox Way,,,Visalia,US,CA,93292,Pho King,+15597136678,$,3.5,197,[],https://www.yelp.com/biz/pho-king-visalia?adjust_creative=Wu9gfEkr1Iqmmu5UKQvcJw&utm_campaign=yelp_api_v3&utm_medium=api_v3_business_search&utm_source=Wu9gfEkr1Iqmmu5UKQvcJw
pho-phuong-nine-restaurant-fresno,['vietnamese'],['Vietnamese'],36.73709,-119.73155,(559) 454-1762,41173.01924734006,jhZ1jvsFMNBps67Dv81xDg,https://s3-media3.fl.yelpcdn.com/bphoto/yw1KjP4oKAM9cqyLsGoBDw/o.jpg,4903 E Kings Canyon Rd,Ste 107,,Fresno,US,CA,93727,Pho Phuong Nine Restaurant,+15594541762,$,4.0,165,[],https://www.yelp.com/biz/pho-phuong-nine-restaurant-fresno?adjust_creative=Wu9gfEkr1Iqmmu5UKQvcJw&utm_campaign=yelp_api_v3&utm_medium=api_v3_business_search&utm_source=Wu9gfEkr1Iqmmu5UKQvcJw
pho-delite-clovis,['vietnamese'],['Vietnamese'],36.80943,-119.71747,(559) 322-8688,44874.13775412654,XkrnBmg0LMqdzD2uMcAMdg,https://s3-media1.fl.yelpcdn.com/bphoto/W3L8F80dFcEF_IVCQ-_E5g/o.jpg,393 W Shaw Ave,Ste A14,,Clovis,US,CA,93612,Pho Delite,+15593228688,$,4.0,239,[],https://www.yelp.com/biz/pho-delite-clovis?adjust_creative=Wu9gfEkr1Iqmmu5UKQvcJw&utm_campaign=yelp_api_v3&utm_medium=api_v3_business_search&utm_source=Wu9gfEkr1Iqmmu5UKQvcJw
phò-kc-noodle-and-rice-visalia,"['vietnamese', 'noodles']","['Vietnamese', 'Noodles']",36.3004538078841,-119.315440848464,(559) 622-9735,27279.595215757803,V5tO3NabOIrPtTrG0yOOXQ,https://s3-media4.fl.yelpcdn.com/bphoto/x4Mp90JBpsriW90S5gmDcQ/o.jpg,3403 S Mooney Blvd,,,Visalia,US,CA,93277,Phò KC Noodle & Rice,+15596229735,$,3.5,57,[],https://www.yelp.com/biz/ph%C3%B2-kc-noodle-and-rice-visalia?adjust_creative=Wu9gfEkr1Iqmmu5UKQvcJw&utm_campaign=yelp_api_v3&utm_medium=api_v3_business_search&utm_source=Wu9gfEkr1Iqmmu5UKQvcJw
pho-2006-clovis,['vietnamese'],['Vietnamese'],36.8133511,-119.7012152,(559) 322-8922,44076.03516593625,AUeUStvQTE8-UBUW0siHWQ,https://s3-media4.fl.yelpcdn.com/bphoto/pv1Rsp1BPbMKTd-bzdmcEw/o.jpg,1468 Clovis Ave,,,Clovis,US,CA,93612,Pho 2006,+15593228922,$,4.0,252,[],https://www.yelp.com/biz/pho-2006-clovis?adjust_creative=Wu9gfEkr1Iqmmu5UKQvcJw&utm_campaign=yelp_api_v3&utm_medium=api_v3_business_search&utm_source=Wu9gfEkr1Iqmmu5UKQvcJw
pho-vn-clovis-2,['vietnamese'],['Vietnamese'],36.85164,-119.72789,(559) 324-8677,48717.68323511575,IWJCs_Fp9OKfOZ7cH360lQ,https://s3-media3.fl.yelpcdn.com/bphoto/868vf8oHCc9aKQFDNKFSlw/o.jpg,1187 N Willow Ave,Ste 104,,Clovis,US,CA,93611,Pho VN,+15593248677,$,3.5,120,[],https://www.yelp.com/biz/pho-vn-clovis-2?adjust_creative=Wu9gfEkr1Iqmmu5UKQvcJw&utm_campaign=yelp_api_v3&utm_medium=api_v3_business_search&utm_source=Wu9gfEkr1Iqmmu5UKQvcJw
sy-salathai-visalia-4,"['laotian', 'thai', 'asianfusion']","['Laotian', 'Thai', 'Asian Fusion']",36.338464,-119.2921936,(559) 622-9999,23334.096510478164,9tsLB6RHKRNyLvrwkps_ew,https://s3-media2.fl.yelpcdn.com/bphoto/-GJ09nx-E5ywljpNBlCPvw/o.jpg,101 NE 3rd Ave,,,Visalia,US,CA,93291,Sy-Salathai,+15596229999,$$,4.5,121,[],https://www.yelp.com/biz/sy-salathai-visalia-4?adjust_creative=Wu9gfEkr1Iqmmu5UKQvcJw&utm_campaign=yelp_api_v3&utm_medium=api_v3_business_search&utm_source=Wu9gfEkr1Iqmmu5UKQvcJw
pho-le-777-clovis,['vietnamese'],['Vietnamese'],36.854018,-119.728403,(559) 297-7776,48943.45860265145,_yP8_cwzZvWKkCLD77wvZQ,https://s3-media4.fl.yelpcdn.com/bphoto/jGl6TACkPFSn_F7-5UhB-A/o.jpg,1365 N Willow Ave,Ste 100,,Clovis,US,CA,93619,Pho Le 777,+15592977776,$,3.5,179,[],https://www.yelp.com/biz/pho-le-777-clovis?adjust_creative=Wu9gfEkr1Iqmmu5UKQvcJw&utm_campaign=yelp_api_v3&utm_medium=api_v3_business_search&utm_source=Wu9gfEkr1Iqmmu5UKQvcJw
zen-asian-diner-visalia,"['diners', 'asianfusion']","['Diners', 'Asian Fusion']",36.3265,-119.3272,(559) 636-3288,24331.024266655942,Jd2cldhWKquMNLpTlIqqGw,https://s3-media2.fl.yelpcdn.com/bphoto/kuAHr-g_f5rARvN-HtD1wg/o.jpg,3233 W Noble Ave,,,Visalia,US,CA,93277,Zen Asian Diner,+15596363288,$$,3.5,98,[],https://www.yelp.com/biz/zen-asian-diner-visalia?adjust_creative=Wu9gfEkr1Iqmmu5UKQvcJw&utm_campaign=yelp_api_v3&utm_medium=api_v3_business_search&utm_source=Wu9gfEkr1Iqmmu5UKQvcJw
huong-lan-pho-and-sandwiches-fresno-2,['vietnamese'],['Vietnamese'],36.7377760792984,-119.696696698666,(559) 251-5000,38563.124185460074,iH4VvDDVdPR96Dif3mvv7Q,https://s3-media3.fl.yelpcdn.com/bphoto/TBlhUqnZkRRuPxATORqMRA/o.jpg,5669 E Kings Canyon Rd,Ste 102,,Fresno,US,CA,93727,Huong Lan Pho & Sandwiches,+15592515000,$,3.5,136,[],https://www.yelp.com/biz/huong-lan-pho-and-sandwiches-fresno-2?adjust_creative=Wu9gfEkr1Iqmmu5UKQvcJw&utm_campaign=yelp_api_v3&utm_medium=api_v3_business_search&utm_source=Wu9gfEkr1Iqmmu5UKQvcJw
thai-place-restaurant-visalia,['thai'],['Thai'],36.3360328674316,-119.292137145996,(559) 622-8881,23597.59800238901,DllJxkpZbScKc2RXGcHNZg,https://s3-media2.fl.yelpcdn.com/bphoto/8nF9FFL90ds54Te1U1Qv9w/o.jpg,700 N Court St,,,Visalia,US,CA,93291,Thai Place Restaurant,+15596228881,$$,4.0,101,[],https://www.yelp.com/biz/thai-place-restaurant-visalia?adjust_creative=Wu9gfEkr1Iqmmu5UKQvcJw&utm_campaign=yelp_api_v3&utm_medium=api_v3_business_search&utm_source=Wu9gfEkr1Iqmmu5UKQvcJw
happy-eats-hanford,['chinese'],['Chinese'],36.3288178875175,-119.656890034676,(559) 410-8313,37365.49831019665,vHIAqhPDCPNbqmQAK4zKMA,https://s3-media4.fl.yelpcdn.com/bphoto/6L09tD70fDFyJ_kU5B2G9g/o.jpg,828 W Lacey Blvd,,,Hanford,US,CA,93230,Happy Eats,+15594108313,$,4.0,104,[],https://www.yelp.com/biz/happy-eats-hanford?adjust_creative=Wu9gfEkr1Iqmmu5UKQvcJw&utm_campaign=yelp_api_v3&utm_medium=api_v3_business_search&utm_source=Wu9gfEkr1Iqmmu5UKQvcJw
asian-cuisine-fresno,['vietnamese'],['Vietnamese'],36.73451,-119.73441,(559) 255-1878,41209.00933412966,f-Oo5vTnBleAJKDPE5go1w,https://s3-media4.fl.yelpcdn.com/bphoto/-tSQgperBbEKcp-bBZFxRw/o.jpg,4842 E Kings Canyon Rd,,,Fresno,US,CA,93727,Asian Cuisine,+15592551878,$,3.5,49,[],https://www.yelp.com/biz/asian-cuisine-fresno?adjust_creative=Wu9gfEkr1Iqmmu5UKQvcJw&utm_campaign=yelp_api_v3&utm_medium=api_v3_business_search&utm_source=Wu9gfEkr1Iqmmu5UKQvcJw
china-house-sanger,['chinese'],['Chinese'],36.7123038294538,-119.558200836182,(559) 875-8838,27094.449378144167,wWedLiYC2doQAXLPs6jR-w,https://s3-media4.fl.yelpcdn.com/bphoto/s-xaUvWM_YyDXGWcrVW51g/o.jpg,237 Academy Ave,,,Sanger,US,CA,93657,China House,+15598758838,$,4.0,16,[],https://www.yelp.com/biz/china-house-sanger?adjust_creative=Wu9gfEkr1Iqmmu5UKQvcJw&utm_campaign=yelp_api_v3&utm_medium=api_v3_business_search&utm_source=Wu9gfEkr1Iqmmu5UKQvcJw
thai-kitchen-hanford,['thai'],['Thai'],36.3243934,-119.6553249,(559) 583-1212,37644.50591784771,ZFx_BwG020o8X8tZ4oQAKA,https://s3-media3.fl.yelpcdn.com/bphoto/8U7reRCq5mNS_x11IhoqfQ/o.jpg,122 N 11th Ave,,,Hanford,US,CA,93230,Thai Kitchen,+15595831212,$$,4.0,155,[],https://www.yelp.com/biz/thai-kitchen-hanford?adjust_creative=Wu9gfEkr1Iqmmu5UKQvcJw&utm_campaign=yelp_api_v3&utm_medium=api_v3_business_search&utm_source=Wu9gfEkr1Iqmmu5UKQvcJw
thai-basil-restaurant-visalia-2,['thai'],['Thai'],36.325341,-119.2764362,(559) 732-8881,25160.078865122283,E49LG3V0Tf5qKQkGj2J-bg,https://s3-media1.fl.yelpcdn.com/bphoto/7sS7oepuMZWJ5z3tlqNuiQ/o.jpg,1423 E Noble Ave,,,Visalia,US,CA,93292,Thai Basil Restaurant,+15597328881,$$,4.0,210,[],https://www.yelp.com/biz/thai-basil-restaurant-visalia-2?adjust_creative=Wu9gfEkr1Iqmmu5UKQvcJw&utm_campaign=yelp_api_v3&utm_medium=api_v3_business_search&utm_source=Wu9gfEkr1Iqmmu5UKQvcJw
jasmine-garden-fresno,['vietnamese'],['Vietnamese'],36.8084927,-119.7398986,(559) 294-2199,46332.16407219586,bInMyFmYDELGlrUtRYy19Q,https://s3-media4.fl.yelpcdn.com/bphoto/k05MLo2iVTZnEi7iXGvsuw/o.jpg,2633 E Shaw Ave,,,Fresno,US,CA,93710,Jasmine Garden,+15592942199,$,3.5,64,[],https://www.yelp.com/biz/jasmine-garden-fresno?adjust_creative=Wu9gfEkr1Iqmmu5UKQvcJw&utm_campaign=yelp_api_v3&utm_medium=api_v3_business_search&utm_source=Wu9gfEkr1Iqmmu5UKQvcJw
pho-lao-vieng-fresno-3,"['vietnamese', 'laotian', 'thai']","['Vietnamese', 'Laotian', 'Thai']",36.75801,-119.73771,(559) 389-0025,42856.645314413705,NrPbkVLqozxr1khTNvnPEQ,https://s3-media2.fl.yelpcdn.com/bphoto/Zp5pwFHHQB64cf65pRv9yQ/o.jpg,4767 E Olive Ave,,,Fresno,US,CA,93702,Pho Lao Vieng,+15593890025,$,3.5,57,[],https://www.yelp.com/biz/pho-lao-vieng-fresno-3?adjust_creative=Wu9gfEkr1Iqmmu5UKQvcJw&utm_campaign=yelp_api_v3&utm_medium=api_v3_business_search&utm_source=Wu9gfEkr1Iqmmu5UKQvcJw
asia-garden-hanford,['chinese'],['Chinese'],36.32743,-119.63893,(559) 584-7308,36261.339276903505,blaT5Gw66cy8h2fDSGfKrQ,https://s3-media3.fl.yelpcdn.com/bphoto/TUMLGne8KaA3PKPgElx2hA/o.jpg,505 E 7th St,,,Hanford,US,CA,93230,Asia Garden,+15595847308,$,4.0,97,[],https://www.yelp.com/biz/asia-garden-hanford?adjust_creative=Wu9gfEkr1Iqmmu5UKQvcJw&utm_campaign=yelp_api_v3&utm_medium=api_v3_business_search&utm_source=Wu9gfEkr1Iqmmu5UKQvcJw
angkor-restaurant-fresno,"['cambodian', 'vietnamese']","['Cambodian', 'Vietnamese']",36.757774,-119.734843,(559) 454-0887,42624.57545741292,tQp56e8LxqX1oYPSQu8-Mw,https://s3-media1.fl.yelpcdn.com/bphoto/D2jXzrVSg4CTjveJ3_8czA/o.jpg,4853 E Olive Ave,,,Fresno,US,CA,93727,Angkor Restaurant,+15594540887,$$,3.5,66,[],https://www.yelp.com/biz/angkor-restaurant-fresno?adjust_creative=Wu9gfEkr1Iqmmu5UKQvcJw&utm_campaign=yelp_api_v3&utm_medium=api_v3_business_search&utm_source=Wu9gfEkr1Iqmmu5UKQvcJw
mr-papaya-kitchen-fresno,"['thai', 'laotian', 'vietnamese']","['Thai', 'Laotian', 'Vietnamese']",36.73709,-119.73155,(559) 453-0709,41173.01924734006,Xe3kMAFaBnN02w-m2jcxpQ,https://s3-media4.fl.yelpcdn.com/bphoto/4WFH7yX04NG0CG7U_bFpbw/o.jpg,4903 E Kings Canyon Rd,Ste 106,,Fresno,US,CA,93727,Mr. Papaya Kitchen,+15594530709,$,3.0,144,[],https://www.yelp.com/biz/mr-papaya-kitchen-fresno?adjust_creative=Wu9gfEkr1Iqmmu5UKQvcJw&utm_campaign=yelp_api_v3&utm_medium=api_v3_business_search&utm_source=Wu9gfEkr1Iqmmu5UKQvcJw
pho-76-restaurant-and-bakery-fresno,['vietnamese'],['Vietnamese'],36.765697,-119.736667,(559) 255-2510,43251.88432331921,fgD3sDklUrRAx1eamIXQuQ,https://s3-media4.fl.yelpcdn.com/bphoto/RhZnaVeXpdgnB2tS4ln_kA/o.jpg,4793 E McKinley Ave,,,Fresno,US,CA,93703,Pho 76 Restaurant & Bakery,+15592552510,$,3.0,135,[],https://www.yelp.com/biz/pho-76-restaurant-and-bakery-fresno?adjust_creative=Wu9gfEkr1Iqmmu5UKQvcJw&utm_campaign=yelp_api_v3&utm_medium=api_v3_business_search&utm_source=Wu9gfEkr1Iqmmu5UKQvcJw
thai-season-clovis,['thai'],['Thai'],36.8096750961192,-119.711730504369,(559) 297-0307,44500.39702335306,AjxWtcMpGg_tu6w_tliYOQ,https://s3-media4.fl.yelpcdn.com/bphoto/jouiFq6E7fOZnH41krUwAQ/o.jpg,135 W Shaw Ave,,,Clovis,US,CA,93612,Thai Season,+15592970307,$$,4.0,177,[],https://www.yelp.com/biz/thai-season-clovis?adjust_creative=Wu9gfEkr1Iqmmu5UKQvcJw&utm_campaign=yelp_api_v3&utm_medium=api_v3_business_search&utm_source=Wu9gfEkr1Iqmmu5UKQvcJw
hong-kong-chop-suey-restaurant-hanford,['chinese'],['Chinese'],36.3273,-119.63976,(559) 582-1018,36325.93656392642,vZ-ULp7gEcd3-lPTYZkLVQ,https://s3-media3.fl.yelpcdn.com/bphoto/858IzzYJ90JBLy-nzKNhlQ/o.jpg,481 E 7th St,,,Hanford,US,CA,93230,Hong Kong Chop Suey Restaurant,+15595821018,$,3.5,60,[],https://www.yelp.com/biz/hong-kong-chop-suey-restaurant-hanford?adjust_creative=Wu9gfEkr1Iqmmu5UKQvcJw&utm_campaign=yelp_api_v3&utm_medium=api_v3_business_search&utm_source=Wu9gfEkr1Iqmmu5UKQvcJw
keothip-restaurant-visalia,['thai'],['Thai'],36.3333754199334,-119.298440548892,(559) 739-0747,23803.68338950494,bHt2ENuuj5_RS51YPrtuJw,https://s3-media3.fl.yelpcdn.com/bphoto/C2zBl0UyDyFzTY57g4rDcQ/o.jpg,619 W Murray Ave,,,Visalia,US,CA,93291,Keothip Restaurant,+15597390747,$$,3.5,156,[],https://www.yelp.com/biz/keothip-restaurant-visalia?adjust_creative=Wu9gfEkr1Iqmmu5UKQvcJw&utm_campaign=yelp_api_v3&utm_medium=api_v3_business_search&utm_source=Wu9gfEkr1Iqmmu5UKQvcJw
golden-dragon-oriental-cuisine-fresno,['chinese'],['Chinese'],36.73642,-119.71735,(559) 458-0488,40011.96209249603,gI55HYTq9TOHg8ae2RBZ_g,https://s3-media1.fl.yelpcdn.com/bphoto/rTtyUYHrfDcmpmZxrFIbBQ/o.jpg,5235 E Kings Canyon Rd,Ste 101,,Fresno,US,CA,93727,Golden Dragon Oriental Cuisine,+15594580488,$,3.5,82,[],https://www.yelp.com/biz/golden-dragon-oriental-cuisine-fresno?adjust_creative=Wu9gfEkr1Iqmmu5UKQvcJw&utm_campaign=yelp_api_v3&utm_medium=api_v3_business_search&utm_source=Wu9gfEkr1Iqmmu5UKQvcJw
china-garden-visalia,['chinese'],['Chinese'],36.316033764117,-119.313452571966,(559) 625-8638,25566.13053619193,uPX6zrmV1epAGn5H_cXhxQ,https://s3-media2.fl.yelpcdn.com/bphoto/wxqb1-BL01ZHMPGvo6GpZg/o.jpg,1634 S Mooney Blvd,,,Visalia,US,CA,93277,China Garden,+15596258638,$,4.0,65,[],https://www.yelp.com/biz/china-garden-visalia?adjust_creative=Wu9gfEkr1Iqmmu5UKQvcJw&utm_campaign=yelp_api_v3&utm_medium=api_v3_business_search&utm_source=Wu9gfEkr1Iqmmu5UKQvcJw
thai-gem-clovis,['thai'],['Thai'],36.8074265708953,-119.725582229015,(559) 298-4425,45273.64232481421,HUKej-hPtP8gflOztZXAPQ,https://s3-media2.fl.yelpcdn.com/bphoto/tqAZCI_TrGm8Ay0Mi4T2Kw/o.jpg,742 W Shaw Ave,,,Clovis,US,CA,93612,Thai Gem,+15592984425,$$,4.0,110,[],https://www.yelp.com/biz/thai-gem-clovis?adjust_creative=Wu9gfEkr1Iqmmu5UKQvcJw&utm_campaign=yelp_api_v3&utm_medium=api_v3_business_search&utm_source=Wu9gfEkr1Iqmmu5UKQvcJw
pad-thai-restaurant-clovis,['thai'],['Thai'],36.8084135,-119.7063075,(559) 324-1235,44045.483256303625,nIvzmLsg0tWhBVV9RLwHbA,https://s3-media3.fl.yelpcdn.com/bphoto/zB5R0f1VFGGaP8LReZd2fA/o.jpg,198 Shaw Ave,,,Clovis,US,CA,93612,Pad Thai Restaurant,+15593241235,$$,4.0,474,[],https://www.yelp.com/biz/pad-thai-restaurant-clovis?adjust_creative=Wu9gfEkr1Iqmmu5UKQvcJw&utm_campaign=yelp_api_v3&utm_medium=api_v3_business_search&utm_source=Wu9gfEkr1Iqmmu5UKQvcJw
thai-chili-clovis,"['thai', 'laotian']","['Thai', 'Laotian']",36.823363,-119.708429,(559) 326-0309,45303.027078458996,1p2GW8gxIrFhQwBOIxAwzA,https://s3-media4.fl.yelpcdn.com/bphoto/6yBWTDUzLcdd8L2_i1s3yg/o.jpg,75 Bullard Ave,,,Clovis,US,CA,93612,Thai Chili,+15593260309,$$,3.5,84,[],https://www.yelp.com/biz/thai-chili-clovis?adjust_creative=Wu9gfEkr1Iqmmu5UKQvcJw&utm_campaign=yelp_api_v3&utm_medium=api_v3_business_search&utm_source=Wu9gfEkr1Iqmmu5UKQvcJw
thai-country-restaurant-clovis,"['thai', 'chinese']","['Thai', 'Chinese']",36.82337,-119.71209,(559) 298-6697,45548.25623560127,TntoHjXiOUHpzdc9rKJVQw,https://s3-media3.fl.yelpcdn.com/bphoto/QSf9qxapUueIx29xqel6dA/o.jpg,151 W Bullard Ave,Ste 103,,Clovis,US,CA,93612,Thai Country Restaurant,+15592986697,$$,4.0,373,[],https://www.yelp.com/biz/thai-country-restaurant-clovis?adjust_creative=Wu9gfEkr1Iqmmu5UKQvcJw&utm_campaign=yelp_api_v3&utm_medium=api_v3_business_search&utm_source=Wu9gfEkr1Iqmmu5UKQvcJw
sf-supermarket-fresno,['importedfood'],['Imported Food'],36.7356988,-119.7283287,(559) 255-5898,40780.94174930344,lJ4P4nk5unDYNsrIuVRUJw,https://s3-media1.fl.yelpcdn.com/bphoto/gIIXtFLdlo5oZTCgx7ymLA/o.jpg,4970 E Kings Canyon Rd,,,Fresno,US,CA,93727,SF Supermarket,+15592555898,$,4.0,60,[],https://www.yelp.com/biz/sf-supermarket-fresno?adjust_creative=Wu9gfEkr1Iqmmu5UKQvcJw&utm_campaign=yelp_api_v3&utm_medium=api_v3_business_search&utm_source=Wu9gfEkr1Iqmmu5UKQvcJw
sweet-lyfe-boba-bar-fresno-2,"['bubbletea', 'juicebars', 'coffee']","['Bubble Tea', 'Juice Bars & Smoothies', 'Coffee & Tea']",36.812381,-119.735041,(559) 353-2440,46273.011740349255,ansEh1ZYavcDa5UaVhyXqw,https://s3-media2.fl.yelpcdn.com/bphoto/OmUWqgNlJUE3ZczfPuJQzQ/o.jpg,3052 E Campus Pointe Dr,,,Fresno,US,CA,93710,Sweet Lyfe Boba Bar,+15593532440,$,4.0,295,[],https://www.yelp.com/biz/sweet-lyfe-boba-bar-fresno-2?adjust_creative=Wu9gfEkr1Iqmmu5UKQvcJw&utm_campaign=yelp_api_v3&utm_medium=api_v3_business_search&utm_source=Wu9gfEkr1Iqmmu5UKQvcJw
pure-water-and-ice-cream-clovis-2,"['icecream', 'bubbletea', 'juicebars']","['Ice Cream & Frozen Yogurt', 'Bubble Tea', 'Juice Bars & Smoothies']",36.79433,-119.68101,(559) 346-1399,41330.71977392179,OR5ntCIJfyaKPXRJPcHztw,https://s3-media1.fl.yelpcdn.com/bphoto/ZRDlD5jSK3ZIxvYAeGiKlA/o.jpg,1835 Ashlan Ave,Ste 103A,,Clovis,US,CA,93611,Pure Water & Ice Cream,+15593461399,$$,4.0,18,[],https://www.yelp.com/biz/pure-water-and-ice-cream-clovis-2?adjust_creative=Wu9gfEkr1Iqmmu5UKQvcJw&utm_campaign=yelp_api_v3&utm_medium=api_v3_business_search&utm_source=Wu9gfEkr1Iqmmu5UKQvcJw
which-wich-clovis-2,['sandwiches'],['Sandwiches'],36.8074084950424,-119.693597895107,(559) 424-0098,43129.66758906943,tNwFzq_XV2K90uGmerNK3w,https://s3-media4.fl.yelpcdn.com/bphoto/pTrzqG0FqOocukxUOsTqkg/o.jpg,1220 Shaw Ave,Ste 105,,Clovis,US,CA,93612,Which Wich,+15594240098,$,4.0,117,"['delivery', 'pickup']",https://www.yelp.com/biz/which-wich-clovis-2?adjust_creative=Wu9gfEkr1Iqmmu5UKQvcJw&utm_campaign=yelp_api_v3&utm_medium=api_v3_business_search&utm_source=Wu9gfEkr1Iqmmu5UKQvcJw
lao-thai-restaurant-fresno,"['thai', 'laotian']","['Thai', 'Laotian']",36.7361285693182,-119.730996638762,(559) 251-2800,41048.3467415835,Tka7z2BD4TjLz9lEcNyjdg,https://s3-media2.fl.yelpcdn.com/bphoto/ZzE2Qt6V5K-k1F8_y2T7-Q/o.jpg,4937 E Kings Canyon Rd,,,Fresno,US,CA,93727,Lao-Thai Restaurant,+15592512800,$,4.0,146,[],https://www.yelp.com/biz/lao-thai-restaurant-fresno?adjust_creative=Wu9gfEkr1Iqmmu5UKQvcJw&utm_campaign=yelp_api_v3&utm_medium=api_v3_business_search&utm_source=Wu9gfEkr1Iqmmu5UKQvcJw
bowlzeye-clovis,['asianfusion'],['Asian Fusion'],36.823364,-119.708427,(559) 298-3986,45303.027078458996,Ddx7GmwmQYsRO_pprKXbng,https://s3-media3.fl.yelpcdn.com/bphoto/QrccQopFwFVW7pdn5glPPQ/o.jpg,75 Bullard Ave,Ste 102,,Clovis,US,CA,93612,Bowlzeye,+15592983986,$,4.5,186,[],https://www.yelp.com/biz/bowlzeye-clovis?adjust_creative=Wu9gfEkr1Iqmmu5UKQvcJw&utm_campaign=yelp_api_v3&utm_medium=api_v3_business_search&utm_source=Wu9gfEkr1Iqmmu5UKQvcJw
pearl-tea-house-fresno,"['tea', 'bubbletea', 'juicebars']","['Tea Rooms', 'Bubble Tea', 'Juice Bars & Smoothies']",36.8079387754946,-119.740325713783,(559) 291-1899,46322.91219565826,teIsHtCpNPoBtqiPcaQADQ,https://s3-media3.fl.yelpcdn.com/bphoto/QtbB2VAh3-Aw-q2ru75aRg/o.jpg,2633 E Shaw Ave,Ste 107,,Fresno,US,CA,93710,Pearl Tea House,+15592911899,$,3.5,200,[],https://www.yelp.com/biz/pearl-tea-house-fresno?adjust_creative=Wu9gfEkr1Iqmmu5UKQvcJw&utm_campaign=yelp_api_v3&utm_medium=api_v3_business_search&utm_source=Wu9gfEkr1Iqmmu5UKQvcJw
boba-cafe-fresno-2,['asianfusion'],['Asian Fusion'],36.7371957512638,-119.730633968089,(559) 252-5829,41082.005180865344,G7EhBNNZ1qaXWc8v1EslqQ,https://s3-media3.fl.yelpcdn.com/bphoto/xkYAMwqObgtl0MwoMj_bFg/o.jpg,4917 E Kings Canyon Rd,,,Fresno,US,CA,93727,Boba Cafe,+15592525829,$,3.5,22,[],https://www.yelp.com/biz/boba-cafe-fresno-2?adjust_creative=Wu9gfEkr1Iqmmu5UKQvcJw&utm_campaign=yelp_api_v3&utm_medium=api_v3_business_search&utm_source=Wu9gfEkr1Iqmmu5UKQvcJw
mamas-asian-noodle-house-fresno,"['laotian', 'thai', 'noodles']","['Laotian', 'Thai', 'Noodles']",36.7658877026041,-119.737051978247,(559) 293-3959,43292.15924250063,j8NNSMbL6GX_77kg-5Q54Q,https://s3-media3.fl.yelpcdn.com/bphoto/uR5RXxkeUcFH4IfTIeXQSQ/o.jpg,4787 E McKinley Ave,,,Fresno,US,CA,93703,Mamas Asian Noodle House,+15592933959,$,4.0,316,[],https://www.yelp.com/biz/mamas-asian-noodle-house-fresno?adjust_creative=Wu9gfEkr1Iqmmu5UKQvcJw&utm_campaign=yelp_api_v3&utm_medium=api_v3_business_search&utm_source=Wu9gfEkr1Iqmmu5UKQvcJw
four-seasons-chinese-restaurant-clovis,"['dimsum', 'cantonese']","['Dim Sum', 'Cantonese']",36.836089,-119.700546,(559) 324-8438,45778.90248852247,hMfucHIOMz9zKqtRvU_TmQ,https://s3-media2.fl.yelpcdn.com/bphoto/9pT34Z60OHOV2H3XVQrxDg/o.jpg,342 N Clovis Ave,,,Clovis,US,CA,93612,Four Seasons Chinese Restaurant,+15593248438,$$,3.5,353,[],https://www.yelp.com/biz/four-seasons-chinese-restaurant-clovis?adjust_creative=Wu9gfEkr1Iqmmu5UKQvcJw&utm_campaign=yelp_api_v3&utm_medium=api_v3_business_search&utm_source=Wu9gfEkr1Iqmmu5UKQvcJw
super-buffet-hanford,"['chinese', 'buffets']","['Chinese', 'Buffets']",36.325229634993,-119.67414957784,(559) 583-9888,38810.479681043515,JTCSIkWzKgYxQKdjeiBtJQ,https://s3-media2.fl.yelpcdn.com/bphoto/pafSsc8IBLpal7plGkDeYQ/o.jpg,208 N 12th Ave,Ste 101,,Hanford,US,CA,93230,Super Buffet,+15595839888,$$,2.0,65,[],https://www.yelp.com/biz/super-buffet-hanford?adjust_creative=Wu9gfEkr1Iqmmu5UKQvcJw&utm_campaign=yelp_api_v3&utm_medium=api_v3_business_search&utm_source=Wu9gfEkr1Iqmmu5UKQvcJw
