alias,categories_alias,categories_title,coordinates_latitude,coordinates_longitude,display_phone,distance,id,image_url,location_address1,location_address2,location_address3,location_city,location_country,location_state,location_zip_code,name,phone,price,rating,review_count,transactions,url
pho-truc-xanh-escondido,"['vietnamese', 'chinese']","['Vietnamese', 'Chinese']",33.127895,-117.091797,(760) 489-8201,11247.823382135864,R0Zgcp0PZfOaXh-PEa9Mng,https://s3-media3.fl.yelpcdn.com/bphoto/c6UFjfcuUIGzpvzkItBotQ/o.jpg,503 W Mission Ave,,,Escondido,US,CA,92025,Pho Truc Xanh,+17604898201,$,4.5,1011,[],https://www.yelp.com/biz/pho-truc-xanh-escondido?adjust_creative=Wu9gfEkr1Iqmmu5UKQvcJw&utm_campaign=yelp_api_v3&utm_medium=api_v3_business_search&utm_source=Wu9gfEkr1Iqmmu5UKQvcJw
pho-saigon-express-escondido,"['vietnamese', 'chinese', 'vegetarian']","['Vietnamese', 'Chinese', 'Vegetarian']",33.126807,-117.084974,(760) 746-4669,11529.883011236734,1ZflRsr-3BuNgQel1GHCQQ,https://s3-media1.fl.yelpcdn.com/bphoto/gBLX--Q607TSLMtCef5Ong/o.jpg,605 N Broadway,,,Escondido,US,CA,92025,Pho Saigon Express,+17607464669,$,4.5,708,['pickup'],https://www.yelp.com/biz/pho-saigon-express-escondido?adjust_creative=Wu9gfEkr1Iqmmu5UKQvcJw&utm_campaign=yelp_api_v3&utm_medium=api_v3_business_search&utm_source=Wu9gfEkr1Iqmmu5UKQvcJw
pho-ever-vista-4,['vietnamese'],['Vietnamese'],33.188533782959,-117.254333496094,(760) 630-3837,13221.587732543037,wUJnAuPUjwOK-9gnhdK_nw,https://s3-media4.fl.yelpcdn.com/bphoto/6_0pLGUEThdzzAYUfXqexg/o.jpg,485 S Melrose Dr,Ste 106,,Vista,US,CA,92081,Pho-Ever,+17606303837,$,4.0,753,[],https://www.yelp.com/biz/pho-ever-vista-4?adjust_creative=Wu9gfEkr1Iqmmu5UKQvcJw&utm_campaign=yelp_api_v3&utm_medium=api_v3_business_search&utm_source=Wu9gfEkr1Iqmmu5UKQvcJw
pho-lee-escondido,['vietnamese'],['Vietnamese'],33.1353052485344,-117.057518509337,(760) 737-9988,11661.203878283131,aD9nPz6Bh_se4oAKGNQgOw,https://s3-media3.fl.yelpcdn.com/bphoto/Ufokb59AsNva5PwCmR3LPw/o.jpg,1700 E Valley Pkwy,,,Escondido,US,CA,92027,Pho Lee,+17607379988,$,4.5,174,"['pickup', 'delivery']",https://www.yelp.com/biz/pho-lee-escondido?adjust_creative=Wu9gfEkr1Iqmmu5UKQvcJw&utm_campaign=yelp_api_v3&utm_medium=api_v3_business_search&utm_source=Wu9gfEkr1Iqmmu5UKQvcJw
pho-ha-1-temecula-2,['vietnamese'],['Vietnamese'],33.506326,-117.146745,(951) 506-0862,31235.03020899996,mR66uHoU47NQ8pV_N6mFtg,https://s3-media4.fl.yelpcdn.com/bphoto/lfDZm3yHkGcpIjltigJLLg/o.jpg,27536 Ynez Rd,Ste F23,,Temecula,US,CA,92591,Pho Ha #1,+19515060862,$,4.0,405,[],https://www.yelp.com/biz/pho-ha-1-temecula-2?adjust_creative=Wu9gfEkr1Iqmmu5UKQvcJw&utm_campaign=yelp_api_v3&utm_medium=api_v3_business_search&utm_source=Wu9gfEkr1Iqmmu5UKQvcJw
pho-kitchen-oceanside-2,['vietnamese'],['Vietnamese'],33.2058763612272,-117.28825673461,(760) 295-5445,15839.643614769366,PmKT6_qos-hcis5IL89X3A,https://s3-media1.fl.yelpcdn.com/bphoto/t5N0Gv3slh2J038yTRFjKw/o.jpg,4121 Oceanside Blvd,,,Oceanside,US,CA,92056,Pho Kitchen,+17602955445,$$,4.5,348,[],https://www.yelp.com/biz/pho-kitchen-oceanside-2?adjust_creative=Wu9gfEkr1Iqmmu5UKQvcJw&utm_campaign=yelp_api_v3&utm_medium=api_v3_business_search&utm_source=Wu9gfEkr1Iqmmu5UKQvcJw
son-tra-sandwiches-escondido-2,"['sandwiches', 'vietnamese', 'noodles']","['Sandwiches', 'Vietnamese', 'Noodles']",33.12868,-117.0717,(760) 294-6995,11742.870291681547,0PJ6xIShOaj1erA43l_gfw,https://s3-media1.fl.yelpcdn.com/bphoto/LR2CYCMsocC71_v58s6AOg/o.jpg,840 E Valley Pkwy,,,Escondido,US,CA,92025,Son Tra Sandwiches,+17602946995,$,4.5,89,[],https://www.yelp.com/biz/son-tra-sandwiches-escondido-2?adjust_creative=Wu9gfEkr1Iqmmu5UKQvcJw&utm_campaign=yelp_api_v3&utm_medium=api_v3_business_search&utm_source=Wu9gfEkr1Iqmmu5UKQvcJw
tasty-pho-vista,"['vietnamese', 'asianfusion']","['Vietnamese', 'Asian Fusion']",33.1866226196289,-117.224250793457,(760) 631-5900,10670.133592437549,WWjIcLS6-q5g9ceS_YRuvw,https://s3-media2.fl.yelpcdn.com/bphoto/sSgF4FbFnmYDohBfv_T_lg/o.jpg,1250 S Santa Fe Ave,Ste K,,Vista,US,CA,92084,Tasty Pho,+17606315900,$,4.5,161,[],https://www.yelp.com/biz/tasty-pho-vista?adjust_creative=Wu9gfEkr1Iqmmu5UKQvcJw&utm_campaign=yelp_api_v3&utm_medium=api_v3_business_search&utm_source=Wu9gfEkr1Iqmmu5UKQvcJw
pho-4-queen-san-marcos,"['vietnamese', 'chinese', 'soup']","['Vietnamese', 'Chinese', 'Soup']",33.1471976,-117.1995141,(760) 471-2572,11517.415943836773,wGJJi6enDpzj1WzVsmhrug,https://s3-media3.fl.yelpcdn.com/bphoto/hvYgne1ht21MR6HSy1VSYA/o.jpg,159 S Rancho Santa Fe Rd,,,San Marcos,US,CA,92078,Pho 4 Queen,+17604712572,$,4.0,194,['pickup'],https://www.yelp.com/biz/pho-4-queen-san-marcos?adjust_creative=Wu9gfEkr1Iqmmu5UKQvcJw&utm_campaign=yelp_api_v3&utm_medium=api_v3_business_search&utm_source=Wu9gfEkr1Iqmmu5UKQvcJw
chefs-pho-and-grill-san-marcos,"['vietnamese', 'soup']","['Vietnamese', 'Soup']",33.1292519178723,-117.165098078549,(760) 744-6789,11590.102122763607,Bjb3E8L8qAcD6SKR2yyxHg,https://s3-media3.fl.yelpcdn.com/bphoto/QOY8OreLPyUefjiQS1e7RQ/o.jpg,324 S Twin Oaks Valley Rd,Ste 130,,San Marcos,US,CA,92078,Chef's Pho & Grill,+17607446789,$$,4.0,295,[],https://www.yelp.com/biz/chefs-pho-and-grill-san-marcos?adjust_creative=Wu9gfEkr1Iqmmu5UKQvcJw&utm_campaign=yelp_api_v3&utm_medium=api_v3_business_search&utm_source=Wu9gfEkr1Iqmmu5UKQvcJw
pho-oceanside-oceanside,['vietnamese'],['Vietnamese'],33.1843375867943,-117.369014641,(760) 754-2828,23656.39420626067,7m_Vve98CiTJqrqVe7Nu0A,https://s3-media2.fl.yelpcdn.com/bphoto/d4Rl0ULDmmHYrx6iOCMJsw/o.jpg,518 Oceanside Blvd,Ste 107-110,,Oceanside,US,CA,92054,Pho Oceanside,+17607542828,$,4.0,536,[],https://www.yelp.com/biz/pho-oceanside-oceanside?adjust_creative=Wu9gfEkr1Iqmmu5UKQvcJw&utm_campaign=yelp_api_v3&utm_medium=api_v3_business_search&utm_source=Wu9gfEkr1Iqmmu5UKQvcJw
pho-house-oceanside,['vietnamese'],['Vietnamese'],33.22436,-117.33183,(760) 754-9999,19713.29176219885,7hY5OuVIkJQMoYPdIN-frQ,https://s3-media3.fl.yelpcdn.com/bphoto/RWrkTtxHz0eIGpBtbrgvhg/o.jpg,3753 MIssion Ave,Ste 120,,Oceanside,US,CA,92058,Pho House,+17607549999,$,4.5,440,[],https://www.yelp.com/biz/pho-house-oceanside?adjust_creative=Wu9gfEkr1Iqmmu5UKQvcJw&utm_campaign=yelp_api_v3&utm_medium=api_v3_business_search&utm_source=Wu9gfEkr1Iqmmu5UKQvcJw
pho-lena-and-grill-escondido,['vietnamese'],['Vietnamese'],33.132712,-117.059096,(760) 745-3915,11817.551540108705,zZT3BXSHpcRks5d74cQgaw,https://s3-media1.fl.yelpcdn.com/bphoto/LuEbP5VOZ2kuH8ATCekZSg/o.jpg,1535 E Valley Pkwy,Ste 102,,Escondido,US,CA,92027,Pho Lena & Grill,+17607453915,$,4.0,148,[],https://www.yelp.com/biz/pho-lena-and-grill-escondido?adjust_creative=Wu9gfEkr1Iqmmu5UKQvcJw&utm_campaign=yelp_api_v3&utm_medium=api_v3_business_search&utm_source=Wu9gfEkr1Iqmmu5UKQvcJw
pho-guys-vista,"['vietnamese', 'noodles', 'soup']","['Vietnamese', 'Noodles', 'Soup']",33.1862970543714,-117.281164032102,(760) 560-7257,15663.218434012537,Oeh6x7EZJWw7dpezf1tEOg,https://s3-media2.fl.yelpcdn.com/bphoto/XL94utqXIeuineW-QtHbEA/o.jpg,1876 Hacienda Dr,,,Vista,US,CA,92081,Pho Guys,+17605607257,$,5.0,394,"['pickup', 'delivery']",https://www.yelp.com/biz/pho-guys-vista?adjust_creative=Wu9gfEkr1Iqmmu5UKQvcJw&utm_campaign=yelp_api_v3&utm_medium=api_v3_business_search&utm_source=Wu9gfEkr1Iqmmu5UKQvcJw
nd-banh-mi-oceanside-2,"['bubbletea', 'bakeries', 'vietnamese']","['Bubble Tea', 'Bakeries', 'Vietnamese']",33.2078605151782,-117.286571636796,(760) 726-4650,15653.882780433089,2Mwu0pGf7MXCJPHz4SsAAQ,https://s3-media2.fl.yelpcdn.com/bphoto/iW10cNe9Qgq-iRSM1mAojA/o.jpg,4160 Oceanside Blvd,Ste 169,,Oceanside,US,CA,92056,ND Banh Mi,+17607264650,$,4.5,297,[],https://www.yelp.com/biz/nd-banh-mi-oceanside-2?adjust_creative=Wu9gfEkr1Iqmmu5UKQvcJw&utm_campaign=yelp_api_v3&utm_medium=api_v3_business_search&utm_source=Wu9gfEkr1Iqmmu5UKQvcJw
le-bambou-del-mar-2,"['vietnamese', 'seafood', 'asianfusion']","['Vietnamese', 'Seafood', 'Asian Fusion']",32.9511390334504,-117.246069112845,(858) 259-8138,32784.50406696492,VmRgFAKK2O6-usofDrP1yw,https://s3-media4.fl.yelpcdn.com/bphoto/nzDawEJ7d_-V0FeouquAPg/o.jpg,2634 Del Mar Heights Rd,,,Del Mar,US,CA,92014,Le Bambou,+18582598138,$$,4.0,172,"['pickup', 'delivery']",https://www.yelp.com/biz/le-bambou-del-mar-2?adjust_creative=Wu9gfEkr1Iqmmu5UKQvcJw&utm_campaign=yelp_api_v3&utm_medium=api_v3_business_search&utm_source=Wu9gfEkr1Iqmmu5UKQvcJw
banh-mi-san-marcos-san-marcos-2,"['vietnamese', 'sandwiches', 'soup']","['Vietnamese', 'Sandwiches', 'Soup']",33.1328075623869,-117.207942008972,(760) 599-0177,13247.783680806033,OL3IptoQz-ONWsUFzVAZJw,https://s3-media3.fl.yelpcdn.com/bphoto/BPHgA-ZAIivTsP8zrbroBg/o.jpg,706 S Rancho Santa Fe Rd,,,San Marcos,US,CA,92078,Banh Mi San Marcos,+17605990177,$,4.0,325,[],https://www.yelp.com/biz/banh-mi-san-marcos-san-marcos-2?adjust_creative=Wu9gfEkr1Iqmmu5UKQvcJw&utm_campaign=yelp_api_v3&utm_medium=api_v3_business_search&utm_source=Wu9gfEkr1Iqmmu5UKQvcJw
saigon-noodle-house-temecula,"['vietnamese', 'noodles']","['Vietnamese', 'Noodles']",33.517569,-117.162121,(951) 693-1691,32622.567410830397,8YZCyLZKhfxl_YMlom6YSQ,https://s3-media2.fl.yelpcdn.com/bphoto/urxrhdxil--utoCBQ9LLsg/o.jpg,27523 Jefferson Ave,,,Temecula,US,CA,92590,Saigon Noodle House,+19516931691,$,4.0,136,[],https://www.yelp.com/biz/saigon-noodle-house-temecula?adjust_creative=Wu9gfEkr1Iqmmu5UKQvcJw&utm_campaign=yelp_api_v3&utm_medium=api_v3_business_search&utm_source=Wu9gfEkr1Iqmmu5UKQvcJw
pho-lucky-vista,['vietnamese'],['Vietnamese'],33.163441125254,-117.219588403705,(760) 727-2738,11627.503875201239,c_LAUYCPgt9J62EH69E26g,https://s3-media2.fl.yelpcdn.com/bphoto/2xD6sohoUyYFMALLdAfzvQ/o.jpg,770 Sycamore Ave,,,Vista,US,CA,92083,Pho Lucky,+17607272738,$,4.0,335,"['pickup', 'delivery']",https://www.yelp.com/biz/pho-lucky-vista?adjust_creative=Wu9gfEkr1Iqmmu5UKQvcJw&utm_campaign=yelp_api_v3&utm_medium=api_v3_business_search&utm_source=Wu9gfEkr1Iqmmu5UKQvcJw
pho-ca-dao-and-grill-san-diego-2,"['vietnamese', 'comfortfood']","['Vietnamese', 'Comfort Food']",33.023185162219,-117.07648650917,(858) 451-8820,22944.972503164034,C-4zMalSJQDohK6_CXa8cQ,https://s3-media2.fl.yelpcdn.com/bphoto/wnepy6OpzMT65EK57KQKqA/o.jpg,11808 Rancho Bernardo Rd,Ste 100,,San Diego,US,CA,92128,Pho Ca Dao & Grill,+18584518820,$,4.0,1070,[],https://www.yelp.com/biz/pho-ca-dao-and-grill-san-diego-2?adjust_creative=Wu9gfEkr1Iqmmu5UKQvcJw&utm_campaign=yelp_api_v3&utm_medium=api_v3_business_search&utm_source=Wu9gfEkr1Iqmmu5UKQvcJw
pho-mai-vietnamese-gourmet-temecula,['vietnamese'],['Vietnamese'],33.5206255316734,-117.1567748487,(951) 296-1880,33049.250821365626,FQ031MYYd1G3tPQoN9u45g,https://s3-media3.fl.yelpcdn.com/bphoto/CUIt0CLUrzi483igrgNgCQ/o.jpg,26487 Ynez Rd,Ste H,,Temecula,US,CA,92591,Pho Mai Vietnamese Gourmet,+19512961880,$,4.0,243,[],https://www.yelp.com/biz/pho-mai-vietnamese-gourmet-temecula?adjust_creative=Wu9gfEkr1Iqmmu5UKQvcJw&utm_campaign=yelp_api_v3&utm_medium=api_v3_business_search&utm_source=Wu9gfEkr1Iqmmu5UKQvcJw
pho-ha-grill-and-bar-oceanside-2,['vietnamese'],['Vietnamese'],33.22759,-117.32499,(760) 754-5267,19159.41089452961,qKLDcYOdFvcL2bAFt3Rduw,https://s3-media3.fl.yelpcdn.com/bphoto/fRajanCH9sw_raTWxoBuzQ/o.jpg,3905 Mission Ave,,,Oceanside,US,CA,92058,Pho Ha Grill & Bar,+17607545267,,4.0,153,[],https://www.yelp.com/biz/pho-ha-grill-and-bar-oceanside-2?adjust_creative=Wu9gfEkr1Iqmmu5UKQvcJw&utm_campaign=yelp_api_v3&utm_medium=api_v3_business_search&utm_source=Wu9gfEkr1Iqmmu5UKQvcJw
mr-pho-oceanside,['vietnamese'],['Vietnamese'],33.2167206,-117.2717285,(760) 940-1306,14193.533951913521,t6u3bXS9Vj8TmVTur6OblQ,https://s3-media4.fl.yelpcdn.com/bphoto/PWB5tw5yqJapoI5HCUFAKw/o.jpg,4750 Oceanside Blvd,,,Oceanside,US,CA,92056,Mr Pho,+17609401306,$,4.0,301,[],https://www.yelp.com/biz/mr-pho-oceanside?adjust_creative=Wu9gfEkr1Iqmmu5UKQvcJw&utm_campaign=yelp_api_v3&utm_medium=api_v3_business_search&utm_source=Wu9gfEkr1Iqmmu5UKQvcJw
pho-time-san-marcos-3,['vietnamese'],['Vietnamese'],33.13718,-117.1306,(760) 796-4842,9955.674617811559,uFInrLxUkNz6hC4KqYw6Nw,https://s3-media2.fl.yelpcdn.com/bphoto/3lQWFj0pkdtiPm31_SHAXg/o.jpg,1252 E Mission Rd,,,San Marcos,US,CA,92069,Pho Time,+17607964842,$,4.5,50,"['pickup', 'delivery']",https://www.yelp.com/biz/pho-time-san-marcos-3?adjust_creative=Wu9gfEkr1Iqmmu5UKQvcJw&utm_campaign=yelp_api_v3&utm_medium=api_v3_business_search&utm_source=Wu9gfEkr1Iqmmu5UKQvcJw
pho-ever-encinitas,['vietnamese'],['Vietnamese'],33.047187,-117.260351,(760) 436-6000,23836.422650232234,5p0Wo1Af2EnQOkkDSbrP_w,https://s3-media2.fl.yelpcdn.com/bphoto/Rqll9LOS5c8c5TbZ35ycpA/o.jpg,120 N El Camino Real,,,Encinitas,US,CA,92024,Pho-Ever,+17604366000,$$,3.5,473,[],https://www.yelp.com/biz/pho-ever-encinitas?adjust_creative=Wu9gfEkr1Iqmmu5UKQvcJw&utm_campaign=yelp_api_v3&utm_medium=api_v3_business_search&utm_source=Wu9gfEkr1Iqmmu5UKQvcJw
pho-bowl-and-grill-oceanside,"['vietnamese', 'vegetarian']","['Vietnamese', 'Vegetarian']",33.1997799,-117.37539,(760) 453-2999,24033.657898138106,HTHCPCLeQnOhszY_5PV_XA,https://s3-media3.fl.yelpcdn.com/bphoto/rDNwCnhr3JKcGJR65u2Npg/o.jpg,1006 Mission Ave,Ste C,,Oceanside,US,CA,92054,Pho Bowl & Grill,+17604532999,,4.0,42,"['pickup', 'delivery']",https://www.yelp.com/biz/pho-bowl-and-grill-oceanside?adjust_creative=Wu9gfEkr1Iqmmu5UKQvcJw&utm_campaign=yelp_api_v3&utm_medium=api_v3_business_search&utm_source=Wu9gfEkr1Iqmmu5UKQvcJw
phonomenon-temecula,"['vietnamese', 'vegetarian', 'bars']","['Vietnamese', 'Vegetarian', 'Bars']",33.5196623219029,-117.153456285596,(951) 676-9999,32767.023005076026,5L_0Rg6PqE4BYYb9U4vnKQ,https://s3-media1.fl.yelpcdn.com/bphoto/4Ed6YCJg3UB83kD9ND6JRw/o.jpg,41797 Nicole Ln,,,Temecula,US,CA,92591,Phonomenon,+19516769999,$,3.5,394,['pickup'],https://www.yelp.com/biz/phonomenon-temecula?adjust_creative=Wu9gfEkr1Iqmmu5UKQvcJw&utm_campaign=yelp_api_v3&utm_medium=api_v3_business_search&utm_source=Wu9gfEkr1Iqmmu5UKQvcJw
kims-vietnamese-encinitas-2,['vietnamese'],['Vietnamese'],33.0425995,-117.2930807,(760) 942-4816,26035.554196355748,hVw-g482Eze395Yb3Oie3w,https://s3-media4.fl.yelpcdn.com/bphoto/QAEpFgz5kqODeF3qykOYgg/o.jpg,745 S Coast Hwy 101,,Ste J 103,Encinitas,US,CA,92024,Kim's Vietnamese,+17609424816,$$,4.0,180,[],https://www.yelp.com/biz/kims-vietnamese-encinitas-2?adjust_creative=Wu9gfEkr1Iqmmu5UKQvcJw&utm_campaign=yelp_api_v3&utm_medium=api_v3_business_search&utm_source=Wu9gfEkr1Iqmmu5UKQvcJw
golden-bowl-temecula,"['vietnamese', 'thai']","['Vietnamese', 'Thai']",33.47495,-117.1212,(951) 303-2835,27658.64923798389,nJnFc04CbUaEzctWW-Yh7A,https://s3-media1.fl.yelpcdn.com/bphoto/TiXFutEJntZrV3sH8ir58w/o.jpg,31069 Temecula Pkwy,,,Temecula,US,CA,92592,Golden Bowl,+19513032835,$$,4.0,232,['pickup'],https://www.yelp.com/biz/golden-bowl-temecula?adjust_creative=Wu9gfEkr1Iqmmu5UKQvcJw&utm_campaign=yelp_api_v3&utm_medium=api_v3_business_search&utm_source=Wu9gfEkr1Iqmmu5UKQvcJw
pho-hoàng-express-san-diego-2,['vietnamese'],['Vietnamese'],33.0119286,-117.0782166,(858) 613-7777,24133.19348945317,yJbohYk4010LPtSZFbIZhA,https://s3-media3.fl.yelpcdn.com/bphoto/YUJUTPgaVGJJW4Onsy2zcA/o.jpg,16425 Bernardo Ctr Dr,,,San Diego,US,CA,92128,Pho Hoàng Express,+18586137777,$,4.0,365,[],https://www.yelp.com/biz/pho-ho%C3%A0ng-express-san-diego-2?adjust_creative=Wu9gfEkr1Iqmmu5UKQvcJw&utm_campaign=yelp_api_v3&utm_medium=api_v3_business_search&utm_source=Wu9gfEkr1Iqmmu5UKQvcJw
pho-kitchen-san-diego-7,['vietnamese'],['Vietnamese'],32.90623,-117.17257,(858) 246-6545,35959.66700363844,_EFLbfSqckndpy8e8jDrRg,https://s3-media1.fl.yelpcdn.com/bphoto/ltWCKcaPtV8uk5UgDlde6w/o.jpg,6755 Mira Mesa Blvd,Ste 144,,San Diego,US,CA,92121,Pho Kitchen,+18582466545,,4.5,117,[],https://www.yelp.com/biz/pho-kitchen-san-diego-7?adjust_creative=Wu9gfEkr1Iqmmu5UKQvcJw&utm_campaign=yelp_api_v3&utm_medium=api_v3_business_search&utm_source=Wu9gfEkr1Iqmmu5UKQvcJw
i-love-pho-oceanside,['vietnamese'],['Vietnamese'],33.181416,-117.293098,(760) 630-8889,16888.18141952509,-JYENhetvaP0bS0-4LmIyQ,https://s3-media4.fl.yelpcdn.com/bphoto/C-ltUEUZ1JMIpTFNqJsyQA/o.jpg,3809 Plaza Dr,,,Oceanside,US,CA,92056,I Love Pho,+17606308889,$,3.5,337,[],https://www.yelp.com/biz/i-love-pho-oceanside?adjust_creative=Wu9gfEkr1Iqmmu5UKQvcJw&utm_campaign=yelp_api_v3&utm_medium=api_v3_business_search&utm_source=Wu9gfEkr1Iqmmu5UKQvcJw
yummy-pho-oceanside,['vietnamese'],['Vietnamese'],33.207439,-117.2833753,(760) 631-1800,15388.083144356124,YA9ZXK3bKU5ouA7tLRpAnQ,https://s3-media2.fl.yelpcdn.com/bphoto/JJbawnSa63JOABZjeRiiHQ/o.jpg,4225 Oceanside Blvd,Ste W,,Oceanside,US,CA,92056,Yummy Pho,+17606311800,$,4.0,312,[],https://www.yelp.com/biz/yummy-pho-oceanside?adjust_creative=Wu9gfEkr1Iqmmu5UKQvcJw&utm_campaign=yelp_api_v3&utm_medium=api_v3_business_search&utm_source=Wu9gfEkr1Iqmmu5UKQvcJw
bolsa-vietnamese-restaurant-san-diego-2,['vietnamese'],['Vietnamese'],32.91672,-117.1259,(858) 693-3663,34454.19882145979,pS3QMgUeJJAEScdtpkvYwQ,https://s3-media2.fl.yelpcdn.com/bphoto/NbtSeAzvfQZLrCLhEocWJg/o.jpg,9225 Mira Mesa Blvd,Ste 118,,San Diego,US,CA,92126,Bolsa Vietnamese Restaurant,+18586933663,$,4.0,276,[],https://www.yelp.com/biz/bolsa-vietnamese-restaurant-san-diego-2?adjust_creative=Wu9gfEkr1Iqmmu5UKQvcJw&utm_campaign=yelp_api_v3&utm_medium=api_v3_business_search&utm_source=Wu9gfEkr1Iqmmu5UKQvcJw
tim-ky-noodle-san-diego,"['vietnamese', 'chinese', 'noodles']","['Vietnamese', 'Chinese', 'Noodles']",32.918898,-117.123613,(858) 271-8887,34186.56342392648,xHC_I6WOxB6Og5IEFQIM4Q,https://s3-media4.fl.yelpcdn.com/bphoto/E9IOokkuLZu-ff5F77_vOA/o.jpg,9330 Mira Mesa Blvd,Ste A,,San Diego,US,CA,92126,Tim Ky Noodle,+18582718887,$,4.0,401,[],https://www.yelp.com/biz/tim-ky-noodle-san-diego?adjust_creative=Wu9gfEkr1Iqmmu5UKQvcJw&utm_campaign=yelp_api_v3&utm_medium=api_v3_business_search&utm_source=Wu9gfEkr1Iqmmu5UKQvcJw
birdseye-kitchen-encinitas,"['vietnamese', 'thai', 'asianfusion']","['Vietnamese', 'Thai', 'Asian Fusion']",33.0591018255092,-117.300049330005,(760) 479-0488,25051.030509977998,SDv30y573hEIby0MojH7cg,https://s3-media1.fl.yelpcdn.com/bphoto/cVy-x0Z7y7izRk3FJFFxLw/o.jpg,540 N Coast Hwy 101,,,Encinitas,US,CA,92024,Birdseye Kitchen,+17604790488,$$,4.0,387,[],https://www.yelp.com/biz/birdseye-kitchen-encinitas?adjust_creative=Wu9gfEkr1Iqmmu5UKQvcJw&utm_campaign=yelp_api_v3&utm_medium=api_v3_business_search&utm_source=Wu9gfEkr1Iqmmu5UKQvcJw
spicy-noodle-murrieta-3,"['thai', 'noodles', 'asianfusion']","['Thai', 'Noodles', 'Asian Fusion']",33.5508176,-117.1947052,(951) 677-7866,36746.456613457674,AWJIxnx_MYt9x9TJGtTIyg,https://s3-media4.fl.yelpcdn.com/bphoto/raLCto7Estrk9zMKtcnlzA/o.jpg,25395 Madison Ave,Ste 107,,Murrieta,US,CA,92562,Spicy Noodle,+19516777866,$$,4.0,1002,[],https://www.yelp.com/biz/spicy-noodle-murrieta-3?adjust_creative=Wu9gfEkr1Iqmmu5UKQvcJw&utm_campaign=yelp_api_v3&utm_medium=api_v3_business_search&utm_source=Wu9gfEkr1Iqmmu5UKQvcJw
pho-saigon-and-grill-san-diego,"['vietnamese', 'gluten_free']","['Vietnamese', 'Gluten-Free']",32.96009,-117.11187,(858) 538-1000,29569.135708830876,5r6D9waKp7UhvWsa44kG6w,https://s3-media2.fl.yelpcdn.com/bphoto/Nh4N485gMSMUykIw-UX8bw/o.jpg,9975 Carmel Mountain Rd,,,San Diego,US,CA,92129,Pho Saigon & Grill,+18585381000,$,4.0,393,[],https://www.yelp.com/biz/pho-saigon-and-grill-san-diego?adjust_creative=Wu9gfEkr1Iqmmu5UKQvcJw&utm_campaign=yelp_api_v3&utm_medium=api_v3_business_search&utm_source=Wu9gfEkr1Iqmmu5UKQvcJw
pho-san-marcos-san-marcos,['vietnamese'],['Vietnamese'],33.1328255311659,-117.207877635956,(760) 599-0973,13242.503614741898,AhZR7jf8J3-NDuP4f1HupQ,https://s3-media1.fl.yelpcdn.com/bphoto/ckxL-9slBDsWFNI2VRA_4g/o.jpg,700 S Rancho Santa Fe Rd,,,San Marcos,US,CA,92078,Pho San Marcos,+17605990973,$,3.5,322,[],https://www.yelp.com/biz/pho-san-marcos-san-marcos?adjust_creative=Wu9gfEkr1Iqmmu5UKQvcJw&utm_campaign=yelp_api_v3&utm_medium=api_v3_business_search&utm_source=Wu9gfEkr1Iqmmu5UKQvcJw
shallot-asian-cuisine-san-diego-2,"['vietnamese', 'vegetarian']","['Vietnamese', 'Vegetarian']",32.8910053,-117.2017326,(858) 625-0480,38060.89929312845,Zzr4-A8jRd5PLLp3clOj9A,https://s3-media3.fl.yelpcdn.com/bphoto/wv_z6YRXS5aOXCmNZPKQuw/o.jpg,9254 Scranton Rd,Ste 106,,San Diego,US,CA,92121,Shallot Asian Cuisine,+18586250480,$,4.0,300,['delivery'],https://www.yelp.com/biz/shallot-asian-cuisine-san-diego-2?adjust_creative=Wu9gfEkr1Iqmmu5UKQvcJw&utm_campaign=yelp_api_v3&utm_medium=api_v3_business_search&utm_source=Wu9gfEkr1Iqmmu5UKQvcJw
pho-poway-noodle-house-poway,"['vietnamese', 'noodles', 'chicken_wings']","['Vietnamese', 'Noodles', 'Chicken Wings']",32.952336,-117.065359,(858) 486-6300,30885.054232968298,jwoGuqLcRnJK14z-yHGTIQ,https://s3-media3.fl.yelpcdn.com/bphoto/vlvmXZDXLWg-lNvpXi2gvw/o.jpg,12316 Poway Rd,,,Poway,US,CA,92064,Pho Poway Noodle House,+18584866300,$$,3.5,211,"['pickup', 'delivery']",https://www.yelp.com/biz/pho-poway-noodle-house-poway?adjust_creative=Wu9gfEkr1Iqmmu5UKQvcJw&utm_campaign=yelp_api_v3&utm_medium=api_v3_business_search&utm_source=Wu9gfEkr1Iqmmu5UKQvcJw
pho-ban-mai-san-diego,['vietnamese'],['Vietnamese'],32.91458,-117.13031,(858) 271-7199,34691.23212010541,0ZKq2w1vwmXHyw5W9u8KBA,https://s3-media4.fl.yelpcdn.com/bphoto/LXWkFdBrbq4ydxXD1nYCdw/o.jpg,8991 Mira Mesa Blvd,,,San Diego,US,CA,92126,Pho Ban Mai,+18582717199,$,3.5,646,[],https://www.yelp.com/biz/pho-ban-mai-san-diego?adjust_creative=Wu9gfEkr1Iqmmu5UKQvcJw&utm_campaign=yelp_api_v3&utm_medium=api_v3_business_search&utm_source=Wu9gfEkr1Iqmmu5UKQvcJw
pho-house-and-grill-carlsbad-2,['vietnamese'],['Vietnamese'],33.13105,-117.26056,(760) 814-2711,16843.495949011154,E_7aL7hgLrR9YhMUDv-JjQ,https://s3-media3.fl.yelpcdn.com/bphoto/jlSgGZGPhPthJBD2RsGEDA/o.jpg,2708 Loker Ave W,Ste B107,,Carlsbad,US,CA,92010,Pho House & Grill,+17608142711,$,3.5,89,[],https://www.yelp.com/biz/pho-house-and-grill-carlsbad-2?adjust_creative=Wu9gfEkr1Iqmmu5UKQvcJw&utm_campaign=yelp_api_v3&utm_medium=api_v3_business_search&utm_source=Wu9gfEkr1Iqmmu5UKQvcJw
pho-ca-dao-san-diego,['vietnamese'],['Vietnamese'],32.9124644314834,-117.143097929657,(858) 564-0917,34967.789255703006,ODCswZHB0VDbzj0y6lK8RA,https://s3-media3.fl.yelpcdn.com/bphoto/7N-QnRuWQvqJRGFFmkXVDw/o.jpg,8373 Mira Mesa Blvd,,,San Diego,US,CA,92126,Pho Ca Dao,+18585640917,$,4.0,1729,[],https://www.yelp.com/biz/pho-ca-dao-san-diego?adjust_creative=Wu9gfEkr1Iqmmu5UKQvcJw&utm_campaign=yelp_api_v3&utm_medium=api_v3_business_search&utm_source=Wu9gfEkr1Iqmmu5UKQvcJw
bamboo-temecula,"['chinese', 'vietnamese', 'asianfusion']","['Chinese', 'Vietnamese', 'Asian Fusion']",33.455577,-117.1059,(951) 770-2969,25523.69800695574,aA_nXqLqN5Wdjt7al3q6xQ,https://s3-media3.fl.yelpcdn.com/bphoto/LPk1ckq1AftAPsN1RZRMhw/o.jpg,45000 Pechanga Pkwy,,,Temecula,US,CA,92592,Bamboo,+19517702969,$$,3.5,128,[],https://www.yelp.com/biz/bamboo-temecula?adjust_creative=Wu9gfEkr1Iqmmu5UKQvcJw&utm_campaign=yelp_api_v3&utm_medium=api_v3_business_search&utm_source=Wu9gfEkr1Iqmmu5UKQvcJw
pho-cow-cali-express-san-diego,['vietnamese'],['Vietnamese'],32.918305,-117.12633,(858) 271-8341,34256.093525931115,Y9A_at-A0byoOdhN8iBcrQ,https://s3-media4.fl.yelpcdn.com/bphoto/iA3fCGW1ERrXZRO2AuOGew/o.jpg,9170 Mira Mesa Blvd,,,San Diego,US,CA,92126,Pho Cow Cali Express,+18582718341,$,4.0,1243,[],https://www.yelp.com/biz/pho-cow-cali-express-san-diego?adjust_creative=Wu9gfEkr1Iqmmu5UKQvcJw&utm_campaign=yelp_api_v3&utm_medium=api_v3_business_search&utm_source=Wu9gfEkr1Iqmmu5UKQvcJw
delish-vietnamese-and-vegetarian-cuisine-temecula,['vietnamese'],['Vietnamese'],33.5259166014569,-117.149611003697,(951) 719-3949,33427.8336260093,UXpvjLtE8kmLbP5eIttD1Q,https://s3-media1.fl.yelpcdn.com/bphoto/RooYdl67_O-xRhRmJd0diA/o.jpg,40573 Margarita Rd,Ste D,,Temecula,US,CA,92591,Delish Vietnamese & Vegetarian Cuisine,+19517193949,$$,4.0,195,[],https://www.yelp.com/biz/delish-vietnamese-and-vegetarian-cuisine-temecula?adjust_creative=Wu9gfEkr1Iqmmu5UKQvcJw&utm_campaign=yelp_api_v3&utm_medium=api_v3_business_search&utm_source=Wu9gfEkr1Iqmmu5UKQvcJw
pho-lucky-san-diego,['vietnamese'],['Vietnamese'],32.9188420149649,-117.12435977597,(858) 586-7979,34193.591444731544,7B-562N30cOdleyTo3ClHQ,https://s3-media4.fl.yelpcdn.com/bphoto/C_sZYyj4TaWlrW_uYj3T6Q/o.jpg,9326 Mira Mesa Blvd,,Lucky Seafood,San Diego,US,CA,92126,Pho Lucky,+18585867979,$,4.0,200,[],https://www.yelp.com/biz/pho-lucky-san-diego?adjust_creative=Wu9gfEkr1Iqmmu5UKQvcJw&utm_campaign=yelp_api_v3&utm_medium=api_v3_business_search&utm_source=Wu9gfEkr1Iqmmu5UKQvcJw
tp-banh-bao-3-san-diego-4,['vietnamese'],['Vietnamese'],32.92676,-117.14315,(858) 860-5226,33383.44026768687,qjXNuyX2H7TE_-yUzAeRRg,https://s3-media3.fl.yelpcdn.com/bphoto/LooR0Ih_H3GLdE504rSLsA/o.jpg,11271 Camino Ruiz,,,San Diego,US,CA,92126,TP Banh Bao 3,+18588605226,$,4.0,115,[],https://www.yelp.com/biz/tp-banh-bao-3-san-diego-4?adjust_creative=Wu9gfEkr1Iqmmu5UKQvcJw&utm_campaign=yelp_api_v3&utm_medium=api_v3_business_search&utm_source=Wu9gfEkr1Iqmmu5UKQvcJw
pho-tho-murrieta,['vietnamese'],['Vietnamese'],33.5551754,-117.174406,(951) 698-7108,36916.45911192236,aHtCn7vq0q0jdd2tGQ8AMg,https://s3-media2.fl.yelpcdn.com/bphoto/Yc8q2cTWMSgkZDZF5NgOnw/o.jpg,40250 Murrieta Hot Springs Rd,Ste 101,,Murrieta,US,CA,92563,Pho Tho,+19516987108,$,3.5,185,[],https://www.yelp.com/biz/pho-tho-murrieta?adjust_creative=Wu9gfEkr1Iqmmu5UKQvcJw&utm_campaign=yelp_api_v3&utm_medium=api_v3_business_search&utm_source=Wu9gfEkr1Iqmmu5UKQvcJw
cali-baguette-express-san-diego-3,"['vietnamese', 'sandwiches']","['Vietnamese', 'Sandwiches']",32.916592,-117.12543,(858) 695-8888,34445.14958967637,SweLLumo7PhG5y8D1YdgYw,https://s3-media2.fl.yelpcdn.com/bphoto/EQxeYZLapaST2yzDPc11zQ/o.jpg,9225 Mira Mesa Blvd,Ste 102,,San Diego,US,CA,92126,Cali Baguette Express,+18586958888,$,4.0,415,[],https://www.yelp.com/biz/cali-baguette-express-san-diego-3?adjust_creative=Wu9gfEkr1Iqmmu5UKQvcJw&utm_campaign=yelp_api_v3&utm_medium=api_v3_business_search&utm_source=Wu9gfEkr1Iqmmu5UKQvcJw
luong-hai-ky-san-diego-3,"['chinese', 'vietnamese']","['Chinese', 'Vietnamese']",32.909942,-117.144949,(858) 578-4888,35258.80004306819,R7Ix-QjXDbS31JWvTVvjYg,https://s3-media2.fl.yelpcdn.com/bphoto/ThOqlxrrZdCm4RmY3Cevww/o.jpg,10606 Camino Ruiz,Ste 2,,San Diego,US,CA,92126,Luong Hai Ky,+18585784888,$,3.5,382,['delivery'],https://www.yelp.com/biz/luong-hai-ky-san-diego-3?adjust_creative=Wu9gfEkr1Iqmmu5UKQvcJw&utm_campaign=yelp_api_v3&utm_medium=api_v3_business_search&utm_source=Wu9gfEkr1Iqmmu5UKQvcJw
pho-46-san-diego,['vietnamese'],['Vietnamese'],32.894574,-117.123219,(858) 566-4599,36890.78749727685,GcqnE8qEUBdaG1XWzvvqEQ,https://s3-media2.fl.yelpcdn.com/bphoto/eRtoPZGD6YArBs4-hVGw-g/o.jpg,9508 Miramar Rd,,,San Diego,US,CA,92126,Pho 46,+18585664599,$,4.0,172,[],https://www.yelp.com/biz/pho-46-san-diego?adjust_creative=Wu9gfEkr1Iqmmu5UKQvcJw&utm_campaign=yelp_api_v3&utm_medium=api_v3_business_search&utm_source=Wu9gfEkr1Iqmmu5UKQvcJw
saigon-to-go-san-diego,['vietnamese'],['Vietnamese'],32.9145903101316,-117.14663811028,,34754.08393127176,sNuWvfncEdsUR_OyJ4fRGg,https://s3-media3.fl.yelpcdn.com/bphoto/ueQC87-9-ZOdjsQFm4iZwQ/o.jpg,8240 Mira Mesa Blvd,,,San Diego,US,CA,92126,Saigon To Go,,$,3.5,69,"['pickup', 'delivery']",https://www.yelp.com/biz/saigon-to-go-san-diego?adjust_creative=Wu9gfEkr1Iqmmu5UKQvcJw&utm_campaign=yelp_api_v3&utm_medium=api_v3_business_search&utm_source=Wu9gfEkr1Iqmmu5UKQvcJw
song-huong-restaurant-san-diego-2,['vietnamese'],['Vietnamese'],32.9092399,-117.14554,(858) 566-9876,35333.17930219945,qHRuOwMHlDuo_UGlLEXXJQ,https://s3-media1.fl.yelpcdn.com/bphoto/1DsV31ypQVjXxF7HyhqY5Q/o.jpg,10550 Camino Ruiz,,,San Diego,US,CA,92126,Song Huong Restaurant,+18585669876,$,3.5,34,[],https://www.yelp.com/biz/song-huong-restaurant-san-diego-2?adjust_creative=Wu9gfEkr1Iqmmu5UKQvcJw&utm_campaign=yelp_api_v3&utm_medium=api_v3_business_search&utm_source=Wu9gfEkr1Iqmmu5UKQvcJw
333-pacific-oceanside,"['newamerican', 'seafood', 'asianfusion']","['American (New)', 'Seafood', 'Asian Fusion']",33.194954,-117.383679,(760) 433-3333,24800.48705920582,qB7HpINMiMDGyMa3Ql6zQA,https://s3-media1.fl.yelpcdn.com/bphoto/C0Z5InWA2OcGA1xdTQNHwA/o.jpg,333 N Pacific St,,,Oceanside,US,CA,92054,333 Pacific,+17604333333,$$$,4.0,1514,[],https://www.yelp.com/biz/333-pacific-oceanside?adjust_creative=Wu9gfEkr1Iqmmu5UKQvcJw&utm_campaign=yelp_api_v3&utm_medium=api_v3_business_search&utm_source=Wu9gfEkr1Iqmmu5UKQvcJw
banh-mi-blvd-san-diego-2,"['sandwiches', 'coffee', 'bubbletea']","['Sandwiches', 'Coffee & Tea', 'Bubble Tea']",32.9150416,-117.1309883,(858) 860-5433,34643.979838895015,MpD5nI6y7oKNjwzPdzLxOg,https://s3-media2.fl.yelpcdn.com/bphoto/XmMVasqDl6uv2zl-GK9cyw/o.jpg,9005 Mira Mesa Blvd,,,San Diego,US,CA,92126,Banh Mi Blvd,+18588605433,$,4.5,124,"['pickup', 'delivery']",https://www.yelp.com/biz/banh-mi-blvd-san-diego-2?adjust_creative=Wu9gfEkr1Iqmmu5UKQvcJw&utm_campaign=yelp_api_v3&utm_medium=api_v3_business_search&utm_source=Wu9gfEkr1Iqmmu5UKQvcJw
kinaly-thai-restaurant-san-marcos,['thai'],['Thai'],33.1376203909295,-117.131729375937,(760) 480-9113,9926.666606741554,Bqm-yiCCf6Y8w6wny3RjcA,https://s3-media4.fl.yelpcdn.com/bphoto/SJn2BTIYVQKAKWEOU5FpQg/o.jpg,1220 E Mission Rd,,,San Marcos,US,CA,92069,Kinaly Thai Restaurant,+17604809113,$,4.0,785,"['pickup', 'delivery']",https://www.yelp.com/biz/kinaly-thai-restaurant-san-marcos?adjust_creative=Wu9gfEkr1Iqmmu5UKQvcJw&utm_campaign=yelp_api_v3&utm_medium=api_v3_business_search&utm_source=Wu9gfEkr1Iqmmu5UKQvcJw
andells-bakery-and-kitchen-san-diego,"['bakeries', 'vietnamese', 'filipino']","['Bakeries', 'Vietnamese', 'Filipino']",32.96147,-117.114133,(858) 538-8308,29455.533873282824,BofHtsi15Hmv6eu_nlApBQ,https://s3-media1.fl.yelpcdn.com/bphoto/vrOZY-v_XWfR-D4mW7goDQ/o.jpg,9926 Carmel Mountain Rd,Ste F,,San Diego,US,CA,92129,Andell's Bakery and Kitchen,+18585388308,$,4.5,90,[],https://www.yelp.com/biz/andells-bakery-and-kitchen-san-diego?adjust_creative=Wu9gfEkr1Iqmmu5UKQvcJw&utm_campaign=yelp_api_v3&utm_medium=api_v3_business_search&utm_source=Wu9gfEkr1Iqmmu5UKQvcJw
tnl-boba-tea-oceanside,"['bubbletea', 'juicebars']","['Bubble Tea', 'Juice Bars & Smoothies']",33.1818085,-117.290947,(760) 630-4136,16676.38537582152,43kVLowF--UD37libguwLA,https://s3-media2.fl.yelpcdn.com/bphoto/eInHxNSVhc1Qijs1PkkpFA/o.jpg,3829 Plaza Dr,Ste 605,,Oceanside,US,CA,92056,TNL Boba Tea,+17606304136,$,4.0,283,[],https://www.yelp.com/biz/tnl-boba-tea-oceanside?adjust_creative=Wu9gfEkr1Iqmmu5UKQvcJw&utm_campaign=yelp_api_v3&utm_medium=api_v3_business_search&utm_source=Wu9gfEkr1Iqmmu5UKQvcJw
bun-ca-cali-san-diego,"['seafood', 'noodles', 'soup']","['Seafood', 'Noodles', 'Soup']",32.9166502780833,-117.125658877194,(858) 860-5006,34439.00443222473,gMzI-Dcl1pjkURYcuFYdtw,https://s3-media3.fl.yelpcdn.com/bphoto/tfbWDYixdc0PLBDgxbk7zg/o.jpg,9225 Mira Mesa Blvd,Ste 106,,San Diego,US,CA,92126,Bun Ca Cali,+18588605006,,3.5,11,[],https://www.yelp.com/biz/bun-ca-cali-san-diego?adjust_creative=Wu9gfEkr1Iqmmu5UKQvcJw&utm_campaign=yelp_api_v3&utm_medium=api_v3_business_search&utm_source=Wu9gfEkr1Iqmmu5UKQvcJw
thai-thai-restaurant-vista,['thai'],['Thai'],33.22523,-117.22529,(760) 643-9333,9821.82236705797,bh_ICcUwp1jHUsVVEiAixg,https://s3-media2.fl.yelpcdn.com/bphoto/1_KO8EMWltDj1bVSbkXdVw/o.jpg,1717 E Vista Way,,,Vista,US,CA,92084,Thai Thai Restaurant,+17606439333,$$,4.5,344,['pickup'],https://www.yelp.com/biz/thai-thai-restaurant-vista?adjust_creative=Wu9gfEkr1Iqmmu5UKQvcJw&utm_campaign=yelp_api_v3&utm_medium=api_v3_business_search&utm_source=Wu9gfEkr1Iqmmu5UKQvcJw
ninja-kitchen-carlsbad-2,"['vietnamese', 'sandwiches']","['Vietnamese', 'Sandwiches']",33.126252,-117.311924,(760) 918-5346,21064.607934492597,p9oELCyIzHca9cke7VCmfA,https://s3-media4.fl.yelpcdn.com/bphoto/fYT8GKgIptr_GqMvp97HIw/o.jpg,1 Legoland Dr,,,Carlsbad,US,CA,92008,Ninja Kitchen,+17609185346,$$,3.5,23,[],https://www.yelp.com/biz/ninja-kitchen-carlsbad-2?adjust_creative=Wu9gfEkr1Iqmmu5UKQvcJw&utm_campaign=yelp_api_v3&utm_medium=api_v3_business_search&utm_source=Wu9gfEkr1Iqmmu5UKQvcJw
banh-mi-vietnamese-sandwiches-and-cafe-lakeside,"['foodstands', 'sandwiches', 'vietnamese']","['Food Stands', 'Sandwiches', 'Vietnamese']",32.9334869,-116.8694763,,39447.733818001296,9WJ-xqJHBPgYOrhapnmfmQ,https://s3-media1.fl.yelpcdn.com/bphoto/i4ITtf8YDt5h649AuIcDmA/o.jpg,1932 Wildcat Canyon Rd,,,Lakeside,US,CA,92040,Banh Mi Vietnamese Sandwiches & Cafe,,$,4.0,14,[],https://www.yelp.com/biz/banh-mi-vietnamese-sandwiches-and-cafe-lakeside?adjust_creative=Wu9gfEkr1Iqmmu5UKQvcJw&utm_campaign=yelp_api_v3&utm_medium=api_v3_business_search&utm_source=Wu9gfEkr1Iqmmu5UKQvcJw
rose-garden-thai-cuisine-murrieta-5,"['thai', 'noodles', 'bubbletea']","['Thai', 'Noodles', 'Bubble Tea']",33.5552214069106,-117.155183373221,(951) 698-4800,36718.83529150573,UURTindiXUcZoS1OLtVlVA,https://s3-media3.fl.yelpcdn.com/bphoto/XSYX3zHYvNRWURbPNTxOfQ/o.jpg,39400 Murrieta Hot Springs Rd,Ste 105,,Murrieta,US,CA,92563,Rose Garden Thai Cuisine,+19516984800,$$,4.0,331,"['pickup', 'delivery']",https://www.yelp.com/biz/rose-garden-thai-cuisine-murrieta-5?adjust_creative=Wu9gfEkr1Iqmmu5UKQvcJw&utm_campaign=yelp_api_v3&utm_medium=api_v3_business_search&utm_source=Wu9gfEkr1Iqmmu5UKQvcJw
california-homemades-escondido,['soup'],['Soup'],33.12154,-117.08248,(760) 975-3923,12162.535322066467,bkfaq4yNMsIwPCueuZeSzQ,https://s3-media2.fl.yelpcdn.com/bphoto/4BZ97rDezvsTdRUnntKHXw/o.jpg,138 West Grand Ave,,,Escondido,US,CA,92025,California Homemades,+17609753923,$$,5.0,77,[],https://www.yelp.com/biz/california-homemades-escondido?adjust_creative=Wu9gfEkr1Iqmmu5UKQvcJw&utm_campaign=yelp_api_v3&utm_medium=api_v3_business_search&utm_source=Wu9gfEkr1Iqmmu5UKQvcJw
tea-time-temecula,['bubbletea'],['Bubble Tea'],33.4758148193359,-117.115951538086,(951) 303-8818,27744.967890314398,dS7vFuRUIn5jD-qxxzs20w,https://s3-media2.fl.yelpcdn.com/bphoto/TMAJbskP-d98pROaduKxMQ/o.jpg,31333 Temecula Pkwy,,,Temecula,US,CA,92592,Tea Time,+19513038818,$,4.0,212,[],https://www.yelp.com/biz/tea-time-temecula?adjust_creative=Wu9gfEkr1Iqmmu5UKQvcJw&utm_campaign=yelp_api_v3&utm_medium=api_v3_business_search&utm_source=Wu9gfEkr1Iqmmu5UKQvcJw
muay-thai-kitchen-san-marcos-2,['thai'],['Thai'],33.1343694,-117.1198109,(760) 975-3232,10217.319616365576,u6DBNDmKxOZxCJpzEOJ3ng,https://s3-media3.fl.yelpcdn.com/bphoto/1vfQAxXaIxvkm6UQ0XN9yA/o.jpg,740 Nordahl Rd,Ste 118,,San Marcos,US,CA,92069,Muay Thai Kitchen,+17609753232,$$,4.5,294,"['pickup', 'delivery']",https://www.yelp.com/biz/muay-thai-kitchen-san-marcos-2?adjust_creative=Wu9gfEkr1Iqmmu5UKQvcJw&utm_campaign=yelp_api_v3&utm_medium=api_v3_business_search&utm_source=Wu9gfEkr1Iqmmu5UKQvcJw
thai-bbq-murrieta,"['thai', 'bbq']","['Thai', 'Barbeque']",33.5568185895681,-117.15852431953,(951) 600-7083,36924.66677720789,407TZ0dc7j-EtePH7jsgUA,https://s3-media4.fl.yelpcdn.com/bphoto/GVma2YoLlUKuCJcxNWfmMA/o.jpg,39530 Murrieta Hot Springs Rd,Ste 204,,Murrieta,US,CA,92563,@ Thai BBQ,+19516007083,$,4.5,508,[],https://www.yelp.com/biz/thai-bbq-murrieta?adjust_creative=Wu9gfEkr1Iqmmu5UKQvcJw&utm_campaign=yelp_api_v3&utm_medium=api_v3_business_search&utm_source=Wu9gfEkr1Iqmmu5UKQvcJw
banh-mi-vietnamese-sandwiches-and-more-temecula,['sandwiches'],['Sandwiches'],33.4749526948924,-117.131606340408,,27667.644776157013,WRkeVlzJAnyoQWOWPjDSIg,https://s3-media2.fl.yelpcdn.com/bphoto/ixreCEKAUpAR2DslRA6Srw/o.jpg,45927-46041 Pechanga Pkwy,,Pechanga Casino Food Ct,Temecula,US,CA,92592,Banh Mi Vietnamese Sandwiches & More,,$,3.5,6,[],https://www.yelp.com/biz/banh-mi-vietnamese-sandwiches-and-more-temecula?adjust_creative=Wu9gfEkr1Iqmmu5UKQvcJw&utm_campaign=yelp_api_v3&utm_medium=api_v3_business_search&utm_source=Wu9gfEkr1Iqmmu5UKQvcJw
pho-ca-dao-and-grill-poway-2,['vietnamese'],['Vietnamese'],32.9549592,-117.055679,(858) 883-5605,30780.36441867571,9nLLCImUAZ3Sdl3q4FezYQ,https://s3-media1.fl.yelpcdn.com/bphoto/7oNFaHiUC0lkWrDJj_U5Vg/o.jpg,12719 Poway Rd,,,Poway,US,CA,92064,Pho Ca Dao & Grill,+18588835605,$,3.0,200,[],https://www.yelp.com/biz/pho-ca-dao-and-grill-poway-2?adjust_creative=Wu9gfEkr1Iqmmu5UKQvcJw&utm_campaign=yelp_api_v3&utm_medium=api_v3_business_search&utm_source=Wu9gfEkr1Iqmmu5UKQvcJw
pholicious-temecula,"['noodles', 'vietnamese']","['Noodles', 'Vietnamese']",33.525844,-117.153545,(951) 240-7996,33452.07632487432,21ElywjUePPxX-2CIxIuFA,https://s3-media2.fl.yelpcdn.com/bphoto/DQ3XLfqWFa3OYyD7t0K5Og/o.jpg,40820 Winchester Rd,,,Temecula,US,CA,92591,Pholicious,+19512407996,$,3.0,63,"['pickup', 'delivery']",https://www.yelp.com/biz/pholicious-temecula?adjust_creative=Wu9gfEkr1Iqmmu5UKQvcJw&utm_campaign=yelp_api_v3&utm_medium=api_v3_business_search&utm_source=Wu9gfEkr1Iqmmu5UKQvcJw
bamboo-house-asian-bistro-temecula-5,"['asianfusion', 'sushi']","['Asian Fusion', 'Sushi Bars']",33.5048341,-117.1520684,(951) 695-9651,31113.46896355829,xG0b70hkmhmAkJgRVkBtOA,https://s3-media3.fl.yelpcdn.com/bphoto/9TyPvlyGPfFQn5dEx73R1w/o.jpg,27473 Ynez Rd,Ste 1A,,Temecula,US,CA,92591,Bamboo House Asian Bistro,+19516959651,$$,4.0,329,"['pickup', 'delivery']",https://www.yelp.com/biz/bamboo-house-asian-bistro-temecula-5?adjust_creative=Wu9gfEkr1Iqmmu5UKQvcJw&utm_campaign=yelp_api_v3&utm_medium=api_v3_business_search&utm_source=Wu9gfEkr1Iqmmu5UKQvcJw
tasty-pot-san-diego,"['taiwanese', 'bubbletea', 'hotpot']","['Taiwanese', 'Bubble Tea', 'Hot Pot']",32.9170554131269,-117.123420238495,(858) 492-7939,34391.255010723726,4aTfGy4yo2kzsrdqe882Vg,https://s3-media1.fl.yelpcdn.com/bphoto/opnLyqLWMqAKOC2Ij2g5ow/o.jpg,9379 Mira Mesa Blvd,,,San Diego,US,CA,92126,Tasty Pot,+18584927939,$$,4.0,292,"['pickup', 'delivery']",https://www.yelp.com/biz/tasty-pot-san-diego?adjust_creative=Wu9gfEkr1Iqmmu5UKQvcJw&utm_campaign=yelp_api_v3&utm_medium=api_v3_business_search&utm_source=Wu9gfEkr1Iqmmu5UKQvcJw
ocean-thai-cuisine-oceanside-2,['thai'],['Thai'],33.227245,-117.330673,(760) 967-9901,19613.28807963659,bdm-NKsEI-ilzFe6zj205A,https://s3-media2.fl.yelpcdn.com/bphoto/yM0tJNrn0DqIrULIVfdiwg/o.jpg,3846 Mission Ave,Ste A3,,Oceanside,US,CA,92054,Ocean Thai Cuisine,+17609679901,$$,4.0,260,[],https://www.yelp.com/biz/ocean-thai-cuisine-oceanside-2?adjust_creative=Wu9gfEkr1Iqmmu5UKQvcJw&utm_campaign=yelp_api_v3&utm_medium=api_v3_business_search&utm_source=Wu9gfEkr1Iqmmu5UKQvcJw
chan-dara-thai-café-escondido-5,['thai'],['Thai'],33.1045753310175,-117.073884725382,(760) 317-4455,14195.509883688686,kADAW7ORY2GS_2epKgch_A,https://s3-media1.fl.yelpcdn.com/bphoto/xIJk5fd1qHMzdDfsTWkIeQ/o.jpg,330 W Felicita Ave,,,Escondido,US,CA,92025,Chan Dara Thai Café,+17603174455,$$,4.5,452,[],https://www.yelp.com/biz/chan-dara-thai-caf%C3%A9-escondido-5?adjust_creative=Wu9gfEkr1Iqmmu5UKQvcJw&utm_campaign=yelp_api_v3&utm_medium=api_v3_business_search&utm_source=Wu9gfEkr1Iqmmu5UKQvcJw
ocean-thai-cuisine-oceanside,['thai'],['Thai'],33.1826324462891,-117.333488464355,(760) 722-9779,20469.629294329086,4JPIyC7pPQm2JaxvJhuv8w,https://s3-media4.fl.yelpcdn.com/bphoto/Vq7RbP4RU0DnCHr2jLCk7w/o.jpg,2455 Vista Way,,,Oceanside,US,CA,92054,Ocean Thai Cuisine,+17607229779,$$,4.0,424,[],https://www.yelp.com/biz/ocean-thai-cuisine-oceanside?adjust_creative=Wu9gfEkr1Iqmmu5UKQvcJw&utm_campaign=yelp_api_v3&utm_medium=api_v3_business_search&utm_source=Wu9gfEkr1Iqmmu5UKQvcJw
zen-modern-asian-san-diego,"['asianfusion', 'sushi', 'chinese']","['Asian Fusion', 'Sushi Bars', 'Chinese']",32.96267,-117.09202,(858) 216-1068,29446.089054283646,gVEDdSfCVeIjdrDNXKblFg,https://s3-media1.fl.yelpcdn.com/bphoto/JwJ--i_gMx6zZiEYMOjeOw/o.jpg,13510 Sabre Spring Pkwy,Ste 103,,San Diego,US,CA,92128,ZEN Modern Asian,+18582161068,$$,4.0,452,"['pickup', 'delivery']",https://www.yelp.com/biz/zen-modern-asian-san-diego?adjust_creative=Wu9gfEkr1Iqmmu5UKQvcJw&utm_campaign=yelp_api_v3&utm_medium=api_v3_business_search&utm_source=Wu9gfEkr1Iqmmu5UKQvcJw
siam-kitchen-thai-cuisine-temecula-2,"['thai', 'noodles']","['Thai', 'Noodles']",33.47895,-117.13873,(951) 294-9231,28145.5270288418,LYWVxArR9I9afLr_tglJCg,https://s3-media1.fl.yelpcdn.com/bphoto/ZzGlHs3uV1DJ40Rsj9-fiw/o.jpg,44535 Bedford Ct,Ste F,,Temecula,US,CA,92592,Siam Kitchen Thai Cuisine,+19512949231,$,4.5,367,[],https://www.yelp.com/biz/siam-kitchen-thai-cuisine-temecula-2?adjust_creative=Wu9gfEkr1Iqmmu5UKQvcJw&utm_campaign=yelp_api_v3&utm_medium=api_v3_business_search&utm_source=Wu9gfEkr1Iqmmu5UKQvcJw
thai-table-oceanside,['thai'],['Thai'],33.194164276123,-117.356056213379,(760) 721-4850,22283.905980233765,Eu_D_jqFcJ-VJvgdBJe1Bg,https://s3-media4.fl.yelpcdn.com/bphoto/YhtEYKEdaD_2Fb9zlJdVkg/o.jpg,1910 Oceanside Blvd,Ste C,,Oceanside,US,CA,92054,Thai Table,+17607214850,$$,4.5,486,[],https://www.yelp.com/biz/thai-table-oceanside?adjust_creative=Wu9gfEkr1Iqmmu5UKQvcJw&utm_campaign=yelp_api_v3&utm_medium=api_v3_business_search&utm_source=Wu9gfEkr1Iqmmu5UKQvcJw
pinto-thai-ramona-ramona,['thai'],['Thai'],33.0279454926225,-116.889447793365,(760) 788-4478,30765.90051611368,a5cN040nigRzyaAzZK3Dog,https://s3-media4.fl.yelpcdn.com/bphoto/mYR2UkI0hFsYdEOAVbTvlw/o.jpg,2330 Main St,Ste H,,Ramona,US,CA,92065,Pinto Thai Ramona,+17607884478,$$,4.5,176,['pickup'],https://www.yelp.com/biz/pinto-thai-ramona-ramona?adjust_creative=Wu9gfEkr1Iqmmu5UKQvcJw&utm_campaign=yelp_api_v3&utm_medium=api_v3_business_search&utm_source=Wu9gfEkr1Iqmmu5UKQvcJw
similan-thai-restaurant-solana-beach,['thai'],['Thai'],32.9918860079355,-117.269630695671,(858) 792-0950,29571.23607695224,zDztyj94M0yjpb3SEBw0eA,https://s3-media2.fl.yelpcdn.com/bphoto/AM9z-b7yXv4IwMpFm3_PEQ/o.jpg,141 Lomas Santa Fe Dr,,,Solana Beach,US,CA,92075,Similan Thai Restaurant,+18587920950,$$,4.0,226,['pickup'],https://www.yelp.com/biz/similan-thai-restaurant-solana-beach?adjust_creative=Wu9gfEkr1Iqmmu5UKQvcJw&utm_campaign=yelp_api_v3&utm_medium=api_v3_business_search&utm_source=Wu9gfEkr1Iqmmu5UKQvcJw
del-mar-rendezvous-del-mar,"['chinese', 'gluten_free', 'vegetarian']","['Chinese', 'Gluten-Free', 'Vegetarian']",32.9607441389406,-117.265116690795,(858) 755-2669,32488.381673906315,FmD9_DP7px43pLzPiNZATQ,https://s3-media2.fl.yelpcdn.com/bphoto/ntqytCfQioOS0Lf9lmZFgw/o.jpg,1555 Camino Del Mar,Ste 102,,Del Mar,US,CA,92014,Del Mar Rendezvous,+18587552669,$$,4.0,702,"['pickup', 'delivery']",https://www.yelp.com/biz/del-mar-rendezvous-del-mar?adjust_creative=Wu9gfEkr1Iqmmu5UKQvcJw&utm_campaign=yelp_api_v3&utm_medium=api_v3_business_search&utm_source=Wu9gfEkr1Iqmmu5UKQvcJw
blue-ocean-robata-and-sushi-bar-carlsbad-2,"['asianfusion', 'sushi']","['Asian Fusion', 'Sushi Bars']",33.161442,-117.346843,(760) 434-4959,22328.79798210123,nrqFHR5sjvXKKC2BtzR3gA,https://s3-media3.fl.yelpcdn.com/bphoto/w1niqsSE0i5Oo7TJSWiO1g/o.jpg,2958 Madison St,,,Carlsbad,US,CA,92008,Blue Ocean Robata & Sushi Bar,+17604344959,$$,4.0,971,[],https://www.yelp.com/biz/blue-ocean-robata-and-sushi-bar-carlsbad-2?adjust_creative=Wu9gfEkr1Iqmmu5UKQvcJw&utm_campaign=yelp_api_v3&utm_medium=api_v3_business_search&utm_source=Wu9gfEkr1Iqmmu5UKQvcJw
bale-french-sandwiches-san-diego-5,"['sandwiches', 'bubbletea']","['Sandwiches', 'Bubble Tea']",32.9173849,-117.1227156,(858) 566-7711,34261.044249964725,11Vs6AA3en-UUWnU3dVE0Q,https://s3-media3.fl.yelpcdn.com/bphoto/IMoD1qxE-MYn_LcysiDDfg/o.jpg,9396 Mira Mesa Blvd,Ste C,,San Diego,US,CA,92126,Bale French Sandwiches,+18585667711,$,4.0,551,[],https://www.yelp.com/biz/bale-french-sandwiches-san-diego-5?adjust_creative=Wu9gfEkr1Iqmmu5UKQvcJw&utm_campaign=yelp_api_v3&utm_medium=api_v3_business_search&utm_source=Wu9gfEkr1Iqmmu5UKQvcJw
noodles-pala,['chinese'],['Chinese'],33.363209,-117.084697,(877) 946-7252,15565.19902200873,yve8HOEZoBZMT2rz4W3hlg,https://s3-media3.fl.yelpcdn.com/bphoto/6Dzygn85ZaQsJs1jJvqzdQ/o.jpg,11154 Hwy 76,,Pala Casino,Pala,US,CA,92059,Noodles,+18779467252,$$,3.0,92,[],https://www.yelp.com/biz/noodles-pala?adjust_creative=Wu9gfEkr1Iqmmu5UKQvcJw&utm_campaign=yelp_api_v3&utm_medium=api_v3_business_search&utm_source=Wu9gfEkr1Iqmmu5UKQvcJw
ahi-sushi-and-grill-san-marcos,"['sushi', 'desserts', 'noodles']","['Sushi Bars', 'Desserts', 'Noodles']",33.1405499572154,-117.163243383975,(760) 761-0238,10361.359720232256,BCIQLTtHlweGgT7suUKXrQ,https://s3-media4.fl.yelpcdn.com/bphoto/9l2I-CnNoCuC_Cprs1XaFA/o.jpg,157 N Twin Oaks Valley Rd,,,San Marcos,US,CA,92069,Ahi Sushi & Grill,+17607610238,$$,3.5,298,[],https://www.yelp.com/biz/ahi-sushi-and-grill-san-marcos?adjust_creative=Wu9gfEkr1Iqmmu5UKQvcJw&utm_campaign=yelp_api_v3&utm_medium=api_v3_business_search&utm_source=Wu9gfEkr1Iqmmu5UKQvcJw
panda-garden-san-marcos,['chinese'],['Chinese'],33.132276,-117.209051,(760) 727-2322,13358.212085227886,kE90EEmscN5FPma9GlD0og,https://s3-media3.fl.yelpcdn.com/bphoto/Y-47TAyg584YFYkIDC65xA/o.jpg,742 Rancho Santa Fe Rd,,,San Marcos,US,CA,92078,Panda Garden,+17607272322,$$,4.0,415,[],https://www.yelp.com/biz/panda-garden-san-marcos?adjust_creative=Wu9gfEkr1Iqmmu5UKQvcJw&utm_campaign=yelp_api_v3&utm_medium=api_v3_business_search&utm_source=Wu9gfEkr1Iqmmu5UKQvcJw
hong-kong-bbq-and-dim-sum-san-diego-2,"['dimsum', 'bbq', 'cantonese']","['Dim Sum', 'Barbeque', 'Cantonese']",32.9092399,-117.14554,(858) 408-4888,35333.17930219945,jRzyZuyyT26v2potoStZMg,https://s3-media1.fl.yelpcdn.com/bphoto/eysb13iRciff_yGIIQmTow/o.jpg,10550 Camino Ruiz,,,San Diego,US,CA,92126,Hong Kong BBQ & Dim Sum,+18584084888,$,3.5,188,[],https://www.yelp.com/biz/hong-kong-bbq-and-dim-sum-san-diego-2?adjust_creative=Wu9gfEkr1Iqmmu5UKQvcJw&utm_campaign=yelp_api_v3&utm_medium=api_v3_business_search&utm_source=Wu9gfEkr1Iqmmu5UKQvcJw
loving-hut-san-diego-5,"['vegan', 'vegetarian', 'desserts']","['Vegan', 'Vegetarian', 'Desserts']",32.91728,-117.1125,(858) 578-8885,34397.56563180948,_8m9Shz7xkphevuMb7VV3g,https://s3-media3.fl.yelpcdn.com/bphoto/YuinO6SzjiWJvjo_dS_1lw/o.jpg,9928 Mira Mesa Blvd,,,San Diego,US,CA,92131,Loving Hut,+18585788885,$$,4.5,1110,[],https://www.yelp.com/biz/loving-hut-san-diego-5?adjust_creative=Wu9gfEkr1Iqmmu5UKQvcJw&utm_campaign=yelp_api_v3&utm_medium=api_v3_business_search&utm_source=Wu9gfEkr1Iqmmu5UKQvcJw
urbane-cafe-encinitas,"['sandwiches', 'salad', 'newamerican']","['Sandwiches', 'Salad', 'American (New)']",33.065783,-117.265282,(760) 452-4255,22403.58975875036,MnQOZju4avKsZAoazYloAQ,https://s3-media1.fl.yelpcdn.com/bphoto/s_pOhxgvPE_7jx41AC2JBw/o.jpg,1042 N El Camino Real,,,Encinitas,US,CA,92024,Urbane Cafe,+17604524255,$$,4.5,154,['delivery'],https://www.yelp.com/biz/urbane-cafe-encinitas?adjust_creative=Wu9gfEkr1Iqmmu5UKQvcJw&utm_campaign=yelp_api_v3&utm_medium=api_v3_business_search&utm_source=Wu9gfEkr1Iqmmu5UKQvcJw
taste-of-thai-del-mar,['thai'],['Thai'],32.9818012918228,-117.248530034417,(858) 793-9695,29718.492959735722,khWebNi2NQ-G1s0-ytSwYw,https://s3-media4.fl.yelpcdn.com/bphoto/ivDJhvQIETZvLxZ8m7zSmw/o.jpg,15770 San Andres Dr,,,Del Mar,US,CA,92014,Taste of Thai,+18587939695,$$,3.5,494,"['pickup', 'delivery']",https://www.yelp.com/biz/taste-of-thai-del-mar?adjust_creative=Wu9gfEkr1Iqmmu5UKQvcJw&utm_campaign=yelp_api_v3&utm_medium=api_v3_business_search&utm_source=Wu9gfEkr1Iqmmu5UKQvcJw
pailin-thai-cafe-san-diego,"['thai', 'noodles', 'soup']","['Thai', 'Noodles', 'Soup']",33.0122515223253,-117.078290481615,(858) 674-4665,24115.36379353753,y5cp6Qa9dMF4hxUHL_rxJQ,https://s3-media2.fl.yelpcdn.com/bphoto/_Pc7Cix9EuQ_1tPSDaFXKw/o.jpg,16441 Bernardo Center Dr,,,San Diego,US,CA,92128,Pailin Thai Cafe,+18586744665,$$,4.0,188,['pickup'],https://www.yelp.com/biz/pailin-thai-cafe-san-diego?adjust_creative=Wu9gfEkr1Iqmmu5UKQvcJw&utm_campaign=yelp_api_v3&utm_medium=api_v3_business_search&utm_source=Wu9gfEkr1Iqmmu5UKQvcJw
thai-garden-oceanside,['thai'],['Thai'],33.2167206,-117.2717285,(760) 940-1009,14193.533951913521,K_ZJlYNkzUhzGh0cd60XHw,https://s3-media1.fl.yelpcdn.com/bphoto/S-cBWnHAaAEq35oI8JJ6bA/o.jpg,4750 Oceanside Blvd,,,Oceanside,US,CA,92056,Thai Garden,+17609401009,$$,4.0,283,[],https://www.yelp.com/biz/thai-garden-oceanside?adjust_creative=Wu9gfEkr1Iqmmu5UKQvcJw&utm_campaign=yelp_api_v3&utm_medium=api_v3_business_search&utm_source=Wu9gfEkr1Iqmmu5UKQvcJw
monsta-snow-murrieta-2,"['coffee', 'bubbletea', 'icecream']","['Coffee & Tea', 'Bubble Tea', 'Ice Cream & Frozen Yogurt']",33.55316,-117.13949,(951) 973-8368,36398.28356979474,aZPzP4UNN7v0MolTXiokLA,https://s3-media4.fl.yelpcdn.com/bphoto/CWe5KGfJ0LiEsAWkY4Cf6Q/o.jpg,29910 Murrieta Hot Springs Rd,Ste P,,Murrieta,US,CA,92563,Monsta Snow,+19519738368,$,4.5,206,"['pickup', 'delivery']",https://www.yelp.com/biz/monsta-snow-murrieta-2?adjust_creative=Wu9gfEkr1Iqmmu5UKQvcJw&utm_campaign=yelp_api_v3&utm_medium=api_v3_business_search&utm_source=Wu9gfEkr1Iqmmu5UKQvcJw
torrey-gardens-cafe-san-diego-3,"['cafes', 'sandwiches', 'breakfast_brunch']","['Cafes', 'Sandwiches', 'Breakfast & Brunch']",32.9134033,-117.2252483,(858) 461-0599,36210.12380139793,7Zw-NJWzmwypVNw3f6vzCQ,https://s3-media3.fl.yelpcdn.com/bphoto/-YWuIhyf0ZiNQTs7VjSB9Q/o.jpg,10675 Calle Mar De Mariposa,Ste 101,,San Diego,US,CA,92130,Torrey Gardens Cafe,+18584610599,$,4.5,106,[],https://www.yelp.com/biz/torrey-gardens-cafe-san-diego-3?adjust_creative=Wu9gfEkr1Iqmmu5UKQvcJw&utm_campaign=yelp_api_v3&utm_medium=api_v3_business_search&utm_source=Wu9gfEkr1Iqmmu5UKQvcJw
s-thai-food-temecula-2,"['thai', 'vegan', 'soup']","['Thai', 'Vegan', 'Soup']",33.51904,-117.15518,(951) 699-2424,32723.031170740836,X4bo6cKzeGTPhiJqc6Lz6A,https://s3-media2.fl.yelpcdn.com/bphoto/qCkeElll86bL9gA5nJkaUw/o.jpg,26490 Ynez Rd,Ste B,,Temecula,US,CA,92591,S!!! Thai Food,+19516992424,$$,4.0,371,"['pickup', 'delivery']",https://www.yelp.com/biz/s-thai-food-temecula-2?adjust_creative=Wu9gfEkr1Iqmmu5UKQvcJw&utm_campaign=yelp_api_v3&utm_medium=api_v3_business_search&utm_source=Wu9gfEkr1Iqmmu5UKQvcJw
mendocino-farms-san-diego-5,"['sandwiches', 'salad']","['Sandwiches', 'Salad']",32.9513393,-117.2341046,(858) 436-0000,32331.822955271684,Dqj4t4ZM255GRdl4r_GfrQ,https://s3-media4.fl.yelpcdn.com/bphoto/I6JrWoseo4nNKErRq5rsYg/o.jpg,12873 El Camino Real,,,San Diego,US,CA,92130,Mendocino Farms,+18584360000,$$,4.5,207,[],https://www.yelp.com/biz/mendocino-farms-san-diego-5?adjust_creative=Wu9gfEkr1Iqmmu5UKQvcJw&utm_campaign=yelp_api_v3&utm_medium=api_v3_business_search&utm_source=Wu9gfEkr1Iqmmu5UKQvcJw
ic-rainbow-thai-rolled-ice-cream-temecula,"['icecream', 'bubbletea', 'juicebars']","['Ice Cream & Frozen Yogurt', 'Bubble Tea', 'Juice Bars & Smoothies']",33.53203,-117.15178,(951) 265-6387,34126.86898730759,mJ1d7h5jQoElbMueMRufZg,https://s3-media1.fl.yelpcdn.com/bphoto/dob9CNE2_A1mrApDHSJMog/o.jpg,40405 Winchester Rd,Ste 103,,Temecula,US,CA,92591,IC Rainbow - Thai Rolled Ice cream,+19512656387,,4.5,46,[],https://www.yelp.com/biz/ic-rainbow-thai-rolled-ice-cream-temecula?adjust_creative=Wu9gfEkr1Iqmmu5UKQvcJw&utm_campaign=yelp_api_v3&utm_medium=api_v3_business_search&utm_source=Wu9gfEkr1Iqmmu5UKQvcJw
the-original-sab-e-lee-san-diego,"['asianfusion', 'thai']","['Asian Fusion', 'Thai']",32.9574367638299,-117.125476861099,(858) 780-0022,29904.1168764992,rGYBda61mS4JOxhiispscA,https://s3-media4.fl.yelpcdn.com/bphoto/uV5JVaiZtruOLFcmMASs-w/o.jpg,13223-2 Black Mountain Rd,,,San Diego,US,CA,92129,The Original Sab-E-Lee,+18587800022,$$,4.0,736,[],https://www.yelp.com/biz/the-original-sab-e-lee-san-diego?adjust_creative=Wu9gfEkr1Iqmmu5UKQvcJw&utm_campaign=yelp_api_v3&utm_medium=api_v3_business_search&utm_source=Wu9gfEkr1Iqmmu5UKQvcJw
bua-thai-poway,['thai'],['Thai'],32.9520182,-117.0627554,(858) 679-7073,30853.604001112097,Hhbv59fP88N3TXSEmz55Mw,https://s3-media2.fl.yelpcdn.com/bphoto/WXC5tTI0XUqksMmRL4S87Q/o.jpg,12378 Poway Rd,Ste C,,Poway,US,CA,92064,Bua Thai,+18586797073,$$,4.0,374,"['pickup', 'delivery']",https://www.yelp.com/biz/bua-thai-poway?adjust_creative=Wu9gfEkr1Iqmmu5UKQvcJw&utm_campaign=yelp_api_v3&utm_medium=api_v3_business_search&utm_source=Wu9gfEkr1Iqmmu5UKQvcJw
que-tortas-escondido,['sandwiches'],['Sandwiches'],33.132489,-117.0618932,(760) 489-1607,11741.873658989549,Ay5BcF36LMkCiLlNLUqufg,https://s3-media3.fl.yelpcdn.com/bphoto/k7uVUn6Ogn4sRWZw32DXbg/o.jpg,1485 E Valley Pkwy,,,Escondido,US,CA,92027,Que Tortas,+17604891607,$,4.5,174,[],https://www.yelp.com/biz/que-tortas-escondido?adjust_creative=Wu9gfEkr1Iqmmu5UKQvcJw&utm_campaign=yelp_api_v3&utm_medium=api_v3_business_search&utm_source=Wu9gfEkr1Iqmmu5UKQvcJw
philly-franks-steaks-san-marcos,"['sandwiches', 'cheesesteaks']","['Sandwiches', 'Cheesesteaks']",33.1474689311828,-117.198903147218,(760) 591-0145,11451.863960885763,-d7PgJbhSWmivdAFZfPD1A,https://s3-media4.fl.yelpcdn.com/bphoto/PnjyHcuhJaMPwQPT_vnYqw/o.jpg,151 S Rancho Santa Fe Rd,,,San Marcos,US,CA,92078,Philly Frank's Steaks,+17605910145,$$,4.5,637,"['pickup', 'delivery']",https://www.yelp.com/biz/philly-franks-steaks-san-marcos?adjust_creative=Wu9gfEkr1Iqmmu5UKQvcJw&utm_campaign=yelp_api_v3&utm_medium=api_v3_business_search&utm_source=Wu9gfEkr1Iqmmu5UKQvcJw
yama-sushi-restaurant-fallbrook-2,"['sushi', 'salad', 'soup']","['Sushi Bars', 'Salad', 'Soup']",33.3729412058429,-117.252148296231,(760) 723-9788,20424.981430188414,UmPIvRBToxku8XD1IWTSCg,https://s3-media4.fl.yelpcdn.com/bphoto/4mFpiuUcKeKTxeWX_OD8cA/o.jpg,1067 S Main Ave,,,Fallbrook,US,CA,92028,Yama Sushi Restaurant,+17607239788,$$,4.0,191,[],https://www.yelp.com/biz/yama-sushi-restaurant-fallbrook-2?adjust_creative=Wu9gfEkr1Iqmmu5UKQvcJw&utm_campaign=yelp_api_v3&utm_medium=api_v3_business_search&utm_source=Wu9gfEkr1Iqmmu5UKQvcJw
aliyas-deli-san-diego-2,"['bagels', 'coffee', 'sandwiches']","['Bagels', 'Coffee & Tea', 'Sandwiches']",32.90059,-117.17597,(858) 622-1815,36583.38459608768,1WsYZ7tRpEsOM3QmuvYgmw,https://s3-media1.fl.yelpcdn.com/bphoto/STujr0eDnp_q02PrfHAT8w/o.jpg,10054 Mesa Ridge Ct,Ste 134,,San Diego,US,CA,92121,Aliya's Deli,+18586221815,$,5.0,25,[],https://www.yelp.com/biz/aliyas-deli-san-diego-2?adjust_creative=Wu9gfEkr1Iqmmu5UKQvcJw&utm_campaign=yelp_api_v3&utm_medium=api_v3_business_search&utm_source=Wu9gfEkr1Iqmmu5UKQvcJw
tasty-thai-cuisine-murrieta,"['thai', 'vegetarian', 'vegan']","['Thai', 'Vegetarian', 'Vegan']",33.550094,-117.139177,(951) 304-9990,36046.19481368227,Cf_lRKAGL9aMLYLaZyBaTw,https://s3-media2.fl.yelpcdn.com/bphoto/7sWv3LeGOhPQ5nCTmCrVoQ/o.jpg,39252 Winchester Rd,Ste 129,,Murrieta,US,CA,92563,Tasty Thai Cuisine,+19513049990,$$,4.5,362,"['pickup', 'delivery']",https://www.yelp.com/biz/tasty-thai-cuisine-murrieta?adjust_creative=Wu9gfEkr1Iqmmu5UKQvcJw&utm_campaign=yelp_api_v3&utm_medium=api_v3_business_search&utm_source=Wu9gfEkr1Iqmmu5UKQvcJw
brothers-provisions-san-diego,"['sandwiches', 'wine_bars', 'pizza']","['Sandwiches', 'Wine Bars', 'Pizza']",33.0126977,-117.0780015,(855) 850-2767,24070.72344925565,TLHo4G8AlLYZe7NWIxbwoA,https://s3-media2.fl.yelpcdn.com/bphoto/AcXKI9kjQ7-5No8AnPA8bw/o.jpg,16451 Bernardo Center Dr,,,San Diego,US,CA,92127,Brothers Provisions,+18558502767,$$,4.0,581,[],https://www.yelp.com/biz/brothers-provisions-san-diego?adjust_creative=Wu9gfEkr1Iqmmu5UKQvcJw&utm_campaign=yelp_api_v3&utm_medium=api_v3_business_search&utm_source=Wu9gfEkr1Iqmmu5UKQvcJw
king-and-i-of-san-marcos-san-marcos,['thai'],['Thai'],33.1345521822605,-117.190563161971,(760) 744-1008,12147.940643498707,JUBqRwODujQr1elKhzfhBw,https://s3-media2.fl.yelpcdn.com/bphoto/76FzSG9nQyXo84NHK0Ywtg/o.jpg,1020 W San Marcos Blvd,Ste 164,,San Marcos,US,CA,92078,King and I of San Marcos,+17607441008,$$,3.5,216,"['pickup', 'delivery']",https://www.yelp.com/biz/king-and-i-of-san-marcos-san-marcos?adjust_creative=Wu9gfEkr1Iqmmu5UKQvcJw&utm_campaign=yelp_api_v3&utm_medium=api_v3_business_search&utm_source=Wu9gfEkr1Iqmmu5UKQvcJw
the-grillery-poway-2,"['asianfusion', 'sandwiches']","['Asian Fusion', 'Sandwiches']",32.939034,-117.030321,(858) 679-1881,33014.34795994782,5ocdG2QAnNEwXuz8QGoQgA,https://s3-media3.fl.yelpcdn.com/bphoto/AhENLlJ8OAVgxZbZxOlbeg/o.jpg,14077 Stowe Dr,Ste 107,,Poway,US,CA,92064,The Grillery,+18586791881,$,4.0,70,[],https://www.yelp.com/biz/the-grillery-poway-2?adjust_creative=Wu9gfEkr1Iqmmu5UKQvcJw&utm_campaign=yelp_api_v3&utm_medium=api_v3_business_search&utm_source=Wu9gfEkr1Iqmmu5UKQvcJw
flower-child-del-mar,"['salad', 'newamerican', 'vegetarian']","['Salad', 'American (New)', 'Vegetarian']",32.9808105,-117.2498296,(858) 314-6818,29845.998330704635,VAuUwVqOUoEW2TDrw23DdQ,https://s3-media2.fl.yelpcdn.com/bphoto/Bc4luPPCmQzQXF05q5r-7g/o.jpg,2690 Via De La Valle,,,Del Mar,US,CA,92014,Flower Child,+18583146818,$$,4.0,362,[],https://www.yelp.com/biz/flower-child-del-mar?adjust_creative=Wu9gfEkr1Iqmmu5UKQvcJw&utm_campaign=yelp_api_v3&utm_medium=api_v3_business_search&utm_source=Wu9gfEkr1Iqmmu5UKQvcJw
tong-sake-house-poway,"['japanese', 'asianfusion']","['Japanese', 'Asian Fusion']",32.9523488737293,-117.065501901364,(858) 486-3200,30881.460575144858,_4clkIuz2ZXtL7ktH0lb7w,https://s3-media3.fl.yelpcdn.com/bphoto/cCcstlJG3ZcvvsYfkdOeOg/o.jpg,12320 Poway Rd,,,Poway,US,CA,92064,Tong Sake House,+18584863200,$$,4.5,403,[],https://www.yelp.com/biz/tong-sake-house-poway?adjust_creative=Wu9gfEkr1Iqmmu5UKQvcJw&utm_campaign=yelp_api_v3&utm_medium=api_v3_business_search&utm_source=Wu9gfEkr1Iqmmu5UKQvcJw
pearl-chinese-cuisine-san-diego,"['dimsum', 'cantonese', 'noodles']","['Dim Sum', 'Cantonese', 'Noodles']",33.0173,-117.07715,(858) 487-3388,23575.149128982433,lPrvUs4oSFpJolgA1917Iw,https://s3-media2.fl.yelpcdn.com/bphoto/vYVu4-OpeFlHQ4rgncmlEQ/o.jpg,11666 Avena Pl,,,San Diego,US,CA,92128,Pearl Chinese Cuisine,+18584873388,$$,3.0,815,[],https://www.yelp.com/biz/pearl-chinese-cuisine-san-diego?adjust_creative=Wu9gfEkr1Iqmmu5UKQvcJw&utm_campaign=yelp_api_v3&utm_medium=api_v3_business_search&utm_source=Wu9gfEkr1Iqmmu5UKQvcJw
silk-road-san-diego-2,"['vietnamese', 'chinese']","['Vietnamese', 'Chinese']",32.90622,-117.17345,(858) 457-4383,35930.0797419052,uipWlVNubNlnN9hGq0PxIg,https://s3-media3.fl.yelpcdn.com/bphoto/_Y5KySvjca_Y83pHgmbLrA/o.jpg,6715 Mira Mesa Blvd,Ste 104,,San Diego,US,CA,92121,Silk Road,+18584574383,$,3.0,44,[],https://www.yelp.com/biz/silk-road-san-diego-2?adjust_creative=Wu9gfEkr1Iqmmu5UKQvcJw&utm_campaign=yelp_api_v3&utm_medium=api_v3_business_search&utm_source=Wu9gfEkr1Iqmmu5UKQvcJw
blazing-noodles-temecula,"['thai', 'asianfusion', 'chinese']","['Thai', 'Asian Fusion', 'Chinese']",33.4571565795404,-117.10597050287,(951) 770-8503,25698.789606873266,An1LujqGn_ikwRVwU2rdFg,https://s3-media4.fl.yelpcdn.com/bphoto/XHtXn7hIUG_yKmxBjhKkRA/o.jpg,45000 Pechanga Pkwy,,Pechanga Resort & Casino,Temecula,US,CA,92592,Blazing Noodles,+19517708503,$$,3.0,198,[],https://www.yelp.com/biz/blazing-noodles-temecula?adjust_creative=Wu9gfEkr1Iqmmu5UKQvcJw&utm_campaign=yelp_api_v3&utm_medium=api_v3_business_search&utm_source=Wu9gfEkr1Iqmmu5UKQvcJw
pattaya-thai-restaurant-san-diego,"['thai', 'vegetarian']","['Thai', 'Vegetarian']",32.9928,-117.06995,(858) 217-6700,26408.405967002553,Su8JwZpcAlf3dzvSrzSP9w,https://s3-media2.fl.yelpcdn.com/bphoto/JPczhUQ_oFLc2-DwGfdYJw/o.jpg,12125 Alta Carmel Ct,Ste 370,,San Diego,US,CA,92128,Pattaya Thai Restaurant,+18582176700,$$,4.0,516,['pickup'],https://www.yelp.com/biz/pattaya-thai-restaurant-san-diego?adjust_creative=Wu9gfEkr1Iqmmu5UKQvcJw&utm_campaign=yelp_api_v3&utm_medium=api_v3_business_search&utm_source=Wu9gfEkr1Iqmmu5UKQvcJw
ho-wan-noodle-shop-lakeside,['chinese'],['Chinese'],32.9334884,-116.8694769,(619) 443-2300,39329.16386673874,Mm3EtHG1LIHPkW17-b0w5A,https://s3-media4.fl.yelpcdn.com/bphoto/11jDy2oeHQ5M2xDqhVP-TQ/o.jpg,1932 Wildcat Canyon Rd,,,Lakeside,US,CA,92040,Ho Wan Noodle Shop,+16194432300,$$,3.0,50,[],https://www.yelp.com/biz/ho-wan-noodle-shop-lakeside?adjust_creative=Wu9gfEkr1Iqmmu5UKQvcJw&utm_campaign=yelp_api_v3&utm_medium=api_v3_business_search&utm_source=Wu9gfEkr1Iqmmu5UKQvcJw
bahn-mi-vietnamese-sandwiches-and-more-temecula,['sandwiches'],['Sandwiches'],33.4533501,-117.1078186,,25572.85865335673,jkFUDHR-nnEwGcF-8O9_Sg,,45000 Pechanga Way,,,Temecula,US,CA,92592,Bahn Mi Vietnamese Sandwiches and More,,,4.0,1,[],https://www.yelp.com/biz/bahn-mi-vietnamese-sandwiches-and-more-temecula?adjust_creative=Wu9gfEkr1Iqmmu5UKQvcJw&utm_campaign=yelp_api_v3&utm_medium=api_v3_business_search&utm_source=Wu9gfEkr1Iqmmu5UKQvcJw
urbane-cafe-temecula,"['sandwiches', 'salad', 'newamerican']","['Sandwiches', 'Salad', 'American (New)']",33.5268,-117.15651,(951) 296-6251,33594.63948922857,rQ01I1iIWm_8kc-3tvLoJA,https://s3-media2.fl.yelpcdn.com/bphoto/SYZZa68xRCENMbP2JhFojA/o.jpg,40688 Winchester Rd,,,Temecula,US,CA,92591,Urbane Cafe,+19512966251,$,4.5,247,['delivery'],https://www.yelp.com/biz/urbane-cafe-temecula?adjust_creative=Wu9gfEkr1Iqmmu5UKQvcJw&utm_campaign=yelp_api_v3&utm_medium=api_v3_business_search&utm_source=Wu9gfEkr1Iqmmu5UKQvcJw
snax-valley-center,"['hotdog', 'pizza', 'sandwiches']","['Hot Dogs', 'Pizza', 'Sandwiches']",33.2198365786365,-116.973152160645,(760) 291-5500,13655.61201833938,BpvJPjUP8nx_ZO8ha9dRqA,https://s3-media2.fl.yelpcdn.com/bphoto/QGMrvy8GqMs4eaMsA_ZrXA/o.jpg,16300 Nyemii Pass Rd,,,Valley Center,US,CA,92082,Snax,+17602915500,$,2.5,13,[],https://www.yelp.com/biz/snax-valley-center?adjust_creative=Wu9gfEkr1Iqmmu5UKQvcJw&utm_campaign=yelp_api_v3&utm_medium=api_v3_business_search&utm_source=Wu9gfEkr1Iqmmu5UKQvcJw
native-foods-encinitas-2,"['vegan', 'vegetarian', 'newamerican']","['Vegan', 'Vegetarian', 'American (New)']",33.0480965810991,-117.257529387399,(760) 634-7607,23608.14296130359,oy41Z9IKrrbbjKOoIXobZg,https://s3-media3.fl.yelpcdn.com/bphoto/62K546QWYU6BAG4XH9SDKA/o.jpg,127 N El Camino Rd,,,Encinitas,US,CA,92024,Native Foods,+17606347607,$$,4.0,748,"['pickup', 'delivery']",https://www.yelp.com/biz/native-foods-encinitas-2?adjust_creative=Wu9gfEkr1Iqmmu5UKQvcJw&utm_campaign=yelp_api_v3&utm_medium=api_v3_business_search&utm_source=Wu9gfEkr1Iqmmu5UKQvcJw
oh-juice-cafe-encinitas-2,"['vegan', 'cafes', 'juicebars']","['Vegan', 'Cafes', 'Juice Bars & Smoothies']",33.04938,-117.29461,(760) 237-8977,25538.286891028045,9BEMQU0eAsfHJcKkRnKYDA,https://s3-media3.fl.yelpcdn.com/bphoto/QgoJN04C6DA1TkQaQPnrug/o.jpg,90 N Coast Hwy 101,Ste 212,,Encinitas,US,CA,92024,OH! Juice Cafe,+17602378977,$$,5.0,93,"['pickup', 'delivery']",https://www.yelp.com/biz/oh-juice-cafe-encinitas-2?adjust_creative=Wu9gfEkr1Iqmmu5UKQvcJw&utm_campaign=yelp_api_v3&utm_medium=api_v3_business_search&utm_source=Wu9gfEkr1Iqmmu5UKQvcJw
king-donuts-temecula,"['donuts', 'coffee', 'sandwiches']","['Donuts', 'Coffee & Tea', 'Sandwiches']",33.52457,-117.16138,(951) 296-3188,33414.064495339306,2qt1kYV73z4A60Ogc5cIyg,https://s3-media1.fl.yelpcdn.com/bphoto/JwXcrPjZ4vscTVhVriILWQ/o.jpg,41125 Winchester Rd,,,Temecula,US,CA,92591,King Donuts,+19512963188,$,4.0,50,[],https://www.yelp.com/biz/king-donuts-temecula?adjust_creative=Wu9gfEkr1Iqmmu5UKQvcJw&utm_campaign=yelp_api_v3&utm_medium=api_v3_business_search&utm_source=Wu9gfEkr1Iqmmu5UKQvcJw
the-crafty-butchers-san-diego,"['sandwiches', 'beerbar', 'newamerican']","['Sandwiches', 'Beer Bar', 'American (New)']",32.8845962139449,-117.152263928905,(858) 536-8163,38119.471553909876,yyWgpwC_T-cCePovWqS5nQ,https://s3-media1.fl.yelpcdn.com/bphoto/9B4vSYIurppI_u20mhBtpA/o.jpg,7590 Miramar Rd,Ste A,,San Diego,US,CA,92126,The Crafty Butchers,+18585368163,$$,4.0,190,"['pickup', 'delivery']",https://www.yelp.com/biz/the-crafty-butchers-san-diego?adjust_creative=Wu9gfEkr1Iqmmu5UKQvcJw&utm_campaign=yelp_api_v3&utm_medium=api_v3_business_search&utm_source=Wu9gfEkr1Iqmmu5UKQvcJw
siam-nara-san-diego,['thai'],['Thai'],32.91458,-117.13031,(858) 566-1300,34683.31505857902,2LIhL9aAv78xv6gfQNK8Og,https://s3-media2.fl.yelpcdn.com/bphoto/ASAwP4K2FgP9wuDeVFFzTg/o.jpg,8993 Mira Mesa Blvd,,,San Diego,US,CA,92126,Siam Nara,+18585661300,$$,4.0,1415,"['pickup', 'delivery']",https://www.yelp.com/biz/siam-nara-san-diego?adjust_creative=Wu9gfEkr1Iqmmu5UKQvcJw&utm_campaign=yelp_api_v3&utm_medium=api_v3_business_search&utm_source=Wu9gfEkr1Iqmmu5UKQvcJw
bangkok-bay-thai-restaurant-solana-beach-2,['thai'],['Thai'],32.98228,-117.27021,(858) 792-2427,30554.375382782106,QF9gTUX5Ir09ek2jBWQMTg,https://s3-media1.fl.yelpcdn.com/bphoto/Z0s9hoxvUrc3QIa9j2UH2A/o.jpg,731 S Hwy 101,,,Solana Beach,US,CA,92075,Bangkok Bay Thai Restaurant,+18587922427,$$,4.0,683,[],https://www.yelp.com/biz/bangkok-bay-thai-restaurant-solana-beach-2?adjust_creative=Wu9gfEkr1Iqmmu5UKQvcJw&utm_campaign=yelp_api_v3&utm_medium=api_v3_business_search&utm_source=Wu9gfEkr1Iqmmu5UKQvcJw
daisuki-ramen-temecula-2,"['ramen', 'noodles', 'asianfusion']","['Ramen', 'Noodles', 'Asian Fusion']",33.504498,-117.151319,(951) 587-0013,31113.46896355829,T1kN41MyT9KC_TXl0EOr7g,https://s3-media2.fl.yelpcdn.com/bphoto/E4dsvtf5-Y4KCvKPg-fO1g/o.jpg,27473 Ynez Rd,,,Temecula,US,CA,92591,Daisuki Ramen,+19515870013,$,3.5,53,"['pickup', 'delivery']",https://www.yelp.com/biz/daisuki-ramen-temecula-2?adjust_creative=Wu9gfEkr1Iqmmu5UKQvcJw&utm_campaign=yelp_api_v3&utm_medium=api_v3_business_search&utm_source=Wu9gfEkr1Iqmmu5UKQvcJw
gyu-kaku-japanese-bbq-san-diego-2,"['japanese', 'bbq', 'asianfusion']","['Japanese', 'Barbeque', 'Asian Fusion']",32.9148970454609,-117.114134112891,(858) 693-3790,34633.50966808397,3yYNEZEUPGha8eTziQ_U7g,https://s3-media2.fl.yelpcdn.com/bphoto/Orf5KT1NJ3Gxf6O3S0kh7Q/o.jpg,9844 Hibert St,Ste G-1,,San Diego,US,CA,92131,Gyu-Kaku Japanese BBQ,+18586933790,$$,4.0,981,[],https://www.yelp.com/biz/gyu-kaku-japanese-bbq-san-diego-2?adjust_creative=Wu9gfEkr1Iqmmu5UKQvcJw&utm_campaign=yelp_api_v3&utm_medium=api_v3_business_search&utm_source=Wu9gfEkr1Iqmmu5UKQvcJw
sun-hing-buffet-vista,"['buffets', 'chinese']","['Buffets', 'Chinese']",33.1846508919716,-117.282936562427,(760) 806-3586,15874.006646874786,AWQB--GdK2KHNwej0-F2bA,https://s3-media3.fl.yelpcdn.com/bphoto/ZWWg3o2sl180SSMWlHJK9A/o.jpg,1960 Hacienda Dr,,,Vista,US,CA,92081,Sun Hing Buffet,+17608063586,$$,3.0,174,[],https://www.yelp.com/biz/sun-hing-buffet-vista?adjust_creative=Wu9gfEkr1Iqmmu5UKQvcJw&utm_campaign=yelp_api_v3&utm_medium=api_v3_business_search&utm_source=Wu9gfEkr1Iqmmu5UKQvcJw
pan-asia-buffet-san-marcos,"['buffets', 'sushi', 'panasian']","['Buffets', 'Sushi Bars', 'Pan Asian']",33.133185,-117.122313,(760) 796-7708,10359.812773500096,NKzp6LMyD1hzjI4Zv9W61A,https://s3-media3.fl.yelpcdn.com/bphoto/7JEgdmJWf6PJVYwwu2W1WQ/o.jpg,707 Center Dr,,,San Marcos,US,CA,92069,Pan Asia Buffet,+17607967708,$$,3.5,494,[],https://www.yelp.com/biz/pan-asia-buffet-san-marcos?adjust_creative=Wu9gfEkr1Iqmmu5UKQvcJw&utm_campaign=yelp_api_v3&utm_medium=api_v3_business_search&utm_source=Wu9gfEkr1Iqmmu5UKQvcJw
chinatown-restaurant-encinitas-2,"['chinese', 'italian']","['Chinese', 'Italian']",33.064755,-117.300905,(760) 753-0565,24637.526119473605,Cj0HSg9eLUpUaDijuQh19g,https://s3-media2.fl.yelpcdn.com/bphoto/61FcTAZKppWp5WxCE8gUMw/o.jpg,118 Leucadia Blvd,,,Encinitas,US,CA,92024,Chinatown Restaurant,+17607530565,$,4.0,171,"['pickup', 'delivery']",https://www.yelp.com/biz/chinatown-restaurant-encinitas-2?adjust_creative=Wu9gfEkr1Iqmmu5UKQvcJw&utm_campaign=yelp_api_v3&utm_medium=api_v3_business_search&utm_source=Wu9gfEkr1Iqmmu5UKQvcJw
thai-pan-cuisine-encinitas,['thai'],['Thai'],33.047660832662,-117.26129311919,(760) 632-8800,23840.770494595567,TdGtWLjZ-y760XOnBLic5w,https://s3-media2.fl.yelpcdn.com/bphoto/PN_uhSdo62TMjiHpM1vy-g/o.jpg,138 N El Camino Real,,,Encinitas,US,CA,92024,Thai Pan Cuisine,+17606328800,$$,3.5,324,[],https://www.yelp.com/biz/thai-pan-cuisine-encinitas?adjust_creative=Wu9gfEkr1Iqmmu5UKQvcJw&utm_campaign=yelp_api_v3&utm_medium=api_v3_business_search&utm_source=Wu9gfEkr1Iqmmu5UKQvcJw
sabai-sabai-thai-kitchen-oceanside,['thai'],['Thai'],33.194199,-117.356512,(760) 529-5597,22314.420295083914,Jp6zElGdDUxWP9Wul634tg,https://s3-media3.fl.yelpcdn.com/bphoto/4yX7oK0OkJR-lkelsnCqHA/o.jpg,1906 Oceanside Blvd,Ste J,,Oceanside,US,CA,92054,Sabai Sabai Thai Kitchen,+17605295597,$$,4.5,245,"['pickup', 'delivery']",https://www.yelp.com/biz/sabai-sabai-thai-kitchen-oceanside?adjust_creative=Wu9gfEkr1Iqmmu5UKQvcJw&utm_campaign=yelp_api_v3&utm_medium=api_v3_business_search&utm_source=Wu9gfEkr1Iqmmu5UKQvcJw
sks-donuts-oceanside,"['donuts', 'breakfast_brunch', 'sandwiches']","['Donuts', 'Breakfast & Brunch', 'Sandwiches']",33.184116,-117.369995,(760) 722-0455,23758.61668757702,TDmNh6UG49W-1Hdds6b5Jw,https://s3-media2.fl.yelpcdn.com/bphoto/zaiPagBG1AL1qFXnhyG7eA/o.jpg,1129 S Coast Hwy,,,Oceanside,US,CA,92054,Sk's Donuts,+17607220455,$,4.5,97,['pickup'],https://www.yelp.com/biz/sks-donuts-oceanside?adjust_creative=Wu9gfEkr1Iqmmu5UKQvcJw&utm_campaign=yelp_api_v3&utm_medium=api_v3_business_search&utm_source=Wu9gfEkr1Iqmmu5UKQvcJw
boto-sushi-del-mar-del-mar-7,"['sushi', 'japanese', 'asianfusion']","['Sushi Bars', 'Japanese', 'Asian Fusion']",32.951247,-117.246129,(858) 847-2828,32775.300267121136,3tU-fKas38YNzZ5akOJFkw,https://s3-media2.fl.yelpcdn.com/bphoto/5K_-MZ8kA9QPabXHm3Z52w/o.jpg,2628 Del Mar Heights Rd,,,Del Mar,US,CA,92014,Boto Sushi Del Mar,+18588472828,$$,4.0,162,[],https://www.yelp.com/biz/boto-sushi-del-mar-del-mar-7?adjust_creative=Wu9gfEkr1Iqmmu5UKQvcJw&utm_campaign=yelp_api_v3&utm_medium=api_v3_business_search&utm_source=Wu9gfEkr1Iqmmu5UKQvcJw
thai-one-on-vista,"['thai', 'cocktailbars', 'seafood']","['Thai', 'Cocktail Bars', 'Seafood']",33.18853,-117.25433,(760) 643-1688,13221.587732543037,d_yH5eKEQQTwsfYS9O7V4g,https://s3-media1.fl.yelpcdn.com/bphoto/dbWdvB6ICG4cDaZ8G7cY0A/o.jpg,485 S Melrose Dr,,,Vista,US,CA,92081,Thai One On,+17606431688,$$,4.0,573,[],https://www.yelp.com/biz/thai-one-on-vista?adjust_creative=Wu9gfEkr1Iqmmu5UKQvcJw&utm_campaign=yelp_api_v3&utm_medium=api_v3_business_search&utm_source=Wu9gfEkr1Iqmmu5UKQvcJw
fung-fung-yuen-san-diego,['dimsum'],['Dim Sum'],32.9111813573066,-117.144599922932,(858) 578-8800,35119.136318550845,ZDF-Vv_DbAhzRW25VRqKjA,https://s3-media3.fl.yelpcdn.com/bphoto/toUIfIw4IV5GaWWLJ6O5_A/o.jpg,10660 Camino Ruiz,,,San Diego,US,CA,92126,Fung Fung Yuen,+18585788800,$$,3.0,839,[],https://www.yelp.com/biz/fung-fung-yuen-san-diego?adjust_creative=Wu9gfEkr1Iqmmu5UKQvcJw&utm_campaign=yelp_api_v3&utm_medium=api_v3_business_search&utm_source=Wu9gfEkr1Iqmmu5UKQvcJw
lucky-donuts-and-deli-san-diego,"['donuts', 'coffee', 'sandwiches']","['Donuts', 'Coffee & Tea', 'Sandwiches']",32.91728,-117.1125,(858) 578-7180,34383.88600109622,RT6Ps9KB_N3VECSGYWDdgA,https://s3-media1.fl.yelpcdn.com/bphoto/clZ5hke40uidU9bDiOr8DA/o.jpg,9910 Mira Mesa Blvd,Ste D2,,San Diego,US,CA,92131,Lucky Donuts & Deli,+18585787180,$,4.0,102,[],https://www.yelp.com/biz/lucky-donuts-and-deli-san-diego?adjust_creative=Wu9gfEkr1Iqmmu5UKQvcJw&utm_campaign=yelp_api_v3&utm_medium=api_v3_business_search&utm_source=Wu9gfEkr1Iqmmu5UKQvcJw
sage-cafe-lakeside,"['tradamerican', 'steak', 'asianfusion']","['American (Traditional)', 'Steakhouses', 'Asian Fusion']",32.9403135090958,-116.874285424286,(619) 443-2300,39172.22997353487,s0PIVrz-iWVP-iToneZpmA,https://s3-media1.fl.yelpcdn.com/bphoto/7Uh1SECPOUfh2xdAne8OwQ/o.jpg,1932 Wildcat Canyon Rd,,,Lakeside,US,CA,92040,Sage Cafe,+16194432300,$$,4.0,186,[],https://www.yelp.com/biz/sage-cafe-lakeside?adjust_creative=Wu9gfEkr1Iqmmu5UKQvcJw&utm_campaign=yelp_api_v3&utm_medium=api_v3_business_search&utm_source=Wu9gfEkr1Iqmmu5UKQvcJw
p-f-changs-carlsbad,"['chinese', 'asianfusion', 'gluten_free']","['Chinese', 'Asian Fusion', 'Gluten-Free']",33.1251713786098,-117.322928294477,(760) 795-0595,22002.149269076748,s6scKVmZ-PWs77o7yUNsuQ,https://s3-media2.fl.yelpcdn.com/bphoto/uqbj13Dt3uIB5GVd_Cpldw/o.jpg,5621 Paseo Del Norte,,,Carlsbad,US,CA,92008,P.F. Chang's,+17607950595,$$,3.0,465,"['pickup', 'delivery']",https://www.yelp.com/biz/p-f-changs-carlsbad?adjust_creative=Wu9gfEkr1Iqmmu5UKQvcJw&utm_campaign=yelp_api_v3&utm_medium=api_v3_business_search&utm_source=Wu9gfEkr1Iqmmu5UKQvcJw
snooze-an-a-m-eatery-san-diego-7,"['breakfast_brunch', 'coffee', 'sandwiches']","['Breakfast & Brunch', 'Coffee & Tea', 'Sandwiches']",32.953292969321,-117.232806150716,(858) 703-5300,32135.126216568045,gxwEOjyhbMYCBSQ7tB7aNw,https://s3-media4.fl.yelpcdn.com/bphoto/v-rSUY2ONCo6_ouzg3u7Hg/o.jpg,3435 Del Mar Heights Rd,Ste D3,,San Diego,US,CA,92130,"Snooze, An A.M. Eatery",+18587035300,$$,4.0,1992,[],https://www.yelp.com/biz/snooze-an-a-m-eatery-san-diego-7?adjust_creative=Wu9gfEkr1Iqmmu5UKQvcJw&utm_campaign=yelp_api_v3&utm_medium=api_v3_business_search&utm_source=Wu9gfEkr1Iqmmu5UKQvcJw
sandwich-emporium-san-diego-3,"['sandwiches', 'breakfast_brunch']","['Sandwiches', 'Breakfast & Brunch']",32.91099,-117.14746,(858) 831-8748,35155.37694073434,qKBI8KYnDsVAWfDxeA0pFg,https://s3-media2.fl.yelpcdn.com/bphoto/R7h3j6W_Fm8Owl_GQ-ri_g/o.jpg,8155 Mira Mesa Blvd,,,San Diego,US,CA,92126,Sandwich Emporium,+18588318748,$,4.0,267,"['pickup', 'delivery']",https://www.yelp.com/biz/sandwich-emporium-san-diego-3?adjust_creative=Wu9gfEkr1Iqmmu5UKQvcJw&utm_campaign=yelp_api_v3&utm_medium=api_v3_business_search&utm_source=Wu9gfEkr1Iqmmu5UKQvcJw
east-village-asian-diner-encinitas-2,"['asianfusion', 'japanese', 'korean']","['Asian Fusion', 'Japanese', 'Korean']",33.04421,-117.2939,(760) 753-8700,25936.35227044952,23T_cchBm0f45euKTRWtaA,https://s3-media4.fl.yelpcdn.com/bphoto/_jSLcXme4IsQnyq0q14lDQ/o.jpg,628 S Coast Hwy 101,,,Encinitas,US,CA,92024,East Village Asian Diner,+17607538700,$$,4.0,505,[],https://www.yelp.com/biz/east-village-asian-diner-encinitas-2?adjust_creative=Wu9gfEkr1Iqmmu5UKQvcJw&utm_campaign=yelp_api_v3&utm_medium=api_v3_business_search&utm_source=Wu9gfEkr1Iqmmu5UKQvcJw
mama-cinia-rice-and-noodles-san-diego,"['filipino', 'noodles', 'seafood']","['Filipino', 'Noodles', 'Seafood']",32.9173372,-117.1268268,(858) 860-5125,34262.79625343867,7DyWbyCm0g1FmsE7rjglVA,https://s3-media3.fl.yelpcdn.com/bphoto/jVFoq4sqiLYKQQOs1UX8fA/o.jpg,9178 Mira Mesa Blvd,,,San Diego,US,CA,92126,Mama Cinia Rice & Noodles,+18588605125,$,4.0,145,[],https://www.yelp.com/biz/mama-cinia-rice-and-noodles-san-diego?adjust_creative=Wu9gfEkr1Iqmmu5UKQvcJw&utm_campaign=yelp_api_v3&utm_medium=api_v3_business_search&utm_source=Wu9gfEkr1Iqmmu5UKQvcJw
urbane-cafe-san-diego-3,"['newamerican', 'sandwiches', 'salad']","['American (New)', 'Sandwiches', 'Salad']",32.90701,-117.1722,(858) 247-5005,35838.60011215574,1O5W8JJYIT2XNSt8s9Exkg,https://s3-media3.fl.yelpcdn.com/bphoto/xIiCS2Z8xA1ZXowz1iLyGA/o.jpg,6765 Mira Mesa Blvd,,,San Diego,US,CA,92121,Urbane Cafe,+18582475005,$,4.5,368,['delivery'],https://www.yelp.com/biz/urbane-cafe-san-diego-3?adjust_creative=Wu9gfEkr1Iqmmu5UKQvcJw&utm_campaign=yelp_api_v3&utm_medium=api_v3_business_search&utm_source=Wu9gfEkr1Iqmmu5UKQvcJw
tapioca-express-oceanside,"['coffee', 'bubbletea', 'juicebars']","['Coffee & Tea', 'Bubble Tea', 'Juice Bars & Smoothies']",33.1817394685432,-117.331688739359,(760) 722-8279,20332.368911844707,3GgxuWXXeApfQsVwdi60zw,https://s3-media4.fl.yelpcdn.com/bphoto/TQK9L5avJz_OfrNwX5AO5w/o.jpg,2611 Vista Way,Ste B,,Oceanside,US,CA,92054,Tapioca Express,+17607228279,$,3.5,238,[],https://www.yelp.com/biz/tapioca-express-oceanside?adjust_creative=Wu9gfEkr1Iqmmu5UKQvcJw&utm_campaign=yelp_api_v3&utm_medium=api_v3_business_search&utm_source=Wu9gfEkr1Iqmmu5UKQvcJw
the-mandarin-oceanside,['chinese'],['Chinese'],33.1999772279184,-117.374549718524,(760) 439-0288,23884.300491234386,DXRYScpMT3uzD_sA5OfTIA,https://s3-media3.fl.yelpcdn.com/bphoto/6-BASBCIasWgqsR310GUIg/o.jpg,1058 Mission Ave,,,Oceanside,US,CA,92054,The Mandarin,+17604390288,$,3.5,248,[],https://www.yelp.com/biz/the-mandarin-oceanside?adjust_creative=Wu9gfEkr1Iqmmu5UKQvcJw&utm_campaign=yelp_api_v3&utm_medium=api_v3_business_search&utm_source=Wu9gfEkr1Iqmmu5UKQvcJw
royal-india-san-diego-9,"['indpak', 'vegetarian', 'vegan']","['Indian', 'Vegetarian', 'Vegan']",32.9388553647332,-117.232236691003,(858) 792-1111,33639.6548879852,TGScAmsNy3GWTneNjqfb4w,https://s3-media2.fl.yelpcdn.com/bphoto/hbtZwkE5m373wEfKumsMnw/o.jpg,3860 Valley Center Dr,Ste 402,,San Diego,US,CA,92130,Royal India,+18587921111,$$,4.0,365,"['pickup', 'restaurant_reservation']",https://www.yelp.com/biz/royal-india-san-diego-9?adjust_creative=Wu9gfEkr1Iqmmu5UKQvcJw&utm_campaign=yelp_api_v3&utm_medium=api_v3_business_search&utm_source=Wu9gfEkr1Iqmmu5UKQvcJw
pei-wei-san-diego-2,"['asianfusion', 'chinese', 'gluten_free']","['Asian Fusion', 'Chinese', 'Gluten-Free']",33.019783,-117.110514,(858) 207-2730,22982.884904421175,c9PmC1tfhl2P5AYgkrJG6w,https://s3-media2.fl.yelpcdn.com/bphoto/d1ZXKXSsdXeRN2g2hGC00A/o.jpg,10562 Craftsman Way,,,San Diego,US,CA,92127,Pei Wei,+18582072730,$,2.5,256,[],https://www.yelp.com/biz/pei-wei-san-diego-2?adjust_creative=Wu9gfEkr1Iqmmu5UKQvcJw&utm_campaign=yelp_api_v3&utm_medium=api_v3_business_search&utm_source=Wu9gfEkr1Iqmmu5UKQvcJw
spices-thai-cafe-san-diego-5,['thai'],['Thai'],32.9384814710927,-117.230509780347,(858) 259-0889,33629.451870242054,--_mJP54xkuboSG5eJ-bpg,https://s3-media3.fl.yelpcdn.com/bphoto/dDNieQjCsNY4f-5NDfnXnA/o.jpg,3810 Valley Centre Dr,Ste 903,,San Diego,US,CA,92130,Spices Thai Cafe,+18582590889,$$,3.5,489,"['pickup', 'delivery']",https://www.yelp.com/biz/spices-thai-cafe-san-diego-5?adjust_creative=Wu9gfEkr1Iqmmu5UKQvcJw&utm_campaign=yelp_api_v3&utm_medium=api_v3_business_search&utm_source=Wu9gfEkr1Iqmmu5UKQvcJw
french-corner-encinitas,"['bakeries', 'sandwiches', 'cafes']","['Bakeries', 'Sandwiches', 'Cafes']",33.0694548802243,-117.304170951247,(760) 230-2221,24475.756228144754,QE4usCtkfNLOUpeALZm6Aw,https://s3-media4.fl.yelpcdn.com/bphoto/W21Nt2cb9aylGA8CaHKzOg/o.jpg,1200 N Coast Hwy 101,,,Encinitas,US,CA,92024,French Corner,+17602302221,$$,4.0,232,[],https://www.yelp.com/biz/french-corner-encinitas?adjust_creative=Wu9gfEkr1Iqmmu5UKQvcJw&utm_campaign=yelp_api_v3&utm_medium=api_v3_business_search&utm_source=Wu9gfEkr1Iqmmu5UKQvcJw
spices-thai-cafe-san-diego,"['thai', 'noodles', 'breakfast_brunch']","['Thai', 'Noodles', 'Breakfast & Brunch']",32.9065177234206,-117.171498835087,(858) 552-8845,35886.74528237149,2yvwJ41L4Xws1-v4O-6S8A,https://s3-media1.fl.yelpcdn.com/bphoto/JvOmbS70YKZhok2_Ok9CSQ/o.jpg,6785 Mira Mesa Blvd,Ste 143,,San Diego,US,CA,92121,Spices Thai Cafe,+18585528845,$$,3.5,575,[],https://www.yelp.com/biz/spices-thai-cafe-san-diego?adjust_creative=Wu9gfEkr1Iqmmu5UKQvcJw&utm_campaign=yelp_api_v3&utm_medium=api_v3_business_search&utm_source=Wu9gfEkr1Iqmmu5UKQvcJw
greensplease-san-diego,"['juicebars', 'vegan', 'gluten_free']","['Juice Bars & Smoothies', 'Vegan', 'Gluten-Free']",32.9512697,-117.0675314,(858) 842-1001,30969.589826589476,M34QPA68ziDRYaj2c97Rpg,https://s3-media3.fl.yelpcdn.com/bphoto/g6AMfkdAboeU20gnNWNGUw/o.jpg,12202 Poway Rd,Ste 100,,San Diego,US,CA,92064,GreensPlease,+18588421001,$$,5.0,233,"['pickup', 'delivery']",https://www.yelp.com/biz/greensplease-san-diego?adjust_creative=Wu9gfEkr1Iqmmu5UKQvcJw&utm_campaign=yelp_api_v3&utm_medium=api_v3_business_search&utm_source=Wu9gfEkr1Iqmmu5UKQvcJw
which-wich-superior-sandwiches-temecula-2,"['sandwiches', 'hotdogs', 'salad']","['Sandwiches', 'Fast Food', 'Salad']",33.4832228,-117.0963568,(951) 302-8070,28647.834643406353,ZYX5N-z8FXyGLbqsgPQ6bw,https://s3-media3.fl.yelpcdn.com/bphoto/mABrMN25mNLlaJRXvhKN0g/o.jpg,32140 Temecula Pkwy,Ste J-102,,Temecula,US,CA,92592,Which Wich? Superior Sandwiches,+19513028070,$,4.0,116,"['pickup', 'delivery']",https://www.yelp.com/biz/which-wich-superior-sandwiches-temecula-2?adjust_creative=Wu9gfEkr1Iqmmu5UKQvcJw&utm_campaign=yelp_api_v3&utm_medium=api_v3_business_search&utm_source=Wu9gfEkr1Iqmmu5UKQvcJw
seaside-buffet-san-diego,"['buffets', 'chinese', 'seafood']","['Buffets', 'Chinese', 'Seafood']",32.8945113449462,-117.131427973509,(858) 566-1888,36912.382527053436,PVwxsEs-DwYuvznyQcKAGg,https://s3-media1.fl.yelpcdn.com/bphoto/nbSI8gk1kajna1qBmhAyUA/o.jpg,8998 Miramar Rd,,,San Diego,US,CA,92126,Seaside Buffet,+18585661888,$$,3.5,495,[],https://www.yelp.com/biz/seaside-buffet-san-diego?adjust_creative=Wu9gfEkr1Iqmmu5UKQvcJw&utm_campaign=yelp_api_v3&utm_medium=api_v3_business_search&utm_source=Wu9gfEkr1Iqmmu5UKQvcJw
grandmas-kitchen-san-diego,"['breakfast_brunch', 'sandwiches', 'delis']","['Breakfast & Brunch', 'Sandwiches', 'Delis']",32.9042756,-117.2153554,(858) 202-1500,36771.7818519793,DOaA3TFxoyuaQpxkR0o8Ig,https://s3-media1.fl.yelpcdn.com/bphoto/Uy0Amj_hGfrcL4AwchG6hA/o.jpg,4204 Sorrento Valley Blvd,,,San Diego,US,CA,92121,Grandma's Kitchen,+18582021500,$,4.0,29,"['pickup', 'delivery']",https://www.yelp.com/biz/grandmas-kitchen-san-diego?adjust_creative=Wu9gfEkr1Iqmmu5UKQvcJw&utm_campaign=yelp_api_v3&utm_medium=api_v3_business_search&utm_source=Wu9gfEkr1Iqmmu5UKQvcJw
quality-taste-hot-pot-san-diego-2,"['chinese', 'hotpot']","['Chinese', 'Hot Pot']",32.9165726866585,-117.125524103577,(858) 536-1886,34447.43269674119,lz8ERRUyIgzsEgS8xmdk5w,https://s3-media1.fl.yelpcdn.com/bphoto/rhDy0o9WT_zzzU10Vis7ww/o.jpg,9225 Mira Mesa Blvd,Ste 110,,San Diego,US,CA,92126,Quality Taste Hot Pot,+18585361886,$$,3.5,359,"['pickup', 'delivery']",https://www.yelp.com/biz/quality-taste-hot-pot-san-diego-2?adjust_creative=Wu9gfEkr1Iqmmu5UKQvcJw&utm_campaign=yelp_api_v3&utm_medium=api_v3_business_search&utm_source=Wu9gfEkr1Iqmmu5UKQvcJw
johnnys-rutherford-cafe-carlsbad,"['sandwiches', 'salad', 'juicebars']","['Sandwiches', 'Salad', 'Juice Bars & Smoothies']",33.1326195945097,-117.274938143868,(760) 431-1918,17809.085180501774,VJ1SApFSPC8D5J_9gt6tdw,https://s3-media3.fl.yelpcdn.com/bphoto/ljzZeh5WqJPw7vD1NOkeTg/o.jpg,2262 Rutherford Rd,Ste 102,,Carlsbad,US,CA,92008,Johnny's Rutherford Cafe,+17604311918,$,4.0,104,"['pickup', 'delivery']",https://www.yelp.com/biz/johnnys-rutherford-cafe-carlsbad?adjust_creative=Wu9gfEkr1Iqmmu5UKQvcJw&utm_campaign=yelp_api_v3&utm_medium=api_v3_business_search&utm_source=Wu9gfEkr1Iqmmu5UKQvcJw
jade-china-murrieta,"['chinese', 'salad', 'seafood']","['Chinese', 'Salad', 'Seafood']",33.567375,-117.203842,(951) 461-8278,38717.76188090544,b8y9S4MGbv_5J_5DxM42zA,https://s3-media4.fl.yelpcdn.com/bphoto/oruqhw9cN4xovaTHv6bmuA/o.jpg,40982 California Oaks Rd,,,Murrieta,US,CA,92562,Jade China,+19514618278,$,3.5,369,"['pickup', 'delivery']",https://www.yelp.com/biz/jade-china-murrieta?adjust_creative=Wu9gfEkr1Iqmmu5UKQvcJw&utm_campaign=yelp_api_v3&utm_medium=api_v3_business_search&utm_source=Wu9gfEkr1Iqmmu5UKQvcJw
wahine-kai-shave-ice-kona-coffee-and-tea-station-san-diego-13,"['shavedice', 'bubbletea', 'coffee']","['Shaved Ice', 'Bubble Tea', 'Coffee & Tea']",32.9359641908203,-117.10127055645,(858) 831-0903,32332.87592956718,ntYt449tV2QyrVVNOEgHug,https://s3-media4.fl.yelpcdn.com/bphoto/b2K855baBFEmEq3PdS5kyg/o.jpg,10545 Scripps Poway Pkwy,Ste B,,San Diego,US,CA,92131,"Wahine Kai Shave Ice, Kona Coffee and Tea Station",+18588310903,$,4.5,438,[],https://www.yelp.com/biz/wahine-kai-shave-ice-kona-coffee-and-tea-station-san-diego-13?adjust_creative=Wu9gfEkr1Iqmmu5UKQvcJw&utm_campaign=yelp_api_v3&utm_medium=api_v3_business_search&utm_source=Wu9gfEkr1Iqmmu5UKQvcJw
panera-bread-temecula,"['sandwiches', 'salad', 'soup']","['Sandwiches', 'Salad', 'Soup']",33.519623,-117.153862,(951) 699-3048,32766.29121259416,3cjz0wlvsyshz_T_MaFEIQ,https://s3-media3.fl.yelpcdn.com/bphoto/gliV1pZ35qs4Qi0Qzv1I4g/o.jpg,41793 Nicole Ln,,,Temecula,US,CA,92591,Panera Bread,+19516993048,$,3.0,215,[],https://www.yelp.com/biz/panera-bread-temecula?adjust_creative=Wu9gfEkr1Iqmmu5UKQvcJw&utm_campaign=yelp_api_v3&utm_medium=api_v3_business_search&utm_source=Wu9gfEkr1Iqmmu5UKQvcJw
sharetea-san-diego-6,"['coffee', 'bubbletea', 'juicebars']","['Coffee & Tea', 'Bubble Tea', 'Juice Bars & Smoothies']",32.9164909763559,-117.113855145872,(858) 860-5985,34456.69775235759,rgvYlrBuCArK9iVqkv6KIw,https://s3-media2.fl.yelpcdn.com/bphoto/iOqI7XrMW9pFn7znN9gv2Q/o.jpg,9827 Mira Mesa Blvd,,,San Diego,US,CA,92131,Sharetea,+18588605985,$,3.5,240,[],https://www.yelp.com/biz/sharetea-san-diego-6?adjust_creative=Wu9gfEkr1Iqmmu5UKQvcJw&utm_campaign=yelp_api_v3&utm_medium=api_v3_business_search&utm_source=Wu9gfEkr1Iqmmu5UKQvcJw
wich-addiction-sorrento-valley-san-diego,"['sandwiches', 'salad', 'beerbar']","['Sandwiches', 'Salad', 'Beer Bar']",32.90601,-117.17764,(858) 412-3735,36020.55457371808,wuAd6gfBUPFmxhHy0OEjXg,https://s3-media3.fl.yelpcdn.com/bphoto/dfsYN3aPDWbxFdiZaG0saw/o.jpg,6625 Flanders Dr,Ste B,,San Diego,US,CA,92121,Wich Addiction - Sorrento Valley,+18584123735,$$,4.0,528,"['pickup', 'delivery']",https://www.yelp.com/biz/wich-addiction-sorrento-valley-san-diego?adjust_creative=Wu9gfEkr1Iqmmu5UKQvcJw&utm_campaign=yelp_api_v3&utm_medium=api_v3_business_search&utm_source=Wu9gfEkr1Iqmmu5UKQvcJw
takhrai-thai-poway-3,['thai'],['Thai'],32.93386,-117.06075,(858) 549-1848,32979.94242232581,vaJ9jKv6I4MbMOcLXOrp9g,https://s3-media2.fl.yelpcdn.com/bphoto/sn3rYeH0Jh9YyursUYcA0A/o.jpg,12265 Scripps Poway Pkwy,Ste 116,,Poway,US,CA,92064,Takhrai Thai,+18585491848,$$,3.5,479,['pickup'],https://www.yelp.com/biz/takhrai-thai-poway-3?adjust_creative=Wu9gfEkr1Iqmmu5UKQvcJw&utm_campaign=yelp_api_v3&utm_medium=api_v3_business_search&utm_source=Wu9gfEkr1Iqmmu5UKQvcJw
royal-india-miramar-san-diego-7,"['indpak', 'vegetarian', 'halal']","['Indian', 'Vegetarian', 'Halal']",32.895,-117.13225,(858) 457-9999,36817.67519046911,6S6Ly1ZCr3BPEfb93z2xwg,https://s3-media1.fl.yelpcdn.com/bphoto/8GeVM6VO6OyEHZ_ZcbFRPA/o.jpg,8990 Miramar Rd,Ste 200,,San Diego,US,CA,92126,Royal India - Miramar,+18584579999,$$,4.0,387,"['restaurant_reservation', 'pickup', 'delivery']",https://www.yelp.com/biz/royal-india-miramar-san-diego-7?adjust_creative=Wu9gfEkr1Iqmmu5UKQvcJw&utm_campaign=yelp_api_v3&utm_medium=api_v3_business_search&utm_source=Wu9gfEkr1Iqmmu5UKQvcJw
square-bar-cafe-san-diego-4,"['bubbletea', 'desserts', 'coffee']","['Bubble Tea', 'Desserts', 'Coffee & Tea']",32.9105417876588,-117.147373322487,(858) 695-8897,35208.048564708995,r2rd-s-8c9qcLT6YN4y-Pg,https://s3-media2.fl.yelpcdn.com/bphoto/nC-yVmloPr_b6VybnNtxwg/o.jpg,8155 Mira Mesa Blvd,Ste 4,,San Diego,US,CA,92126,Square Bar Cafe,+18586958897,$,3.0,197,[],https://www.yelp.com/biz/square-bar-cafe-san-diego-4?adjust_creative=Wu9gfEkr1Iqmmu5UKQvcJw&utm_campaign=yelp_api_v3&utm_medium=api_v3_business_search&utm_source=Wu9gfEkr1Iqmmu5UKQvcJw
bite-food-san-diego-san-diego,"['vegan', 'healthmarkets', 'foodstands']","['Vegan', 'Health Markets', 'Food Stands']",32.74681,-117.16058,(858) 226-2250,53176.70179614303,oVdm1itewcpv-Kyv7jLzKg,https://s3-media2.fl.yelpcdn.com/bphoto/qwDGIC98wVuP-oScNg-toA/o.jpg,,,,San Diego,US,CA,92103,Bite Food San Diego,+18582262250,$$,4.5,19,[],https://www.yelp.com/biz/bite-food-san-diego-san-diego?adjust_creative=Wu9gfEkr1Iqmmu5UKQvcJw&utm_campaign=yelp_api_v3&utm_medium=api_v3_business_search&utm_source=Wu9gfEkr1Iqmmu5UKQvcJw
which-wich-san-diego-8,['sandwiches'],['Sandwiches'],32.9542143377701,-117.230598010191,(858) 259-9424,31971.298636070485,hc8EsVdSYMXBvok8ruyuOg,https://s3-media3.fl.yelpcdn.com/bphoto/ZdbtwRl3smYACJs1MdYLTQ/o.jpg,3545 Del Mar Heights Rd,Ste C3,,San Diego,US,CA,92130,Which Wich,+18582599424,$,3.0,124,"['pickup', 'delivery']",https://www.yelp.com/biz/which-wich-san-diego-8?adjust_creative=Wu9gfEkr1Iqmmu5UKQvcJw&utm_campaign=yelp_api_v3&utm_medium=api_v3_business_search&utm_source=Wu9gfEkr1Iqmmu5UKQvcJw
little-wok-temecula,['chinese'],['Chinese'],33.45335,-117.10782,(951) 770-8348,25572.85865335673,tfhPiMGveJs_aicW4G6hjw,https://s3-media3.fl.yelpcdn.com/bphoto/74PjFqMIKTN7yPTDH-YOfA/o.jpg,Pechanga Casino Foodcourt,45000 Pechanga Pkwy,,Temecula,US,CA,92592,Little Wok,+19517708348,$,1.5,21,[],https://www.yelp.com/biz/little-wok-temecula?adjust_creative=Wu9gfEkr1Iqmmu5UKQvcJw&utm_campaign=yelp_api_v3&utm_medium=api_v3_business_search&utm_source=Wu9gfEkr1Iqmmu5UKQvcJw
wow-wok-san-diego,"['chinese', 'chicken_wings']","['Chinese', 'Chicken Wings']",32.8935699305736,-117.203596830368,(858) 320-0088,37817.06523435198,pkNNESwuPqnCPVNVwikAJw,https://s3-media3.fl.yelpcdn.com/bphoto/E01Gk_ecDumA0qCAa3K8HQ/o.jpg,9440 Scranton Rd,,,San Diego,US,CA,92121,Wow Wok,+18583200088,$,2.5,32,[],https://www.yelp.com/biz/wow-wok-san-diego?adjust_creative=Wu9gfEkr1Iqmmu5UKQvcJw&utm_campaign=yelp_api_v3&utm_medium=api_v3_business_search&utm_source=Wu9gfEkr1Iqmmu5UKQvcJw
pei-wei-encinitas,"['chinese', 'gluten_free', 'asianfusion']","['Chinese', 'Gluten-Free', 'Asian Fusion']",33.068531036377,-117.265289306641,(760) 635-2888,22181.250976102172,0wN1Iz1pGQ5IBEGeAtWCEA,https://s3-media3.fl.yelpcdn.com/bphoto/k7AnLU2_bOnIFdcL-DDFgw/o.jpg,1560-A Leucadia Blvd,,,Encinitas,US,CA,92024,Pei Wei,+17606352888,$,3.0,170,"['pickup', 'delivery']",https://www.yelp.com/biz/pei-wei-encinitas?adjust_creative=Wu9gfEkr1Iqmmu5UKQvcJw&utm_campaign=yelp_api_v3&utm_medium=api_v3_business_search&utm_source=Wu9gfEkr1Iqmmu5UKQvcJw
le-rendez-vous-french-bakery-oceanside,"['bakeries', 'coffee', 'sandwiches']","['Bakeries', 'Coffee & Tea', 'Sandwiches']",33.2073504,-117.2835798,(760) 414-9109,15388.083144356124,Qv2EtLhMJc5mUTx29bCNnw,https://s3-media4.fl.yelpcdn.com/bphoto/buJX2Z_KaQdaUL-7OGIrLg/o.jpg,4225 Oceanside Blvd,Ste Q,,Oceanside,US,CA,92056,Le Rendez-Vous French Bakery,+17604149109,$$,3.5,165,[],https://www.yelp.com/biz/le-rendez-vous-french-bakery-oceanside?adjust_creative=Wu9gfEkr1Iqmmu5UKQvcJw&utm_campaign=yelp_api_v3&utm_medium=api_v3_business_search&utm_source=Wu9gfEkr1Iqmmu5UKQvcJw
claires-on-cedros-solana-beach,"['breakfast_brunch', 'sandwiches', 'coffee']","['Breakfast & Brunch', 'Sandwiches', 'Coffee & Tea']",32.9949582,-117.2712248,(858) 259-8597,29341.512707345813,3yQtkLcDAqMVX5oNYHyJhA,https://s3-media4.fl.yelpcdn.com/bphoto/IMSJjzzEGQzOBGBLH6DtEg/o.jpg,246 N Cedros Ave,,,Solana Beach,US,CA,92075,Claire's On Cedros,+18582598597,$$,4.0,1255,"['pickup', 'delivery']",https://www.yelp.com/biz/claires-on-cedros-solana-beach?adjust_creative=Wu9gfEkr1Iqmmu5UKQvcJw&utm_campaign=yelp_api_v3&utm_medium=api_v3_business_search&utm_source=Wu9gfEkr1Iqmmu5UKQvcJw
corner-house-cafe-and-pizzeria-san-diego,"['sandwiches', 'pizza', 'juicebars']","['Sandwiches', 'Pizza', 'Juice Bars & Smoothies']",32.91616,-117.23664,(858) 755-3183,36166.59853607047,eaJCSBq0pyg6wxQ0EVPg3A,https://s3-media4.fl.yelpcdn.com/bphoto/OL6Se5LZ0jPCgf4JiUD3Hg/o.jpg,11815 Sorrento Valley Rd,,,San Diego,US,CA,92121,Corner House Cafe & Pizzeria,+18587553183,$,4.0,239,"['pickup', 'delivery']",https://www.yelp.com/biz/corner-house-cafe-and-pizzeria-san-diego?adjust_creative=Wu9gfEkr1Iqmmu5UKQvcJw&utm_campaign=yelp_api_v3&utm_medium=api_v3_business_search&utm_source=Wu9gfEkr1Iqmmu5UKQvcJw
board-and-brew-carlsbad-bressi-ranch-carlsbad,"['sandwiches', 'beerbar', 'cafes']","['Sandwiches', 'Beer Bar', 'Cafes']",33.1274036,-117.2526507,(760) 929-2739,16552.48497461028,gJzoi-QJ9d1LZGoaTpBRFQ,https://s3-media3.fl.yelpcdn.com/bphoto/mEivmuguEI3u-F7HMDuYBw/o.jpg,2681 Gateway Rd,Ste 103,,Carlsbad,US,CA,92009,Board & Brew - Carlsbad Bressi Ranch,+17609292739,$,4.0,527,['pickup'],https://www.yelp.com/biz/board-and-brew-carlsbad-bressi-ranch-carlsbad?adjust_creative=Wu9gfEkr1Iqmmu5UKQvcJw&utm_campaign=yelp_api_v3&utm_medium=api_v3_business_search&utm_source=Wu9gfEkr1Iqmmu5UKQvcJw
chowking-san-diego,"['filipino', 'chinese', 'hotdogs']","['Filipino', 'Chinese', 'Fast Food']",32.9138221740723,-117.131454467773,(858) 653-4977,34789.588187151894,Ssng0DZsIj05nAZdq1-NNg,https://s3-media4.fl.yelpcdn.com/bphoto/CPkA55z3cUN24BM7yAfqIQ/o.jpg,8955 Mira Mesa Blvd,,,San Diego,US,CA,92126,Chowking,+18586534977,$,2.0,157,[],https://www.yelp.com/biz/chowking-san-diego?adjust_creative=Wu9gfEkr1Iqmmu5UKQvcJw&utm_campaign=yelp_api_v3&utm_medium=api_v3_business_search&utm_source=Wu9gfEkr1Iqmmu5UKQvcJw
tea-station-san-diego,"['desserts', 'juicebars', 'bubbletea']","['Desserts', 'Juice Bars & Smoothies', 'Bubble Tea']",32.9149905,-117.1310557,(858) 527-1888,34649.00972782803,7bFi2n9ZjUX84ZrTDTPwDA,https://s3-media3.fl.yelpcdn.com/bphoto/p7RFdwFOxh9ueknGo6WcYQ/o.jpg,9003 Mira Mesa Blvd,,,San Diego,US,CA,92126,Tea Station,+18585271888,$$,2.5,664,[],https://www.yelp.com/biz/tea-station-san-diego?adjust_creative=Wu9gfEkr1Iqmmu5UKQvcJw&utm_campaign=yelp_api_v3&utm_medium=api_v3_business_search&utm_source=Wu9gfEkr1Iqmmu5UKQvcJw
