alias,categories_alias,categories_title,coordinates_latitude,coordinates_longitude,display_phone,distance,id,image_url,location_address1,location_address2,location_address3,location_city,location_country,location_state,location_zip_code,name,phone,price,rating,review_count,transactions,url
noahs-vietnamese-fusion-cuisine-merced-2,['vietnamese'],['Vietnamese'],37.30732,-120.49517,(209) 349-8660,19081.028743350416,mnWlqpe03CtVyk7-ZMPdbg,https://s3-media1.fl.yelpcdn.com/bphoto/zWipAjzCQHIGM2oGOTl5GQ/o.jpg,1327 W 18th St,,,Merced,US,CA,95340,Noahs Vietnamese Fusion Cuisine,+12093498660,$,4.0,232,[],https://www.yelp.com/biz/noahs-vietnamese-fusion-cuisine-merced-2?adjust_creative=Wu9gfEkr1Iqmmu5UKQvcJw&utm_campaign=yelp_api_v3&utm_medium=api_v3_business_search&utm_source=Wu9gfEkr1Iqmmu5UKQvcJw
pho-7-anh-turlock,"['vietnamese', 'thai', 'laotian']","['Vietnamese', 'Thai', 'Laotian']",37.4981137,-120.8487334,(209) 620-8022,18988.748842862744,VNf6jfpjO5ydi1G9W0FV-g,https://s3-media2.fl.yelpcdn.com/bphoto/MmWP0j9mZqYlMHPUe_AT0g/o.jpg,503 N Golden State Blvd,,,Turlock,US,CA,95380,Pho 7 Anh,+12096208022,$,4.0,213,"['delivery', 'pickup']",https://www.yelp.com/biz/pho-7-anh-turlock?adjust_creative=Wu9gfEkr1Iqmmu5UKQvcJw&utm_campaign=yelp_api_v3&utm_medium=api_v3_business_search&utm_source=Wu9gfEkr1Iqmmu5UKQvcJw
saigon-pho-and-sandwiches-merced-2,['vietnamese'],['Vietnamese'],37.317673,-120.4727,(209) 233-9234,19918.908790224898,O5w01A7zVeQt-uNRLb--xA,https://s3-media4.fl.yelpcdn.com/bphoto/hOJ5ywjC5o1YdYPJIZBp5g/o.jpg,3040 Park Ave,Ste E3,,Merced,US,CA,95348,Saigon Pho & Sandwiches,+12092339234,$,2.5,169,[],https://www.yelp.com/biz/saigon-pho-and-sandwiches-merced-2?adjust_creative=Wu9gfEkr1Iqmmu5UKQvcJw&utm_campaign=yelp_api_v3&utm_medium=api_v3_business_search&utm_source=Wu9gfEkr1Iqmmu5UKQvcJw
pho-zab-merced,"['laotian', 'thai']","['Laotian', 'Thai']",37.33099,-120.5284,(209) 354-0108,15146.618742226992,zhXjVBc4VG6-6h0rF_mMoA,https://s3-media2.fl.yelpcdn.com/bphoto/9Xn0lPk-dRONQMGvquabjg/o.jpg,2961 Beachwood Dr,,,Merced,US,CA,95348,Pho Zab,+12093540108,$,4.0,40,[],https://www.yelp.com/biz/pho-zab-merced?adjust_creative=Wu9gfEkr1Iqmmu5UKQvcJw&utm_campaign=yelp_api_v3&utm_medium=api_v3_business_search&utm_source=Wu9gfEkr1Iqmmu5UKQvcJw
ju-ju-thai-cuisine-turlock,['thai'],['Thai'],37.4928849,-120.8487714,(209) 815-8424,18748.268354473115,9pDR1dr0x_ESCp-7fc3GAw,https://s3-media4.fl.yelpcdn.com/bphoto/1p8esJsf-vZ4HP4pj1IKIw/o.jpg,235 W Main St,,,Turlock,US,CA,95380,Ju Ju Thai Cuisine,+12098158424,$$,4.5,239,[],https://www.yelp.com/biz/ju-ju-thai-cuisine-turlock?adjust_creative=Wu9gfEkr1Iqmmu5UKQvcJw&utm_campaign=yelp_api_v3&utm_medium=api_v3_business_search&utm_source=Wu9gfEkr1Iqmmu5UKQvcJw
sam-cafe-merced,['thai'],['Thai'],37.29508,-120.48258,(209) 383-5350,20820.135315763648,0VjXSKtLG0NYRog6M1-qRg,https://s3-media4.fl.yelpcdn.com/bphoto/6BCZTDJ2LwmpweouQ_4--g/o.jpg,235 W 12th St,,,Merced,US,CA,95340,Sam Cafe,+12093835350,$$,4.0,326,[],https://www.yelp.com/biz/sam-cafe-merced?adjust_creative=Wu9gfEkr1Iqmmu5UKQvcJw&utm_campaign=yelp_api_v3&utm_medium=api_v3_business_search&utm_source=Wu9gfEkr1Iqmmu5UKQvcJw
the-papaya-lady-merced,['importedfood'],['Imported Food'],37.3004032983338,-120.47969520092,(209) 756-8131,20620.29190214772,AOtc84nxT32LoaICSTRFZA,https://s3-media4.fl.yelpcdn.com/bphoto/tArzdDtZQvoCp2pvq0sg4g/o.jpg,235 W Main St,,,Merced,US,CA,95340,The Papaya Lady,+12097568131,$,5.0,61,[],https://www.yelp.com/biz/the-papaya-lady-merced?adjust_creative=Wu9gfEkr1Iqmmu5UKQvcJw&utm_campaign=yelp_api_v3&utm_medium=api_v3_business_search&utm_source=Wu9gfEkr1Iqmmu5UKQvcJw
houa-khong-restaurant-merced,['thai'],['Thai'],37.29423,-120.47694,(209) 722-5541,21263.765996260114,08dL7eunshx9QRfaYiKJKQ,https://s3-media2.fl.yelpcdn.com/bphoto/TEHn2f7vTaFle_7BIiVUxA/o.jpg,85 E 13th St,,,Merced,US,CA,95340,Houa Khong Restaurant,+12097225541,$,4.0,87,[],https://www.yelp.com/biz/houa-khong-restaurant-merced?adjust_creative=Wu9gfEkr1Iqmmu5UKQvcJw&utm_campaign=yelp_api_v3&utm_medium=api_v3_business_search&utm_source=Wu9gfEkr1Iqmmu5UKQvcJw
new-thai-cuisine-merced,['thai'],['Thai'],37.3029670715332,-120.49015045166,(209) 726-1048,19738.12846292308,S4Pdp9pV9OocTEmzGBW1KQ,https://s3-media3.fl.yelpcdn.com/bphoto/Yu4aLm010uX7r1F6Em4-6Q/o.jpg,909 W 16th St,,,Merced,US,CA,95340,New Thai Cuisine,+12097261048,$$,4.0,293,[],https://www.yelp.com/biz/new-thai-cuisine-merced?adjust_creative=Wu9gfEkr1Iqmmu5UKQvcJw&utm_campaign=yelp_api_v3&utm_medium=api_v3_business_search&utm_source=Wu9gfEkr1Iqmmu5UKQvcJw
bangkok-thai-restaurant-merced,['thai'],['Thai'],37.30036,-120.4795,(209) 383-9999,20634.734674935138,ztk6zZ3fVikY1eX_Rda8-Q,https://s3-media3.fl.yelpcdn.com/bphoto/SOAhuMCYxNyBTXnEZIW1Eg/o.jpg,235 W Main St,,,Merced,US,CA,95340,Bangkok Thai Restaurant,+12093839999,$,3.5,127,[],https://www.yelp.com/biz/bangkok-thai-restaurant-merced?adjust_creative=Wu9gfEkr1Iqmmu5UKQvcJw&utm_campaign=yelp_api_v3&utm_medium=api_v3_business_search&utm_source=Wu9gfEkr1Iqmmu5UKQvcJw
thai-cuisine-merced,['thai'],['Thai'],37.2977219,-120.4756622,(209) 724-9466,21064.677467904894,WR1xfzEC1e-N8rRncJSMCQ,https://s3-media1.fl.yelpcdn.com/bphoto/FE8EUk4KCMSLBwrJyFUjPA/o.jpg,23 E 16th St,,,Merced,US,CA,95340,Thai Cuisine,+12097249466,$$,4.0,93,[],https://www.yelp.com/biz/thai-cuisine-merced?adjust_creative=Wu9gfEkr1Iqmmu5UKQvcJw&utm_campaign=yelp_api_v3&utm_medium=api_v3_business_search&utm_source=Wu9gfEkr1Iqmmu5UKQvcJw
thai-noodle-atwater-2,"['thai', 'noodles']","['Thai', 'Noodles']",37.361401,-120.61375,(209) 812-6454,7674.88120740716,pjfRflOIBQTxTPoUgdincA,https://s3-media2.fl.yelpcdn.com/bphoto/Rz76f5Ry4PBVHwiVc542bA/o.jpg,1847 Bellevue Rd,,,Atwater,US,CA,95301,Thai Noodle,+12098126454,$$,3.5,112,[],https://www.yelp.com/biz/thai-noodle-atwater-2?adjust_creative=Wu9gfEkr1Iqmmu5UKQvcJw&utm_campaign=yelp_api_v3&utm_medium=api_v3_business_search&utm_source=Wu9gfEkr1Iqmmu5UKQvcJw
donut-kings-merced-4,"['donuts', 'sandwiches', 'bubbletea']","['Donuts', 'Sandwiches', 'Bubble Tea']",37.3000913,-120.4802063,(209) 383-5411,20608.863546205117,dEQ96-S9WQfY-MXuBxADCg,https://s3-media1.fl.yelpcdn.com/bphoto/fQkXCofjSIGeZijaBWnVPg/o.jpg,260 W Main St,Ste A,,Merced,US,CA,95340,Donut King's,+12093835411,$,4.5,123,[],https://www.yelp.com/biz/donut-kings-merced-4?adjust_creative=Wu9gfEkr1Iqmmu5UKQvcJw&utm_campaign=yelp_api_v3&utm_medium=api_v3_business_search&utm_source=Wu9gfEkr1Iqmmu5UKQvcJw
quickly-merced,"['bubbletea', 'juicebars', 'desserts']","['Bubble Tea', 'Juice Bars & Smoothies', 'Desserts']",37.33266,-120.46121,(209) 354-4520,19869.247271898214,iLq9yPouxn6VbX9eelPQ0g,https://s3-media1.fl.yelpcdn.com/bphoto/ens65yLfJ4lGINfuUSU_tw/o.jpg,731 E Yosemite Ave,Ste G,,Merced,US,CA,95340,Quickly,+12093544520,$,4.0,69,[],https://www.yelp.com/biz/quickly-merced?adjust_creative=Wu9gfEkr1Iqmmu5UKQvcJw&utm_campaign=yelp_api_v3&utm_medium=api_v3_business_search&utm_source=Wu9gfEkr1Iqmmu5UKQvcJw
thai-cuisine-ii-merced,['thai'],['Thai'],37.33252,-120.46019,(209) 726-0334,19954.037531142807,dNb0W0Solzuh1hzC3JLcAQ,https://s3-media1.fl.yelpcdn.com/bphoto/v3KmTXvZOl--F9fnVOzu_g/o.jpg,779 E Yosemite Ave,Ste G,,Merced,US,CA,95340,Thai Cuisine II,+12097260334,$$,3.5,249,[],https://www.yelp.com/biz/thai-cuisine-ii-merced?adjust_creative=Wu9gfEkr1Iqmmu5UKQvcJw&utm_campaign=yelp_api_v3&utm_medium=api_v3_business_search&utm_source=Wu9gfEkr1Iqmmu5UKQvcJw
