alias,categories_alias,categories_title,coordinates_latitude,coordinates_longitude,display_phone,distance,id,image_url,location_address1,location_address2,location_address3,location_city,location_country,location_state,location_zip_code,name,phone,price,rating,review_count,transactions,url
pho-saigon-redding,['vietnamese'],['Vietnamese'],40.566944,-122.370404,(530) 223-9888,36953.58460684197,IH6C0kOyZ_Mq3FilB8qPGg,https://s3-media2.fl.yelpcdn.com/bphoto/dAh8FEElF8PA4JKcs0lkVw/o.jpg,236 Hartnell Ave,,,Redding,US,CA,96002,Pho Saigon,+15302239888,$$,3.5,114,[],https://www.yelp.com/biz/pho-saigon-redding?adjust_creative=Wu9gfEkr1Iqmmu5UKQvcJw&utm_campaign=yelp_api_v3&utm_medium=api_v3_business_search&utm_source=Wu9gfEkr1Iqmmu5UKQvcJw
champa-garden-redding,"['thai', 'laotian', 'vietnamese']","['Thai', 'Laotian', 'Vietnamese']",40.59129,-122.35724,(530) 221-4999,39112.936726751344,R_clG6jfCQCKHkEGpAUGxA,https://s3-media3.fl.yelpcdn.com/bphoto/5_P9pb1M3Vt4-Jzb2WBmLg/o.jpg,1107 Hilltop Dr,,,Redding,US,CA,96003,Champa Garden,+15302214999,$$,4.0,631,[],https://www.yelp.com/biz/champa-garden-redding?adjust_creative=Wu9gfEkr1Iqmmu5UKQvcJw&utm_campaign=yelp_api_v3&utm_medium=api_v3_business_search&utm_source=Wu9gfEkr1Iqmmu5UKQvcJw
rose-garden-redding-2,"['thai', 'vietnamese', 'laotian']","['Thai', 'Vietnamese', 'Laotian']",40.5702422,-122.3875525,(530) 243-8863,37848.01407169289,QtF_5NfBvn3PvRS9nKvHZw,https://s3-media1.fl.yelpcdn.com/bphoto/BDw0rvJTqVrlJyi8O5n0Rg/o.jpg,2825 S Market St,,,Redding,US,CA,96001,Rose Garden,+15302438863,$,4.0,118,[],https://www.yelp.com/biz/rose-garden-redding-2?adjust_creative=Wu9gfEkr1Iqmmu5UKQvcJw&utm_campaign=yelp_api_v3&utm_medium=api_v3_business_search&utm_source=Wu9gfEkr1Iqmmu5UKQvcJw
pho-le-chico,['vietnamese'],['Vietnamese'],39.75702,-121.84799,(530) 487-8933,63680.05448139254,SVGTbDP0vurokmeCVoNh5A,https://s3-media2.fl.yelpcdn.com/bphoto/UhOJYEJFVB98wMUjneY-oQ/o.jpg,2201 Pillsbury Rd,,,Chico,US,CA,95926,Pho Le,+15304878933,$$,4.0,123,[],https://www.yelp.com/biz/pho-le-chico?adjust_creative=Wu9gfEkr1Iqmmu5UKQvcJw&utm_campaign=yelp_api_v3&utm_medium=api_v3_business_search&utm_source=Wu9gfEkr1Iqmmu5UKQvcJw
thai-hut-redding,['thai'],['Thai'],40.5634528076853,-122.349838749377,(530) 222-8405,35982.55939048382,3ZgGOThmrvrYBnmKgyFYJg,https://s3-media1.fl.yelpcdn.com/bphoto/7PtI-2bRKAG5qXLwF4eDhg/o.jpg,1165 Hartnell Ave,,,Redding,US,CA,96002,Thai Hut,+15302228405,$,4.5,320,[],https://www.yelp.com/biz/thai-hut-redding?adjust_creative=Wu9gfEkr1Iqmmu5UKQvcJw&utm_campaign=yelp_api_v3&utm_medium=api_v3_business_search&utm_source=Wu9gfEkr1Iqmmu5UKQvcJw
pho-c-and-c-chico,['vietnamese'],['Vietnamese'],39.77445,-121.84425,(530) 892-1415,62133.65460816938,ai5ueFbyZA9jQX2cxbyXZw,https://s3-media3.fl.yelpcdn.com/bphoto/072zZBs6NugpMWcNvnRBWg/o.jpg,3211 Cohasset Rd,,,Chico,US,CA,95973,Pho C&C,+15308921415,$,4.0,181,[],https://www.yelp.com/biz/pho-c-and-c-chico?adjust_creative=Wu9gfEkr1Iqmmu5UKQvcJw&utm_campaign=yelp_api_v3&utm_medium=api_v3_business_search&utm_source=Wu9gfEkr1Iqmmu5UKQvcJw
vietnam-bistro-chico-2,"['vietnamese', 'chinese']","['Vietnamese', 'Chinese']",39.7610345,-121.8467471,(530) 433-7108,63316.03384235187,Ewo1UjwKs_EPqnMqiO6Prw,https://s3-media2.fl.yelpcdn.com/bphoto/XFbY1Vt8xwHnlnPsgqoRsA/o.jpg,788 E Ave,,,Chico,US,CA,95926,Vietnam Bistro,+15304337108,$,4.0,164,[],https://www.yelp.com/biz/vietnam-bistro-chico-2?adjust_creative=Wu9gfEkr1Iqmmu5UKQvcJw&utm_campaign=yelp_api_v3&utm_medium=api_v3_business_search&utm_source=Wu9gfEkr1Iqmmu5UKQvcJw
boba-tea-and-coffee-redding,"['taiwanese', 'vietnamese', 'coffee']","['Taiwanese', 'Vietnamese', 'Coffee & Tea']",40.5639496,-122.3529816,(530) 221-1930,36133.48045523881,6V9a5Adj-aFy2ZSM09h0sg,https://s3-media2.fl.yelpcdn.com/bphoto/V_jRlpQQyUJbjn60TWQGhw/o.jpg,2999 Churn Creek Rd,,,Redding,US,CA,96002,Boba Tea & Coffee,+15302211930,$,4.0,85,[],https://www.yelp.com/biz/boba-tea-and-coffee-redding?adjust_creative=Wu9gfEkr1Iqmmu5UKQvcJw&utm_campaign=yelp_api_v3&utm_medium=api_v3_business_search&utm_source=Wu9gfEkr1Iqmmu5UKQvcJw
everyday-vietnamese-cuisine-chico,['vietnamese'],['Vietnamese'],39.730327,-121.858295,(530) 893-2888,65866.70037784846,A91mSYTFcX-wBWNyhrvV-Q,https://s3-media3.fl.yelpcdn.com/bphoto/u3uIyS_nZEoY0m7xAaXn6Q/o.jpg,951 Nord Ave,Ste A,,Chico,US,CA,95926,Everyday Vietnamese Cuisine,+15308932888,$,4.0,128,[],https://www.yelp.com/biz/everyday-vietnamese-cuisine-chico?adjust_creative=Wu9gfEkr1Iqmmu5UKQvcJw&utm_campaign=yelp_api_v3&utm_medium=api_v3_business_search&utm_source=Wu9gfEkr1Iqmmu5UKQvcJw
racha-noodle-redding,['noodles'],['Noodles'],40.57189,-122.38845,(530) 246-8730,38076.62057038883,zzQKsIi2rZnySpswUeP7Fg,https://s3-media2.fl.yelpcdn.com/bphoto/1UPuBg_S_OwD2U6iGG-6ng/o.jpg,2630 S Market St,,,Redding,US,CA,96001,Racha Noodle,+15302468730,$,4.0,97,[],https://www.yelp.com/biz/racha-noodle-redding?adjust_creative=Wu9gfEkr1Iqmmu5UKQvcJw&utm_campaign=yelp_api_v3&utm_medium=api_v3_business_search&utm_source=Wu9gfEkr1Iqmmu5UKQvcJw
fresh-fire-grill-palo-cedro,"['asianfusion', 'burgers', 'bbq']","['Asian Fusion', 'Burgers', 'Barbeque']",40.564358,-122.239022,(530) 547-3445,34164.691472347695,0KYR7h1KXWhKKnNLTZohRQ,https://s3-media1.fl.yelpcdn.com/bphoto/K8F5qtSRRpzSYbd4LZLRqg/o.jpg,9520 Deschutes Rd,,,Palo Cedro,US,CA,96073,Fresh Fire Grill,+15305473445,$,4.5,148,[],https://www.yelp.com/biz/fresh-fire-grill-palo-cedro?adjust_creative=Wu9gfEkr1Iqmmu5UKQvcJw&utm_campaign=yelp_api_v3&utm_medium=api_v3_business_search&utm_source=Wu9gfEkr1Iqmmu5UKQvcJw
noodle-house-chico,"['vietnamese', 'noodles']","['Vietnamese', 'Noodles']",39.7341690063477,-121.836296081543,(530) 345-2022,66377.70496352897,mfVEHbjbVX6f0_WycwkUGg,https://s3-media3.fl.yelpcdn.com/bphoto/zdqb5CxAkSD-iL_L-pxuJw/o.jpg,605 Mangrove Ave,Ste 130,,Chico,US,CA,95926,Noodle House,+15303452022,$,3.0,98,[],https://www.yelp.com/biz/noodle-house-chico?adjust_creative=Wu9gfEkr1Iqmmu5UKQvcJw&utm_campaign=yelp_api_v3&utm_medium=api_v3_business_search&utm_source=Wu9gfEkr1Iqmmu5UKQvcJw
kanya-market-redding,"['hotdogs', 'thai']","['Fast Food', 'Thai']",40.564221,-122.353474,(530) 222-7609,36165.51658638763,HSYAmm-BN1etAeWPrgZb_A,https://s3-media2.fl.yelpcdn.com/bphoto/7HmIH4roKH1ZmfStAqQBAg/o.jpg,970 Hartnell Ave,,,Redding,US,CA,96002,Kanya Market,+15302227609,$,4.0,47,[],https://www.yelp.com/biz/kanya-market-redding?adjust_creative=Wu9gfEkr1Iqmmu5UKQvcJw&utm_campaign=yelp_api_v3&utm_medium=api_v3_business_search&utm_source=Wu9gfEkr1Iqmmu5UKQvcJw
fusion-lounge-bar-and-grill-redding,"['burgers', 'asianfusion', 'newamerican']","['Burgers', 'Asian Fusion', 'American (New)']",40.5643157958984,-122.320838928223,(530) 768-1360,35347.21775290017,AePMatI_NRGHPMcs4aIWhg,https://s3-media1.fl.yelpcdn.com/bphoto/kdhCHh9aDBf2hJU8OwoTCg/o.jpg,2704 Hartnell Ave,Ste 1,,Redding,US,CA,96002,Fusion Lounge Bar & Grill,+15307681360,$$,4.0,90,[],https://www.yelp.com/biz/fusion-lounge-bar-and-grill-redding?adjust_creative=Wu9gfEkr1Iqmmu5UKQvcJw&utm_campaign=yelp_api_v3&utm_medium=api_v3_business_search&utm_source=Wu9gfEkr1Iqmmu5UKQvcJw
taste-of-hmong-chico-2,['asianfusion'],['Asian Fusion'],39.73144,-121.85895,(530) 965-5071,65706.72360315436,Nei1W-ULNvXlvfD7BUDJsA,https://s3-media2.fl.yelpcdn.com/bphoto/yGaYn1d1pbuecLYVtoJqwg/o.jpg,1008 W Sacramento Ave,Ste H,,Chico,US,CA,95926,Taste Of Hmong,+15309655071,,4.5,22,[],https://www.yelp.com/biz/taste-of-hmong-chico-2?adjust_creative=Wu9gfEkr1Iqmmu5UKQvcJw&utm_campaign=yelp_api_v3&utm_medium=api_v3_business_search&utm_source=Wu9gfEkr1Iqmmu5UKQvcJw
saltea-orland,"['juicebars', 'coffee', 'sandwiches']","['Juice Bars & Smoothies', 'Coffee & Tea', 'Sandwiches']",39.74721,-122.19369,(530) 988-3181,56815.773669073904,LHuYdEBCbG5m5GU_hXgP_g,https://s3-media1.fl.yelpcdn.com/bphoto/0Taa-E8aDZnMGTifG7gBHA/o.jpg,701 4th St,,,Orland,US,CA,95963,Saltea,+15309883181,$,4.5,47,[],https://www.yelp.com/biz/saltea-orland?adjust_creative=Wu9gfEkr1Iqmmu5UKQvcJw&utm_campaign=yelp_api_v3&utm_medium=api_v3_business_search&utm_source=Wu9gfEkr1Iqmmu5UKQvcJw
crispy-eggroll-chico,"['vietnamese', 'soup', 'asianfusion']","['Vietnamese', 'Soup', 'Asian Fusion']",39.7145780716387,-121.806910737354,(530) 354-8155,69487.88321612978,mDdTI_8GDhB4V4KwrzI4cQ,https://s3-media3.fl.yelpcdn.com/bphoto/YK6rNZF237crK6NuDLu3iw/o.jpg,2501 S Whitman Pl,,,Chico,US,CA,95928,crispy eggroll,+15303548155,,5.0,1,[],https://www.yelp.com/biz/crispy-eggroll-chico?adjust_creative=Wu9gfEkr1Iqmmu5UKQvcJw&utm_campaign=yelp_api_v3&utm_medium=api_v3_business_search&utm_source=Wu9gfEkr1Iqmmu5UKQvcJw
carnegies-redding,"['sandwiches', 'soup', 'delis']","['Sandwiches', 'Soup', 'Delis']",40.5821838378906,-122.394248962402,(530) 246-2926,39297.79073963881,7-HRKjs2JGn5FNo9i9NnrA,https://s3-media3.fl.yelpcdn.com/bphoto/U_tbgNsPK27cBqF6wG7lRA/o.jpg,1600 Oregon St,,,Redding,US,CA,96001,Carnegie's,+15302462926,$$,4.0,57,[],https://www.yelp.com/biz/carnegies-redding?adjust_creative=Wu9gfEkr1Iqmmu5UKQvcJw&utm_campaign=yelp_api_v3&utm_medium=api_v3_business_search&utm_source=Wu9gfEkr1Iqmmu5UKQvcJw
i-fish-poke-bar-thai-kitchen-chico-4,"['thai', 'poke']","['Thai', 'Poke']",39.73144,-121.85895,(530) 892-1868,65706.72360315436,8gptu9NTXCTNpEizbBojbw,https://s3-media2.fl.yelpcdn.com/bphoto/jXd1sScjcKdPgIGd3sj-Ag/o.jpg,1008 W Sacramento Ave,Ste 2A,,Chico,US,CA,95926,I Fish Poke Bar Thai Kitchen,+15308921868,$$,4.5,67,"['delivery', 'pickup']",https://www.yelp.com/biz/i-fish-poke-bar-thai-kitchen-chico-4?adjust_creative=Wu9gfEkr1Iqmmu5UKQvcJw&utm_campaign=yelp_api_v3&utm_medium=api_v3_business_search&utm_source=Wu9gfEkr1Iqmmu5UKQvcJw
tong-fong-low-chico,['chinese'],['Chinese'],39.72767,-121.79886,(530) 898-1388,68596.08034731656,mtulnGSYwZfCNqmCj5eqnw,https://s3-media1.fl.yelpcdn.com/bphoto/lK_SjGVRpUlf1HJb91Y50g/o.jpg,2072 E 20th St,Ste 100,,Chico,US,CA,95928,Tong Fong Low,+15308981388,$$,3.5,171,[],https://www.yelp.com/biz/tong-fong-low-chico?adjust_creative=Wu9gfEkr1Iqmmu5UKQvcJw&utm_campaign=yelp_api_v3&utm_medium=api_v3_business_search&utm_source=Wu9gfEkr1Iqmmu5UKQvcJw
cocodine-thai-cuisine-chico,['thai'],['Thai'],39.71592,-121.79498,(530) 891-1800,69850.49881768701,BjXNWMUIBJazpPmHbXTWAA,https://s3-media1.fl.yelpcdn.com/bphoto/7ecwaWgmQnVt-xwDkBQaMA/o.jpg,2485 Notre Dame Blvd,Ste 250,,Chico,US,CA,95928,Cocodine Thai Cuisine,+15308911800,$$,4.0,251,[],https://www.yelp.com/biz/cocodine-thai-cuisine-chico?adjust_creative=Wu9gfEkr1Iqmmu5UKQvcJw&utm_campaign=yelp_api_v3&utm_medium=api_v3_business_search&utm_source=Wu9gfEkr1Iqmmu5UKQvcJw
rawbar-chico,"['sushi', 'asianfusion']","['Sushi Bars', 'Asian Fusion']",39.72839,-121.84017,(530) 897-0626,66787.480491297,kP2XKBxkVwZAi-Cho26fWA,https://s3-media4.fl.yelpcdn.com/bphoto/aWLfK0VCkK8WChiSmlPZgg/o.jpg,346 Broadway St,,,Chico,US,CA,95928,Rawbar,+15308970626,$$,3.5,243,[],https://www.yelp.com/biz/rawbar-chico?adjust_creative=Wu9gfEkr1Iqmmu5UKQvcJw&utm_campaign=yelp_api_v3&utm_medium=api_v3_business_search&utm_source=Wu9gfEkr1Iqmmu5UKQvcJw
kathys-deli-chico,"['sandwiches', 'delis']","['Sandwiches', 'Delis']",39.72105,-121.845705,(530) 343-5925,67275.82327278104,1NNSTcSfEYZIcHzyKWCAmw,https://s3-media4.fl.yelpcdn.com/bphoto/zu3uH0oMs1VH4d2bsSvttw/o.jpg,671 Walnut St,,,Chico,US,CA,95928,Kathy's Deli,+15303435925,$,4.5,80,[],https://www.yelp.com/biz/kathys-deli-chico?adjust_creative=Wu9gfEkr1Iqmmu5UKQvcJw&utm_campaign=yelp_api_v3&utm_medium=api_v3_business_search&utm_source=Wu9gfEkr1Iqmmu5UKQvcJw
china-house-chico,['chinese'],['Chinese'],39.7304974112786,-121.858145780861,(530) 893-2988,65855.58917964456,Z_-bqUuQhs1eVOIJkRXCqA,https://s3-media3.fl.yelpcdn.com/bphoto/twX9U1fdka16mtdKa3rhXw/o.jpg,951 Nord Ave,,,Chico,US,CA,95926,China House,+15308932988,$,4.5,73,[],https://www.yelp.com/biz/china-house-chico?adjust_creative=Wu9gfEkr1Iqmmu5UKQvcJw&utm_campaign=yelp_api_v3&utm_medium=api_v3_business_search&utm_source=Wu9gfEkr1Iqmmu5UKQvcJw
moms-restaurant-chico,"['breakfast_brunch', 'newamerican', 'sandwiches']","['Breakfast & Brunch', 'American (New)', 'Sandwiches']",39.728938477182,-121.84180160664,(530) 893-3447,66653.6578386888,LxqFBTDxefU46Ra-CKypUg,https://s3-media3.fl.yelpcdn.com/bphoto/ZEN8w1qpnZ2WpM6AwJ4wsQ/o.jpg,209 Salem St,,,Chico,US,CA,95928,Mom's Restaurant,+15308933447,$$,4.0,558,[],https://www.yelp.com/biz/moms-restaurant-chico?adjust_creative=Wu9gfEkr1Iqmmu5UKQvcJw&utm_campaign=yelp_api_v3&utm_medium=api_v3_business_search&utm_source=Wu9gfEkr1Iqmmu5UKQvcJw
