alias,categories_alias,categories_title,coordinates_latitude,coordinates_longitude,display_phone,distance,id,image_url,location_address1,location_address2,location_address3,location_city,location_country,location_state,location_zip_code,name,phone,price,rating,review_count,transactions,url
pho-7-anh-turlock,"['vietnamese', 'thai', 'laotian']","['Vietnamese', 'Thai', 'Laotian']",37.4981137,-120.8487334,(209) 620-8022,13754.79778019227,VNf6jfpjO5ydi1G9W0FV-g,https://s3-media2.fl.yelpcdn.com/bphoto/MmWP0j9mZqYlMHPUe_AT0g/o.jpg,503 N Golden State Blvd,,,Turlock,US,CA,95380,Pho 7 Anh,+12096208022,$,4.0,213,"['pickup', 'delivery']",https://www.yelp.com/biz/pho-7-anh-turlock?adjust_creative=Wu9gfEkr1Iqmmu5UKQvcJw&utm_campaign=yelp_api_v3&utm_medium=api_v3_business_search&utm_source=Wu9gfEkr1Iqmmu5UKQvcJw
noahs-vietnamese-fusion-cuisine-merced-2,['vietnamese'],['Vietnamese'],37.30732,-120.49517,(209) 349-8660,32275.207587727233,mnWlqpe03CtVyk7-ZMPdbg,https://s3-media1.fl.yelpcdn.com/bphoto/zWipAjzCQHIGM2oGOTl5GQ/o.jpg,1327 W 18th St,,,Merced,US,CA,95340,Noahs Vietnamese Fusion Cuisine,+12093498660,$,4.0,232,[],https://www.yelp.com/biz/noahs-vietnamese-fusion-cuisine-merced-2?adjust_creative=Wu9gfEkr1Iqmmu5UKQvcJw&utm_campaign=yelp_api_v3&utm_medium=api_v3_business_search&utm_source=Wu9gfEkr1Iqmmu5UKQvcJw
pho-americana-turlock,"['vietnamese', 'noodles', 'sandwiches']","['Vietnamese', 'Noodles', 'Sandwiches']",37.5266550611739,-120.862776339054,(209) 427-2006,14054.165608459843,n94ppFlvjqPoOWfHRkv_LQ,https://s3-media3.fl.yelpcdn.com/bphoto/3j_i7sW315_0uKl0cVF0-Q/o.jpg,3821 Crowell Rd,,,Turlock,US,CA,95382,Pho Americana,+12094272006,$,3.5,194,"['pickup', 'delivery']",https://www.yelp.com/biz/pho-americana-turlock?adjust_creative=Wu9gfEkr1Iqmmu5UKQvcJw&utm_campaign=yelp_api_v3&utm_medium=api_v3_business_search&utm_source=Wu9gfEkr1Iqmmu5UKQvcJw
phoenix-noodle-house-modesto,"['vietnamese', 'noodles']","['Vietnamese', 'Noodles']",37.6403884887695,-120.995101928711,(209) 526-9706,27684.978306594854,tjrW7UQmDkwwotAXwlfujg,https://s3-media1.fl.yelpcdn.com/bphoto/6Z4HWyw1DKS2AgwRq4d5pg/o.jpg,1222 H St,,,Modesto,US,CA,95354,Phoenix Noodle House,+12095269706,$,4.0,485,[],https://www.yelp.com/biz/phoenix-noodle-house-modesto?adjust_creative=Wu9gfEkr1Iqmmu5UKQvcJw&utm_campaign=yelp_api_v3&utm_medium=api_v3_business_search&utm_source=Wu9gfEkr1Iqmmu5UKQvcJw
pho-38-noodle-house-oakdale,"['vietnamese', 'chinese', 'noodles']","['Vietnamese', 'Chinese', 'Noodles']",37.7750021,-120.8522532,(209) 845-8617,28769.815895020463,-0WDoFZLaCmpVN3qvLix0A,https://s3-media2.fl.yelpcdn.com/bphoto/lXIZSQ2rN6HXPrDGiK1FkA/o.jpg,818 N Yosemite Ave,,,Oakdale,US,CA,95361,Pho 38 Noodle House,+12098458617,$,4.5,212,[],https://www.yelp.com/biz/pho-38-noodle-house-oakdale?adjust_creative=Wu9gfEkr1Iqmmu5UKQvcJw&utm_campaign=yelp_api_v3&utm_medium=api_v3_business_search&utm_source=Wu9gfEkr1Iqmmu5UKQvcJw
saigon-one-modesto-3,"['vietnamese', 'noodles']","['Vietnamese', 'Noodles']",37.6476577175883,-121.031557001452,(209) 248-7612,30947.28792290166,K3TvxZYnUguPKQbc25GDqQ,https://s3-media1.fl.yelpcdn.com/bphoto/0KnxWezPPjUG0wueH9AJNw/o.jpg,901 N Carpenter Rd,Ste 61,,Modesto,US,CA,95351,Saigon One,+12092487612,$$,4.0,98,[],https://www.yelp.com/biz/saigon-one-modesto-3?adjust_creative=Wu9gfEkr1Iqmmu5UKQvcJw&utm_campaign=yelp_api_v3&utm_medium=api_v3_business_search&utm_source=Wu9gfEkr1Iqmmu5UKQvcJw
le-saigon-modesto-3,"['sandwiches', 'vietnamese', 'asianfusion']","['Sandwiches', 'Vietnamese', 'Asian Fusion']",37.6643508966431,-121.021497984114,(209) 284-0018,30873.798960906814,E8gtfQnH2a4wCJIwkJNzzQ,https://s3-media2.fl.yelpcdn.com/bphoto/uAZkmCImVWSmhoEjc1Fyrg/o.jpg,1645 W Orangeburg Ave,,,Modesto,US,CA,95350,Le Saigon,+12092840018,$,4.5,181,[],https://www.yelp.com/biz/le-saigon-modesto-3?adjust_creative=Wu9gfEkr1Iqmmu5UKQvcJw&utm_campaign=yelp_api_v3&utm_medium=api_v3_business_search&utm_source=Wu9gfEkr1Iqmmu5UKQvcJw
crawfish-noodle-and-grill-modesto,"['cajun', 'seafood', 'vietnamese']","['Cajun/Creole', 'Seafood', 'Vietnamese']",37.67596,-120.99333,(209) 238-9558,29252.125992877114,u4-gf2T20CeI2kekkcny8w,https://s3-media2.fl.yelpcdn.com/bphoto/SYXF6BQ-BEO0bS7T9LubVw/o.jpg,2312 McHenry Ave,,,Modesto,US,CA,95350,Crawfish Noodle & Grill,+12092389558,$$,4.0,318,['pickup'],https://www.yelp.com/biz/crawfish-noodle-and-grill-modesto?adjust_creative=Wu9gfEkr1Iqmmu5UKQvcJw&utm_campaign=yelp_api_v3&utm_medium=api_v3_business_search&utm_source=Wu9gfEkr1Iqmmu5UKQvcJw
saigon-restaurant-tracy,['vietnamese'],['Vietnamese'],37.7555801264296,-121.466734656172,(209) 830-0444,71027.11616229697,dlLmtpMmAcS2ihVlNT4vXg,https://s3-media1.fl.yelpcdn.com/bphoto/YcVpoMgg8DF9ZNBDmzqT-w/o.jpg,2437 Naglee Rd,,,Tracy,US,CA,95304,Saigon Restaurant,+12098300444,$$,3.5,240,[],https://www.yelp.com/biz/saigon-restaurant-tracy?adjust_creative=Wu9gfEkr1Iqmmu5UKQvcJw&utm_campaign=yelp_api_v3&utm_medium=api_v3_business_search&utm_source=Wu9gfEkr1Iqmmu5UKQvcJw
saigon-restaurant-modesto,"['vietnamese', 'noodles']","['Vietnamese', 'Noodles']",37.6794177369985,-120.958549976349,(209) 576-2878,26869.549646099655,JdzCAMARpFFtjo33k6ZrYA,https://s3-media4.fl.yelpcdn.com/bphoto/6FQPldRUsOG9aYAeBJ72mQ/o.jpg,2601 Oakdale Rd,Ste K,,Modesto,US,CA,95355,Saigon Restaurant,+12095762878,$,3.5,196,[],https://www.yelp.com/biz/saigon-restaurant-modesto?adjust_creative=Wu9gfEkr1Iqmmu5UKQvcJw&utm_campaign=yelp_api_v3&utm_medium=api_v3_business_search&utm_source=Wu9gfEkr1Iqmmu5UKQvcJw
king-pho-vietnamese-cuisine-manteca,['vietnamese'],['Vietnamese'],37.8050005044303,-121.216603964567,(209) 629-8719,53504.32350859927,xdgIhVvCFfb84J8LwFtcwg,https://s3-media4.fl.yelpcdn.com/bphoto/S4sdBbQo9L6OzVKgRf9ODg/o.jpg,524 N Main St,,,Manteca,US,CA,95336,King Pho Vietnamese Cuisine,+12096298719,$,4.5,78,[],https://www.yelp.com/biz/king-pho-vietnamese-cuisine-manteca?adjust_creative=Wu9gfEkr1Iqmmu5UKQvcJw&utm_campaign=yelp_api_v3&utm_medium=api_v3_business_search&utm_source=Wu9gfEkr1Iqmmu5UKQvcJw
dk-noodle-vietnamese-cuisine-modesto-2,"['vietnamese', 'noodles', 'soup']","['Vietnamese', 'Noodles', 'Soup']",37.69458,-120.99248,(209) 572-1727,30305.474026823736,bt5PrwnDJOjPziXssQIyoQ,https://s3-media2.fl.yelpcdn.com/bphoto/rxZ7k5WdOJ5kXgCezFu_ig/o.jpg,3848 McHenry Ave,Ste 115,,Modesto,US,CA,95356,DK Noodle Vietnamese Cuisine,+12095721727,$,3.5,149,['pickup'],https://www.yelp.com/biz/dk-noodle-vietnamese-cuisine-modesto-2?adjust_creative=Wu9gfEkr1Iqmmu5UKQvcJw&utm_campaign=yelp_api_v3&utm_medium=api_v3_business_search&utm_source=Wu9gfEkr1Iqmmu5UKQvcJw
blú-lotus-lao-and-thai-restaurant-ceres-2,"['laotian', 'thai']","['Laotian', 'Thai']",37.58444,-120.93938,(209) 900-7598,21103.91725820305,lXCJKFX-1PSFqC11dTTOIA,https://s3-media2.fl.yelpcdn.com/bphoto/-C85hKRgIv6-70ZUVdwEVw/o.jpg,3641 Mitchell Rd,Ste F,,Ceres,US,CA,95307,Blú Lotus Lao & Thai Restaurant,+12099007598,$$,4.5,121,[],https://www.yelp.com/biz/bl%C3%BA-lotus-lao-and-thai-restaurant-ceres-2?adjust_creative=Wu9gfEkr1Iqmmu5UKQvcJw&utm_campaign=yelp_api_v3&utm_medium=api_v3_business_search&utm_source=Wu9gfEkr1Iqmmu5UKQvcJw
pho-real-and-grill-vietnamese-bistro-tracy,['vietnamese'],['Vietnamese'],37.754635033243,-121.458307006049,(209) 836-7139,70292.54864087436,RuMjpIJ0yXUCgE__hJZ47g,https://s3-media2.fl.yelpcdn.com/bphoto/_iFM1tUxZzrMasbRTtU6iQ/o.jpg,2231 W Grant Line Rd,Ste 132,,Tracy,US,CA,95377,Pho Real & Grill Vietnamese Bistro,+12098367139,$,3.5,275,[],https://www.yelp.com/biz/pho-real-and-grill-vietnamese-bistro-tracy?adjust_creative=Wu9gfEkr1Iqmmu5UKQvcJw&utm_campaign=yelp_api_v3&utm_medium=api_v3_business_search&utm_source=Wu9gfEkr1Iqmmu5UKQvcJw
saigon-pho-and-sandwiches-merced-2,['vietnamese'],['Vietnamese'],37.317673,-120.4727,(209) 233-9234,32555.1615704823,O5w01A7zVeQt-uNRLb--xA,https://s3-media4.fl.yelpcdn.com/bphoto/hOJ5ywjC5o1YdYPJIZBp5g/o.jpg,3040 Park Ave,Ste E3,,Merced,US,CA,95348,Saigon Pho & Sandwiches,+12092339234,$,2.5,169,[],https://www.yelp.com/biz/saigon-pho-and-sandwiches-merced-2?adjust_creative=Wu9gfEkr1Iqmmu5UKQvcJw&utm_campaign=yelp_api_v3&utm_medium=api_v3_business_search&utm_source=Wu9gfEkr1Iqmmu5UKQvcJw
ipho-vietnamese-noodle-house-modesto-2,"['vietnamese', 'desserts', 'coffee']","['Vietnamese', 'Desserts', 'Coffee & Tea']",37.6891162367533,-121.015754488159,(209) 529-1423,31712.395836114873,yiufO-GqJlu6DQhKZ_IITA,https://s3-media3.fl.yelpcdn.com/bphoto/9Ygou8fnYFkNu0PbQXymwA/o.jpg,1400 Standiford Ave,Ste 7,,Modesto,US,CA,95350,iPho Vietnamese Noodle House,+12095291423,$$,4.0,121,[],https://www.yelp.com/biz/ipho-vietnamese-noodle-house-modesto-2?adjust_creative=Wu9gfEkr1Iqmmu5UKQvcJw&utm_campaign=yelp_api_v3&utm_medium=api_v3_business_search&utm_source=Wu9gfEkr1Iqmmu5UKQvcJw
chongs-cuisine-turlock-2,"['chinese', 'thai']","['Chinese', 'Thai']",37.5095770001035,-120.876725240314,(209) 656-9189,15640.87894723956,-fhWh8_irvmwR3vug-zc1w,https://s3-media1.fl.yelpcdn.com/bphoto/M1xPkjt80mz5-s0BNdanQg/o.jpg,1801 Countryside Dr,,,Turlock,US,CA,95380,Chong's Cuisine,+12096569189,$,4.0,223,[],https://www.yelp.com/biz/chongs-cuisine-turlock-2?adjust_creative=Wu9gfEkr1Iqmmu5UKQvcJw&utm_campaign=yelp_api_v3&utm_medium=api_v3_business_search&utm_source=Wu9gfEkr1Iqmmu5UKQvcJw
saigonviet-pho-manteca,['vietnamese'],['Vietnamese'],37.7869337985023,-121.217157285797,(209) 239-4660,52492.52175724903,wh9CKKsYv1ietQ8_iI68Lw,https://s3-media2.fl.yelpcdn.com/bphoto/Hhm2IgZiO5aHUrkkd2ITfw/o.jpg,1125 S Main St,,,Manteca,US,CA,95337,Saigonviet Pho,+12092394660,$,3.5,297,"['pickup', 'delivery']",https://www.yelp.com/biz/saigonviet-pho-manteca?adjust_creative=Wu9gfEkr1Iqmmu5UKQvcJw&utm_campaign=yelp_api_v3&utm_medium=api_v3_business_search&utm_source=Wu9gfEkr1Iqmmu5UKQvcJw
pho-minh-long-tracy,"['vietnamese', 'seafood', 'noodles']","['Vietnamese', 'Seafood', 'Noodles']",37.7375122092866,-121.451227676752,(209) 833-0399,69098.62569667392,7hYyAsp6cRQ5Rea7PHKyAw,https://s3-media1.fl.yelpcdn.com/bphoto/J-GOdP6RmwhAqpBYhr7QPQ/o.jpg,1886 W 11th St,,,Tracy,US,CA,95376,Pho Minh Long,+12098330399,$$,3.5,116,[],https://www.yelp.com/biz/pho-minh-long-tracy?adjust_creative=Wu9gfEkr1Iqmmu5UKQvcJw&utm_campaign=yelp_api_v3&utm_medium=api_v3_business_search&utm_source=Wu9gfEkr1Iqmmu5UKQvcJw
pho-bac-noodle-palace-modesto,"['vietnamese', 'noodles']","['Vietnamese', 'Noodles']",37.659550992577,-120.993499978401,(209) 579-5899,28424.10588065636,p_PvZ9W9nwpfoL4hY2_qnQ,https://s3-media1.fl.yelpcdn.com/bphoto/eRg15zwaAOJxhboznLIM3Q/o.jpg,1100 McHenry Ave,,,Modesto,US,CA,95350,Pho Bac Noodle Palace,+12095795899,$,3.0,225,"['pickup', 'delivery']",https://www.yelp.com/biz/pho-bac-noodle-palace-modesto?adjust_creative=Wu9gfEkr1Iqmmu5UKQvcJw&utm_campaign=yelp_api_v3&utm_medium=api_v3_business_search&utm_source=Wu9gfEkr1Iqmmu5UKQvcJw
pho-7-vietnamese-restaurant-modesto-2,['vietnamese'],['Vietnamese'],37.6595802307129,-121.02123260498,(209) 571-9655,30683.89376775413,YRnUYZtT3XEClnFldbNZmA,https://s3-media3.fl.yelpcdn.com/bphoto/UmF5Sb5cv3skj46PU1XCWA/o.jpg,1100 Carver Rd,Ste 17,,Modesto,US,CA,95350,Pho 7 Vietnamese Restaurant,+12095719655,$,3.5,129,[],https://www.yelp.com/biz/pho-7-vietnamese-restaurant-modesto-2?adjust_creative=Wu9gfEkr1Iqmmu5UKQvcJw&utm_campaign=yelp_api_v3&utm_medium=api_v3_business_search&utm_source=Wu9gfEkr1Iqmmu5UKQvcJw
pho-zab-merced,"['laotian', 'thai']","['Laotian', 'Thai']",37.33099,-120.5284,(209) 354-0108,28456.87113950757,zhXjVBc4VG6-6h0rF_mMoA,https://s3-media2.fl.yelpcdn.com/bphoto/9Xn0lPk-dRONQMGvquabjg/o.jpg,2961 Beachwood Dr,,,Merced,US,CA,95348,Pho Zab,+12093540108,$,4.0,40,[],https://www.yelp.com/biz/pho-zab-merced?adjust_creative=Wu9gfEkr1Iqmmu5UKQvcJw&utm_campaign=yelp_api_v3&utm_medium=api_v3_business_search&utm_source=Wu9gfEkr1Iqmmu5UKQvcJw
pho-viet-restaurant-modesto,"['vietnamese', 'soup']","['Vietnamese', 'Soup']",37.6455383300781,-121.020515441895,(209) 524-3032,29947.843222052492,qw-GHme9OFsNfk5z6DcAsQ,https://s3-media3.fl.yelpcdn.com/bphoto/j5YQl_KiJdEvFuaJYKg7Fw/o.jpg,900 Kansas Ave,Ste B,,Modesto,US,CA,95351,Pho Viet Restaurant,+12095243032,$,3.5,110,"['pickup', 'delivery']",https://www.yelp.com/biz/pho-viet-restaurant-modesto?adjust_creative=Wu9gfEkr1Iqmmu5UKQvcJw&utm_campaign=yelp_api_v3&utm_medium=api_v3_business_search&utm_source=Wu9gfEkr1Iqmmu5UKQvcJw
saigon-bowl-noodle-house-stockton,"['vietnamese', 'noodles']","['Vietnamese', 'Noodles']",37.9590440295843,-121.293098889291,(209) 451-1844,69227.86322985607,dfGgyHaGA4C32HgPtC8MKg,https://s3-media1.fl.yelpcdn.com/bphoto/LyeZXzdBs9ceoNK6FVWXfw/o.jpg,631 N Center St,,,Stockton,US,CA,95202,Saigon Bowl Noodle House,+12094511844,$,4.0,152,"['pickup', 'delivery']",https://www.yelp.com/biz/saigon-bowl-noodle-house-stockton?adjust_creative=Wu9gfEkr1Iqmmu5UKQvcJw&utm_campaign=yelp_api_v3&utm_medium=api_v3_business_search&utm_source=Wu9gfEkr1Iqmmu5UKQvcJw
ju-ju-thai-cuisine-turlock,['thai'],['Thai'],37.4928849,-120.8487714,(209) 815-8424,13932.073349823842,9pDR1dr0x_ESCp-7fc3GAw,https://s3-media4.fl.yelpcdn.com/bphoto/1p8esJsf-vZ4HP4pj1IKIw/o.jpg,235 W Main St,,,Turlock,US,CA,95380,Ju Ju Thai Cuisine,+12098158424,$$,4.5,239,[],https://www.yelp.com/biz/ju-ju-thai-cuisine-turlock?adjust_creative=Wu9gfEkr1Iqmmu5UKQvcJw&utm_campaign=yelp_api_v3&utm_medium=api_v3_business_search&utm_source=Wu9gfEkr1Iqmmu5UKQvcJw
mamas-pho-and-sandwiches-stockton,['vietnamese'],['Vietnamese'],38.0213894979584,-121.322665700768,(209) 473-7154,75841.62484011233,pacoLXsTlHNn_AEiY7BsfA,https://s3-media3.fl.yelpcdn.com/bphoto/aEo83O2v5prnrv_UWHL_ng/o.jpg,8014 Lower Sacramento Rd,Ste E,,Stockton,US,CA,95210,Mama's Pho & Sandwiches,+12094737154,$,4.0,486,[],https://www.yelp.com/biz/mamas-pho-and-sandwiches-stockton?adjust_creative=Wu9gfEkr1Iqmmu5UKQvcJw&utm_campaign=yelp_api_v3&utm_medium=api_v3_business_search&utm_source=Wu9gfEkr1Iqmmu5UKQvcJw
noodle-9-stockton-2,"['vietnamese', 'noodles', 'chinese']","['Vietnamese', 'Noodles', 'Chinese']",37.967006,-121.294239,(209) 910-9801,69891.97792310875,JfUJMse36KDyhMNqKc9FAA,https://s3-media2.fl.yelpcdn.com/bphoto/7KEsxDOwIZXwOqz7Zl4ypg/o.jpg,1439 N El Dorado St,Ste A,,Stockton,US,CA,95202,Noodle 9,+12099109801,$,4.0,129,[],https://www.yelp.com/biz/noodle-9-stockton-2?adjust_creative=Wu9gfEkr1Iqmmu5UKQvcJw&utm_campaign=yelp_api_v3&utm_medium=api_v3_business_search&utm_source=Wu9gfEkr1Iqmmu5UKQvcJw
new-thai-cuisine-merced,['thai'],['Thai'],37.3029670715332,-120.49015045166,(209) 726-1048,32930.093098733305,S4Pdp9pV9OocTEmzGBW1KQ,https://s3-media3.fl.yelpcdn.com/bphoto/Yu4aLm010uX7r1F6Em4-6Q/o.jpg,909 W 16th St,,,Merced,US,CA,95340,New Thai Cuisine,+12097261048,$$,4.0,293,[],https://www.yelp.com/biz/new-thai-cuisine-merced?adjust_creative=Wu9gfEkr1Iqmmu5UKQvcJw&utm_campaign=yelp_api_v3&utm_medium=api_v3_business_search&utm_source=Wu9gfEkr1Iqmmu5UKQvcJw
the-asian-cafe-murphys,"['vietnamese', 'chinese']","['Vietnamese', 'Chinese']",38.1363615160809,-120.456409074074,(209) 728-8898,69288.7321657125,zQSEHF44G8rNfujbIxvIYg,https://s3-media2.fl.yelpcdn.com/bphoto/cOmGCX8i9gl3OMJbJ888_w/o.jpg,64 Mitchler St,,,Murphys,US,CA,95247,The Asian Cafe,+12097288898,$,4.5,83,['pickup'],https://www.yelp.com/biz/the-asian-cafe-murphys?adjust_creative=Wu9gfEkr1Iqmmu5UKQvcJw&utm_campaign=yelp_api_v3&utm_medium=api_v3_business_search&utm_source=Wu9gfEkr1Iqmmu5UKQvcJw
pho-my-tho-tracy-2,['vietnamese'],['Vietnamese'],37.7562885,-121.4641802,(209) 839-0104,70857.21484891063,zGwgODLoagQWeiF2uMeTQg,https://s3-media3.fl.yelpcdn.com/bphoto/ks4gK3EGPmVb5tDWb9iG2Q/o.jpg,2725 Naglee Rd,,,Tracy,US,CA,95304,Pho My Tho,+12098390104,,3.0,24,[],https://www.yelp.com/biz/pho-my-tho-tracy-2?adjust_creative=Wu9gfEkr1Iqmmu5UKQvcJw&utm_campaign=yelp_api_v3&utm_medium=api_v3_business_search&utm_source=Wu9gfEkr1Iqmmu5UKQvcJw
sam-cafe-merced,['thai'],['Thai'],37.29508,-120.48258,(209) 383-5350,34026.3135657728,0VjXSKtLG0NYRog6M1-qRg,https://s3-media4.fl.yelpcdn.com/bphoto/6BCZTDJ2LwmpweouQ_4--g/o.jpg,235 W 12th St,,,Merced,US,CA,95340,Sam Cafe,+12093835350,$$,4.0,326,[],https://www.yelp.com/biz/sam-cafe-merced?adjust_creative=Wu9gfEkr1Iqmmu5UKQvcJw&utm_campaign=yelp_api_v3&utm_medium=api_v3_business_search&utm_source=Wu9gfEkr1Iqmmu5UKQvcJw
t-cups-cafe-modesto,"['desserts', 'bubbletea', 'vietnamese']","['Desserts', 'Bubble Tea', 'Vietnamese']",37.6405904155595,-121.000844592351,(209) 300-7473,28144.814126652273,VQ3TqxClC4rUtdRm-b2tUw,https://s3-media4.fl.yelpcdn.com/bphoto/k6R4Lmm_7fdvm_hMEakQUA/o.jpg,1021 10th St,Ste A,,Modesto,US,CA,95354,T-Cups Cafe,+12093007473,$,4.0,223,[],https://www.yelp.com/biz/t-cups-cafe-modesto?adjust_creative=Wu9gfEkr1Iqmmu5UKQvcJw&utm_campaign=yelp_api_v3&utm_medium=api_v3_business_search&utm_source=Wu9gfEkr1Iqmmu5UKQvcJw
saigon-grill-lodi,['vietnamese'],['Vietnamese'],38.135604,-121.272476,(209) 368-5152,82436.15496339847,qxQbfZmSA9h161dOaIrGAQ,https://s3-media1.fl.yelpcdn.com/bphoto/DucojP1njsGeRg5yKREg6A/o.jpg,5 West Elm St,,,Lodi,US,CA,95240,Saigon Grill,+12093685152,$$,3.5,168,[],https://www.yelp.com/biz/saigon-grill-lodi?adjust_creative=Wu9gfEkr1Iqmmu5UKQvcJw&utm_campaign=yelp_api_v3&utm_medium=api_v3_business_search&utm_source=Wu9gfEkr1Iqmmu5UKQvcJw
sticky-rice-restaurant-modesto-2,"['laotian', 'thai', 'salad']","['Laotian', 'Thai', 'Salad']",37.609735,-120.940862,(209) 537-4777,21991.27332670729,ezU4BHW7NLP_KT4IsoFDjQ,https://s3-media1.fl.yelpcdn.com/bphoto/-obWmwRAY8i9Gh806-kkTg/o.jpg,2901 E Hatch Rd,,,Modesto,US,CA,95351,Sticky Rice Restaurant,+12095374777,$$,4.0,205,"['pickup', 'delivery']",https://www.yelp.com/biz/sticky-rice-restaurant-modesto-2?adjust_creative=Wu9gfEkr1Iqmmu5UKQvcJw&utm_campaign=yelp_api_v3&utm_medium=api_v3_business_search&utm_source=Wu9gfEkr1Iqmmu5UKQvcJw
patterson-cafe-patterson-2,"['coffee', 'bubbletea', 'sandwiches']","['Coffee & Tea', 'Bubble Tea', 'Sandwiches']",37.46676,-121.17673,(209) 892-9099,42515.346582789636,OZ2pet64uNO8FcEkzI4HJQ,https://s3-media2.fl.yelpcdn.com/bphoto/8_sc9ykHSXNRdRBZnC1p5A/o.jpg,2985 Renzo Ln,Ste C,,Patterson,US,CA,95363,Patterson Cafe,+12098929099,$,5.0,79,[],https://www.yelp.com/biz/patterson-cafe-patterson-2?adjust_creative=Wu9gfEkr1Iqmmu5UKQvcJw&utm_campaign=yelp_api_v3&utm_medium=api_v3_business_search&utm_source=Wu9gfEkr1Iqmmu5UKQvcJw
bamboo-garden-oakdale,['chinese'],['Chinese'],37.772452,-120.828607,(209) 848-4845,27532.089776405486,An0hiv5sL632VD0Ie7M-UA,https://s3-media2.fl.yelpcdn.com/bphoto/0-Esyo0HFS4RcAYZ3haSmA/o.jpg,111 S Maag Ave,,,Oakdale,US,CA,95361,Bamboo Garden,+12098484845,$,4.0,99,[],https://www.yelp.com/biz/bamboo-garden-oakdale?adjust_creative=Wu9gfEkr1Iqmmu5UKQvcJw&utm_campaign=yelp_api_v3&utm_medium=api_v3_business_search&utm_source=Wu9gfEkr1Iqmmu5UKQvcJw
le-kims-vietnamese-stockton,['vietnamese'],['Vietnamese'],37.9590988,-121.2932968,,69233.45522183967,VxbEkA42CmKiLF6fDCz1BQ,,631 N Center St,,,Stockton,US,CA,95202,Le Kims Vietnamese,,,5.0,1,[],https://www.yelp.com/biz/le-kims-vietnamese-stockton?adjust_creative=Wu9gfEkr1Iqmmu5UKQvcJw&utm_campaign=yelp_api_v3&utm_medium=api_v3_business_search&utm_source=Wu9gfEkr1Iqmmu5UKQvcJw
saigon-restaurant-stockton-18,"['vietnamese', 'noodles', 'vegetarian']","['Vietnamese', 'Noodles', 'Vegetarian']",37.970142,-121.2991904,(209) 463-2274,70440.27712335694,X-sQ_kNHXKSvw1q2VJYH6w,https://s3-media3.fl.yelpcdn.com/bphoto/5kBbbROwNAncu-21gTEIug/o.jpg,1904 Pacific Ave,,,Stockton,US,CA,95204,Saigon Restaurant,+12094632274,$$,3.5,138,[],https://www.yelp.com/biz/saigon-restaurant-stockton-18?adjust_creative=Wu9gfEkr1Iqmmu5UKQvcJw&utm_campaign=yelp_api_v3&utm_medium=api_v3_business_search&utm_source=Wu9gfEkr1Iqmmu5UKQvcJw
thanh-thanh-sandwiches-stockton,"['vietnamese', 'sandwiches', 'juicebars']","['Vietnamese', 'Sandwiches', 'Juice Bars & Smoothies']",38.0007432324407,-121.298132767563,(209) 406-3684,72700.59357043912,vdMqkvlKlfpFoff1rEe-bg,https://s3-media4.fl.yelpcdn.com/bphoto/3MFilbgfTwi4xnFsLYLnfQ/o.jpg,707 E March Ln,,,Stockton,US,CA,95207,Thanh Thanh Sandwiches,+12094063684,$,4.5,243,[],https://www.yelp.com/biz/thanh-thanh-sandwiches-stockton?adjust_creative=Wu9gfEkr1Iqmmu5UKQvcJw&utm_campaign=yelp_api_v3&utm_medium=api_v3_business_search&utm_source=Wu9gfEkr1Iqmmu5UKQvcJw
my-thai-cuisine-ripon,"['thai', 'importedfood']","['Thai', 'Imported Food']",37.7527152232228,-121.136132329702,(209) 599-2388,44427.69847617504,CSi5MRmo10XScygXDoMF4g,https://s3-media3.fl.yelpcdn.com/bphoto/6KTXhZUxHhMhF9x_XH9SGw/o.jpg,1222 W Colony Rd,Ste 150,,Ripon,US,CA,95366,My Thai Cuisine,+12095992388,$$,4.0,126,"['pickup', 'delivery']",https://www.yelp.com/biz/my-thai-cuisine-ripon?adjust_creative=Wu9gfEkr1Iqmmu5UKQvcJw&utm_campaign=yelp_api_v3&utm_medium=api_v3_business_search&utm_source=Wu9gfEkr1Iqmmu5UKQvcJw
houa-khong-restaurant-merced,['thai'],['Thai'],37.29423,-120.47694,(209) 722-5541,34403.432723781894,08dL7eunshx9QRfaYiKJKQ,https://s3-media2.fl.yelpcdn.com/bphoto/TEHn2f7vTaFle_7BIiVUxA/o.jpg,85 E 13th St,,,Merced,US,CA,95340,Houa Khong Restaurant,+12097225541,$,4.0,87,[],https://www.yelp.com/biz/houa-khong-restaurant-merced?adjust_creative=Wu9gfEkr1Iqmmu5UKQvcJw&utm_campaign=yelp_api_v3&utm_medium=api_v3_business_search&utm_source=Wu9gfEkr1Iqmmu5UKQvcJw
tasty-thai-modesto-3,"['thai', 'bars']","['Thai', 'Bars']",37.677354372642,-120.939157416046,(209) 551-4200,25334.11192996735,o4F6cwdzM0uDHLiR0difRQ,https://s3-media2.fl.yelpcdn.com/bphoto/Q9AenpYUTS3BsgcT4Zxutw/o.jpg,3020 Floyd Ave,Ste 105,,Modesto,US,CA,95355,Tasty Thai,+12095514200,$$,3.5,241,"['pickup', 'delivery']",https://www.yelp.com/biz/tasty-thai-modesto-3?adjust_creative=Wu9gfEkr1Iqmmu5UKQvcJw&utm_campaign=yelp_api_v3&utm_medium=api_v3_business_search&utm_source=Wu9gfEkr1Iqmmu5UKQvcJw
shangri-la-china-bistro-modesto,['chinese'],['Chinese'],37.6621,-120.99342,(209) 529-7968,28550.564560231025,Rg_glrYWNqjQV_lc1LAjUw,https://s3-media2.fl.yelpcdn.com/bphoto/3s8qpYJTzd7cUFtZ3Wvx6A/o.jpg,1300 McHenry Ave,,,Modesto,US,CA,95350,Shangri-La China Bistro,+12095297968,$$,4.0,182,[],https://www.yelp.com/biz/shangri-la-china-bistro-modesto?adjust_creative=Wu9gfEkr1Iqmmu5UKQvcJw&utm_campaign=yelp_api_v3&utm_medium=api_v3_business_search&utm_source=Wu9gfEkr1Iqmmu5UKQvcJw
pho-asian-cuisine-manteca-8,"['vietnamese', 'asianfusion', 'cambodian']","['Vietnamese', 'Asian Fusion', 'Cambodian']",37.7961199,-121.1959321,(209) 825-8889,51485.53825439358,dJHz9H-3jnxnutWxREOb9Q,https://s3-media2.fl.yelpcdn.com/bphoto/ylnkUw9h2df5wu12J134Vg/o.jpg,1315 Historical Plaza Way,,,Manteca,US,CA,95336,Pho Asian Cuisine,+12098258889,$,3.5,27,"['pickup', 'delivery']",https://www.yelp.com/biz/pho-asian-cuisine-manteca-8?adjust_creative=Wu9gfEkr1Iqmmu5UKQvcJw&utm_campaign=yelp_api_v3&utm_medium=api_v3_business_search&utm_source=Wu9gfEkr1Iqmmu5UKQvcJw
thai-house-modesto,['thai'],['Thai'],37.687717,-121.01199,(209) 544-0974,31347.892436113223,EMjhozwdhuO2K45ibbGg6A,https://s3-media2.fl.yelpcdn.com/bphoto/_Y74VBkx-XuUclKvkzDWRg/o.jpg,3430 Tully Rd,Ste 2,,Modesto,US,CA,95350,Thai House,+12095440974,$$,4.0,302,[],https://www.yelp.com/biz/thai-house-modesto?adjust_creative=Wu9gfEkr1Iqmmu5UKQvcJw&utm_campaign=yelp_api_v3&utm_medium=api_v3_business_search&utm_source=Wu9gfEkr1Iqmmu5UKQvcJw
pho-saigon-bay-stockton,"['vietnamese', 'noodles', 'juicebars']","['Vietnamese', 'Noodles', 'Juice Bars & Smoothies']",38.00117,-121.31607,(209) 477-5972,73926.33647133486,rtyRXBDNVkXQ4fcFuqlFsQ,https://s3-media1.fl.yelpcdn.com/bphoto/sBsW-7YbU24C6s6GtVMG6Q/o.jpg,5756 Pacific Ave,Ste 14,,Stockton,US,CA,95207,Pho Saigon Bay,+12094775972,$,3.0,404,[],https://www.yelp.com/biz/pho-saigon-bay-stockton?adjust_creative=Wu9gfEkr1Iqmmu5UKQvcJw&utm_campaign=yelp_api_v3&utm_medium=api_v3_business_search&utm_source=Wu9gfEkr1Iqmmu5UKQvcJw
pho-lucky-noodle-house-stockton,"['vietnamese', 'noodles']","['Vietnamese', 'Noodles']",38.0223523,-121.3152957,(209) 472-9301,75447.79413632173,cB89rRmI1zdIN_etLGljsA,https://s3-media3.fl.yelpcdn.com/bphoto/r8jBAdExA7FKLnEoy2OjaQ/o.jpg,8032 N El Dorado St,,,Stockton,US,CA,95210,Pho Lucky Noodle House,+12094729301,$,3.5,373,[],https://www.yelp.com/biz/pho-lucky-noodle-house-stockton?adjust_creative=Wu9gfEkr1Iqmmu5UKQvcJw&utm_campaign=yelp_api_v3&utm_medium=api_v3_business_search&utm_source=Wu9gfEkr1Iqmmu5UKQvcJw
thai-noodle-atwater-2,"['thai', 'noodles']","['Thai', 'Noodles']",37.361401,-120.61375,(209) 812-6454,21947.32444735916,pjfRflOIBQTxTPoUgdincA,https://s3-media2.fl.yelpcdn.com/bphoto/Rz76f5Ry4PBVHwiVc542bA/o.jpg,1847 Bellevue Rd,,,Atwater,US,CA,95301,Thai Noodle,+12098126454,$$,3.5,112,[],https://www.yelp.com/biz/thai-noodle-atwater-2?adjust_creative=Wu9gfEkr1Iqmmu5UKQvcJw&utm_campaign=yelp_api_v3&utm_medium=api_v3_business_search&utm_source=Wu9gfEkr1Iqmmu5UKQvcJw
one-tea-modesto,['bubbletea'],['Bubble Tea'],37.68895,-121.01375,(209) 300-7857,31559.722738024673,ic7EgyFbtuiy8qkS9JQ_Ag,https://s3-media1.fl.yelpcdn.com/bphoto/-2QxWXF4yGNgYe-FJECmJg/o.jpg,1320 Standiford Ave,,,Modesto,US,CA,95350,One Tea,+12093007857,$,4.5,57,"['pickup', 'delivery']",https://www.yelp.com/biz/one-tea-modesto?adjust_creative=Wu9gfEkr1Iqmmu5UKQvcJw&utm_campaign=yelp_api_v3&utm_medium=api_v3_business_search&utm_source=Wu9gfEkr1Iqmmu5UKQvcJw
moms-thai-house-manteca,['thai'],['Thai'],37.8039041,-121.2167601,(209) 665-7890,53450.40004266645,h8dYh4esO9MNwnN2yzYlwQ,https://s3-media3.fl.yelpcdn.com/bphoto/ICpi-hHgrw8ZTzeHhzbjJQ/o.jpg,439 N Main St,,,Manteca,US,CA,95336,Mom's Thai House,+12096657890,$$,4.0,299,[],https://www.yelp.com/biz/moms-thai-house-manteca?adjust_creative=Wu9gfEkr1Iqmmu5UKQvcJw&utm_campaign=yelp_api_v3&utm_medium=api_v3_business_search&utm_source=Wu9gfEkr1Iqmmu5UKQvcJw
the-papaya-lady-merced,['importedfood'],['Imported Food'],37.3004032983338,-120.47969520092,(209) 756-8131,33700.54232928113,AOtc84nxT32LoaICSTRFZA,https://s3-media4.fl.yelpcdn.com/bphoto/tArzdDtZQvoCp2pvq0sg4g/o.jpg,235 W Main St,,,Merced,US,CA,95340,The Papaya Lady,+12097568131,$,5.0,61,[],https://www.yelp.com/biz/the-papaya-lady-merced?adjust_creative=Wu9gfEkr1Iqmmu5UKQvcJw&utm_campaign=yelp_api_v3&utm_medium=api_v3_business_search&utm_source=Wu9gfEkr1Iqmmu5UKQvcJw
bangkok-thai-restaurant-merced,['thai'],['Thai'],37.30036,-120.4795,(209) 383-9999,33712.151647319784,ztk6zZ3fVikY1eX_Rda8-Q,https://s3-media3.fl.yelpcdn.com/bphoto/SOAhuMCYxNyBTXnEZIW1Eg/o.jpg,235 W Main St,,,Merced,US,CA,95340,Bangkok Thai Restaurant,+12093839999,$,3.5,127,[],https://www.yelp.com/biz/bangkok-thai-restaurant-merced?adjust_creative=Wu9gfEkr1Iqmmu5UKQvcJw&utm_campaign=yelp_api_v3&utm_medium=api_v3_business_search&utm_source=Wu9gfEkr1Iqmmu5UKQvcJw
pho-binh-minh-stockton,['vietnamese'],['Vietnamese'],38.00475,-121.29235,(209) 477-1530,72641.98170850867,objdYQHp4--TOUTI8cMK8Q,https://s3-media1.fl.yelpcdn.com/bphoto/X6AQvxsRbIqKDKe4oSu4YA/o.jpg,1139 E March Ln,,,Stockton,US,CA,95210,Pho Binh Minh,+12094771530,$,3.5,193,[],https://www.yelp.com/biz/pho-binh-minh-stockton?adjust_creative=Wu9gfEkr1Iqmmu5UKQvcJw&utm_campaign=yelp_api_v3&utm_medium=api_v3_business_search&utm_source=Wu9gfEkr1Iqmmu5UKQvcJw
lanxang-kitchen-modesto,"['asianfusion', 'thai']","['Asian Fusion', 'Thai']",37.63473,-121.00349,(209) 589-0712,28119.72913200445,RHjZo0VSUPc7qDIr2op07g,https://s3-media3.fl.yelpcdn.com/bphoto/wFZdfm837OKsQU19yKPMAQ/o.jpg,411 H St,,,Modesto,US,CA,95351,Lanxang Kitchen,+12095890712,$,5.0,75,[],https://www.yelp.com/biz/lanxang-kitchen-modesto?adjust_creative=Wu9gfEkr1Iqmmu5UKQvcJw&utm_campaign=yelp_api_v3&utm_medium=api_v3_business_search&utm_source=Wu9gfEkr1Iqmmu5UKQvcJw
mac-pho-stockton,"['vietnamese', 'vegetarian']","['Vietnamese', 'Vegetarian']",38.02058,-121.27317,(209) 477-5227,72718.30130629671,BJH6K77bXvwoygoc7snaaA,https://s3-media2.fl.yelpcdn.com/bphoto/TFexR-aJgnKYyRC1_SgCew/o.jpg,3322 E Hammer Ln,,,Stockton,US,CA,95212,Mac Pho,+12094775227,$,3.5,91,[],https://www.yelp.com/biz/mac-pho-stockton?adjust_creative=Wu9gfEkr1Iqmmu5UKQvcJw&utm_campaign=yelp_api_v3&utm_medium=api_v3_business_search&utm_source=Wu9gfEkr1Iqmmu5UKQvcJw
tnk-vegan-cafe-modesto,"['vegan', 'cafes']","['Vegan', 'Cafes']",37.6456051,-120.9968358,(209) 567-2232,28050.155558726336,kDx53yZQMt_8NhBv4mxV-g,https://s3-media4.fl.yelpcdn.com/bphoto/mHcUQrthFfUkgiQ6aJICjQ/o.jpg,330 Needham St,,,Modesto,US,CA,95354,TNK Vegan Cafe,+12095672232,$,4.5,76,"['pickup', 'delivery']",https://www.yelp.com/biz/tnk-vegan-cafe-modesto?adjust_creative=Wu9gfEkr1Iqmmu5UKQvcJw&utm_campaign=yelp_api_v3&utm_medium=api_v3_business_search&utm_source=Wu9gfEkr1Iqmmu5UKQvcJw
thai-cuisine-merced,['thai'],['Thai'],37.2977219,-120.4756622,(209) 724-9466,34131.775124385254,WR1xfzEC1e-N8rRncJSMCQ,https://s3-media1.fl.yelpcdn.com/bphoto/FE8EUk4KCMSLBwrJyFUjPA/o.jpg,23 E 16th St,,,Merced,US,CA,95340,Thai Cuisine,+12097249466,$$,4.0,93,[],https://www.yelp.com/biz/thai-cuisine-merced?adjust_creative=Wu9gfEkr1Iqmmu5UKQvcJw&utm_campaign=yelp_api_v3&utm_medium=api_v3_business_search&utm_source=Wu9gfEkr1Iqmmu5UKQvcJw
cafe-aroma-manteca,"['coffee', 'sandwiches', 'bubbletea']","['Coffee & Tea', 'Sandwiches', 'Bubble Tea']",37.797729,-121.2402,(209) 824-9978,54846.365139277674,GcbD9pk2vJOt0R6TNuKzWQ,https://s3-media2.fl.yelpcdn.com/bphoto/PQJip-weDdTyKBwcgjs27Q/o.jpg,1499 W Yosemite Ave,,,Manteca,US,CA,95337,Cafe' Aroma,+12098249978,$,4.5,227,"['pickup', 'delivery']",https://www.yelp.com/biz/cafe-aroma-manteca?adjust_creative=Wu9gfEkr1Iqmmu5UKQvcJw&utm_campaign=yelp_api_v3&utm_medium=api_v3_business_search&utm_source=Wu9gfEkr1Iqmmu5UKQvcJw
tl-noodle-house-stockton,"['vietnamese', 'noodles']","['Vietnamese', 'Noodles']",38.022782,-121.293055,(209) 951-8118,74112.32880950358,I735tYppQuXr6ovbUb81rQ,https://s3-media3.fl.yelpcdn.com/bphoto/WnzG8S2BD72WRBJON0t9xA/o.jpg,8118 W Ln,,,Stockton,US,CA,95210,TL Noodle House,+12099518118,$,3.5,114,[],https://www.yelp.com/biz/tl-noodle-house-stockton?adjust_creative=Wu9gfEkr1Iqmmu5UKQvcJw&utm_campaign=yelp_api_v3&utm_medium=api_v3_business_search&utm_source=Wu9gfEkr1Iqmmu5UKQvcJw
bayon-restaurant-stockton,"['vietnamese', 'cambodian']","['Vietnamese', 'Cambodian']",37.9852180480957,-121.333656311035,(209) 956-5686,73794.92430431973,wgL9GQkk6ryNDtSlw-FHSg,https://s3-media4.fl.yelpcdn.com/bphoto/6j2a3_XOctc8LchdwyvJpg/o.jpg,2233 Grand Canal Blvd,Ste 119,,Stockton,US,CA,95207,Bayon Restaurant,+12099565686,$,3.5,115,[],https://www.yelp.com/biz/bayon-restaurant-stockton?adjust_creative=Wu9gfEkr1Iqmmu5UKQvcJw&utm_campaign=yelp_api_v3&utm_medium=api_v3_business_search&utm_source=Wu9gfEkr1Iqmmu5UKQvcJw
huong-lan-stockton-2,"['vietnamese', 'sandwiches']","['Vietnamese', 'Sandwiches']",38.02125,-121.29648,(209) 473-1111,74196.944571251,ZYI3p-Iu1hZdbVZJ5aTp7w,https://s3-media3.fl.yelpcdn.com/bphoto/ExL45vDv5FhKQ97A0oPwsQ/o.jpg,1311 E Hammer Ln,,,Stockton,US,CA,95210,Huong Lan,+12094731111,$,3.5,105,[],https://www.yelp.com/biz/huong-lan-stockton-2?adjust_creative=Wu9gfEkr1Iqmmu5UKQvcJw&utm_campaign=yelp_api_v3&utm_medium=api_v3_business_search&utm_source=Wu9gfEkr1Iqmmu5UKQvcJw
pho-bac-hoa-viet-restaurant-stockton,['vietnamese'],['Vietnamese'],38.0266038896928,-121.297994968262,(209) 473-8704,74718.70894022394,Ayi6iEHMwJIuNpia-YFnSg,https://s3-media1.fl.yelpcdn.com/bphoto/GESYNZoKCj_YWJRQ4vNQMA/o.jpg,7945 W Ln,,,Stockton,US,CA,95210,Pho Bac Hoa Viet Restaurant,+12094738704,$,2.5,188,[],https://www.yelp.com/biz/pho-bac-hoa-viet-restaurant-stockton?adjust_creative=Wu9gfEkr1Iqmmu5UKQvcJw&utm_campaign=yelp_api_v3&utm_medium=api_v3_business_search&utm_source=Wu9gfEkr1Iqmmu5UKQvcJw
lotus-thai-and-khmer-cuisines-stockton,"['thai', 'cambodian']","['Thai', 'Cambodian']",37.98601,-121.3219,(209) 910-9799,73107.73840328274,INP7V1GzNcKmvX6lsMDVDg,https://s3-media2.fl.yelpcdn.com/bphoto/t61OKbV6r6iCsLGDX-j1zA/o.jpg,1412 Rosemarie Ln,,,Stockton,US,CA,95207,Lotus Thai & Khmer Cuisines,+12099109799,,4.5,85,[],https://www.yelp.com/biz/lotus-thai-and-khmer-cuisines-stockton?adjust_creative=Wu9gfEkr1Iqmmu5UKQvcJw&utm_campaign=yelp_api_v3&utm_medium=api_v3_business_search&utm_source=Wu9gfEkr1Iqmmu5UKQvcJw
kung-fu-tea-modesto,"['bubbletea', 'coffee', 'juicebars']","['Bubble Tea', 'Coffee & Tea', 'Juice Bars & Smoothies']",37.6882,-120.99287,(209) 408-0594,29961.837491798393,a3Dr1u7pt_wdHWchmNu9SQ,https://s3-media2.fl.yelpcdn.com/bphoto/8M8vFvPpY31WsiEa9tHPlw/o.jpg,3440 McHenry Ave,Ste D14,,Modesto,US,CA,95355,Kung Fu Tea,+12094080594,$,4.0,49,"['pickup', 'delivery']",https://www.yelp.com/biz/kung-fu-tea-modesto?adjust_creative=Wu9gfEkr1Iqmmu5UKQvcJw&utm_campaign=yelp_api_v3&utm_medium=api_v3_business_search&utm_source=Wu9gfEkr1Iqmmu5UKQvcJw
cambodian-restaurant-stockton,"['vietnamese', 'cambodian', 'breakfast_brunch']","['Vietnamese', 'Cambodian', 'Breakfast & Brunch']",38.0227054071827,-121.294506378472,(209) 952-8030,74195.23226405642,969ol51lSQnWYWNuc235mw,https://s3-media4.fl.yelpcdn.com/bphoto/YU-c8nkHz79G5-r5WJGzpw/o.jpg,8046 N W Ln,Ste 103,,Stockton,US,CA,95210,Cambodian Restaurant,+12099528030,$,3.5,92,[],https://www.yelp.com/biz/cambodian-restaurant-stockton?adjust_creative=Wu9gfEkr1Iqmmu5UKQvcJw&utm_campaign=yelp_api_v3&utm_medium=api_v3_business_search&utm_source=Wu9gfEkr1Iqmmu5UKQvcJw
donut-kings-merced-4,"['donuts', 'sandwiches', 'bubbletea']","['Donuts', 'Sandwiches', 'Bubble Tea']",37.3000913,-120.4802063,(209) 383-5411,33701.95661681092,dEQ96-S9WQfY-MXuBxADCg,https://s3-media1.fl.yelpcdn.com/bphoto/fQkXCofjSIGeZijaBWnVPg/o.jpg,260 W Main St,Ste A,,Merced,US,CA,95340,Donut King's,+12093835411,$,4.5,123,[],https://www.yelp.com/biz/donut-kings-merced-4?adjust_creative=Wu9gfEkr1Iqmmu5UKQvcJw&utm_campaign=yelp_api_v3&utm_medium=api_v3_business_search&utm_source=Wu9gfEkr1Iqmmu5UKQvcJw
angel-cruz-park-papaya-stockton,['importedfood'],['Imported Food'],38.017871599112,-121.312580108643,,74935.79900181993,LpMq9ChSw9Vd7l5xhlGP0w,https://s3-media1.fl.yelpcdn.com/bphoto/PjBTitG0iAXZ95qxErTLsA/o.jpg,Angel Cruz Park,,N El Dorado St,Stockton,US,CA,95207,Angel Cruz Park Papaya,,$,4.5,79,[],https://www.yelp.com/biz/angel-cruz-park-papaya-stockton?adjust_creative=Wu9gfEkr1Iqmmu5UKQvcJw&utm_campaign=yelp_api_v3&utm_medium=api_v3_business_search&utm_source=Wu9gfEkr1Iqmmu5UKQvcJw
bobalicious-modesto-2,"['desserts', 'bubbletea', 'icecream']","['Desserts', 'Bubble Tea', 'Ice Cream & Frozen Yogurt']",37.609746,-120.940584,(209) 416-4544,21968.52574444184,GaB1RZSCPJpx5k8YcY9rKA,https://s3-media1.fl.yelpcdn.com/bphoto/--AcbIqYChbtiMinMO3Oug/o.jpg,2907 E Hatch Rd,,,Modesto,US,CA,95351,Bobalicious,+12094164544,$$,4.0,172,[],https://www.yelp.com/biz/bobalicious-modesto-2?adjust_creative=Wu9gfEkr1Iqmmu5UKQvcJw&utm_campaign=yelp_api_v3&utm_medium=api_v3_business_search&utm_source=Wu9gfEkr1Iqmmu5UKQvcJw
bon-mange-stockton-2,"['desserts', 'bubbletea', 'bakeries']","['Desserts', 'Bubble Tea', 'Bakeries']",37.9851298162457,-121.346659585834,(209) 910-0505,74672.18573234002,IyIFnAIcev4V5g5rkTmi-g,https://s3-media3.fl.yelpcdn.com/bphoto/4ihnr4iUottOUDKQDsoyJg/o.jpg,2819 W March Ln,Ste A8,,Stockton,US,CA,95219,Bon Mange,+12099100505,$$,4.5,342,[],https://www.yelp.com/biz/bon-mange-stockton-2?adjust_creative=Wu9gfEkr1Iqmmu5UKQvcJw&utm_campaign=yelp_api_v3&utm_medium=api_v3_business_search&utm_source=Wu9gfEkr1Iqmmu5UKQvcJw
best-sandwiches-and-smoothies-stockton,['sandwiches'],['Sandwiches'],38.02057,-121.27268,(209) 475-0652,72686.36133683815,cTAhJcQnXSMdbnQV6Vmq_Q,https://s3-media1.fl.yelpcdn.com/bphoto/BWHeNudiOmGFrwTmx9v1-g/o.jpg,3330 E Hammer Ln,Ste C,,Stockton,US,CA,95212,Best Sandwiches & Smoothies,+12094750652,$,4.0,179,[],https://www.yelp.com/biz/best-sandwiches-and-smoothies-stockton?adjust_creative=Wu9gfEkr1Iqmmu5UKQvcJw&utm_campaign=yelp_api_v3&utm_medium=api_v3_business_search&utm_source=Wu9gfEkr1Iqmmu5UKQvcJw
phodera-madera,"['vietnamese', 'asianfusion', 'chinese']","['Vietnamese', 'Asian Fusion', 'Chinese']",36.9521553084448,-120.058760046959,(559) 395-4510,87280.5322411438,heK-S5sE6u0TeQw_MLFfdQ,https://s3-media2.fl.yelpcdn.com/bphoto/IQMaEIcBPM122az3Dmpq1w/o.jpg,200 W Olive Ave,,,Madera,US,CA,93637,Pho'dera,+15593954510,$,3.5,184,[],https://www.yelp.com/biz/phodera-madera?adjust_creative=Wu9gfEkr1Iqmmu5UKQvcJw&utm_campaign=yelp_api_v3&utm_medium=api_v3_business_search&utm_source=Wu9gfEkr1Iqmmu5UKQvcJw
golden-chopstix-riverbank,['chinese'],['Chinese'],37.731649,-120.956973,(209) 869-4292,30377.79597624566,lgj_tJfdhueKGkeKeGOnbw,https://s3-media2.fl.yelpcdn.com/bphoto/NyPv3KNuJYchyhf6zr9Mag/o.jpg,2232 Patterson Rd,,,Riverbank,US,CA,95367,Golden Chopstix,+12098694292,$,3.5,41,[],https://www.yelp.com/biz/golden-chopstix-riverbank?adjust_creative=Wu9gfEkr1Iqmmu5UKQvcJw&utm_campaign=yelp_api_v3&utm_medium=api_v3_business_search&utm_source=Wu9gfEkr1Iqmmu5UKQvcJw
sai-gon-sandwiches-modesto,['sandwiches'],['Sandwiches'],37.6347938,-121.0048162,(209) 578-5143,28235.726172413364,rMsVpq3yL7Ax30_320U2FA,https://s3-media4.fl.yelpcdn.com/bphoto/RcuWR_MvFqWEFlPUoGixTw/o.jpg,328 I St,,,Modesto,US,CA,95351,Sai-Gon Sandwiches,+12095785143,$,2.5,44,[],https://www.yelp.com/biz/sai-gon-sandwiches-modesto?adjust_creative=Wu9gfEkr1Iqmmu5UKQvcJw&utm_campaign=yelp_api_v3&utm_medium=api_v3_business_search&utm_source=Wu9gfEkr1Iqmmu5UKQvcJw
quickly-merced,"['bubbletea', 'juicebars', 'desserts']","['Bubble Tea', 'Juice Bars & Smoothies', 'Desserts']",37.33266,-120.46121,(209) 354-4520,31950.184662418444,iLq9yPouxn6VbX9eelPQ0g,https://s3-media1.fl.yelpcdn.com/bphoto/ens65yLfJ4lGINfuUSU_tw/o.jpg,731 E Yosemite Ave,Ste G,,Merced,US,CA,95340,Quickly,+12093544520,$,4.0,69,[],https://www.yelp.com/biz/quickly-merced?adjust_creative=Wu9gfEkr1Iqmmu5UKQvcJw&utm_campaign=yelp_api_v3&utm_medium=api_v3_business_search&utm_source=Wu9gfEkr1Iqmmu5UKQvcJw
fire-wings-manteca-manteca,"['chicken_wings', 'asianfusion']","['Chicken Wings', 'Asian Fusion']",37.7965016,-121.1924728,(209) 665-3192,51234.610758499264,o9E0q3_libgrYlUVqe-Bnw,https://s3-media2.fl.yelpcdn.com/bphoto/9sYL6rA0YG0LwAMuWmYiDQ/o.jpg,1446 Hulsey Way,,,Manteca,US,CA,95336,Fire Wings - Manteca,+12096653192,$,4.0,120,[],https://www.yelp.com/biz/fire-wings-manteca-manteca?adjust_creative=Wu9gfEkr1Iqmmu5UKQvcJw&utm_campaign=yelp_api_v3&utm_medium=api_v3_business_search&utm_source=Wu9gfEkr1Iqmmu5UKQvcJw
wah-sing-chowchilla,['chinese'],['Chinese'],37.123241,-120.259829,(559) 665-0168,61227.1047392894,K1fKweWYVnsYQC5TMb9ajQ,https://s3-media4.fl.yelpcdn.com/bphoto/QAw5gice4em97t4ZlbG1bw/o.jpg,126 Robertson Blvd,,,Chowchilla,US,CA,93610,Wah Sing,+15596650168,$$,3.5,36,[],https://www.yelp.com/biz/wah-sing-chowchilla?adjust_creative=Wu9gfEkr1Iqmmu5UKQvcJw&utm_campaign=yelp_api_v3&utm_medium=api_v3_business_search&utm_source=Wu9gfEkr1Iqmmu5UKQvcJw
dl-sandwiches-stockton,['sandwiches'],['Sandwiches'],38.02128,-121.314,,75280.98925716308,9Ge4uJPlal2_uWa7SJmc_g,https://s3-media2.fl.yelpcdn.com/bphoto/ndPIodaeU4s9FDjhNF-tZw/o.jpg,7912 N El Dorado St,,,Stockton,US,CA,95210,DL Sandwiches,,,5.0,4,[],https://www.yelp.com/biz/dl-sandwiches-stockton?adjust_creative=Wu9gfEkr1Iqmmu5UKQvcJw&utm_campaign=yelp_api_v3&utm_medium=api_v3_business_search&utm_source=Wu9gfEkr1Iqmmu5UKQvcJw
fire-wings-lodi-lodi-3,"['chicken_wings', 'asianfusion']","['Chicken Wings', 'Asian Fusion']",38.116833,-121.307333,(209) 248-8044,82726.86854878528,ONhCGgSFeBLgxqYu9JNY6w,https://s3-media4.fl.yelpcdn.com/bphoto/LZb4QTGh7G9VHzgmrn3YCQ/o.jpg,1379 S Lower Sacramento Rd,Ste 501,,Lodi,US,CA,95242,Fire Wings - Lodi,+12092488044,$$,4.5,211,[],https://www.yelp.com/biz/fire-wings-lodi-lodi-3?adjust_creative=Wu9gfEkr1Iqmmu5UKQvcJw&utm_campaign=yelp_api_v3&utm_medium=api_v3_business_search&utm_source=Wu9gfEkr1Iqmmu5UKQvcJw
modesto-oriental-market-modesto,['importedfood'],['Imported Food'],37.672635,-121.029218,(209) 524-7186,31886.971163393024,q6Zt3qDKXug-uuNfvdvmTg,https://s3-media2.fl.yelpcdn.com/bphoto/oEEwiBFh7JOz0CsZRivFkg/o.jpg,1800 Prescott Rd,Ste A,,Modesto,US,CA,95350,Modesto Oriental Market,+12095247186,$$,4.0,31,[],https://www.yelp.com/biz/modesto-oriental-market-modesto?adjust_creative=Wu9gfEkr1Iqmmu5UKQvcJw&utm_campaign=yelp_api_v3&utm_medium=api_v3_business_search&utm_source=Wu9gfEkr1Iqmmu5UKQvcJw
siamese-street-thai-restaurant-stockton,['thai'],['Thai'],37.9780960083008,-121.304878234863,(209) 466-0130,71410.44181119339,VsHf2TB21Smej-6w7o8-FA,https://s3-media1.fl.yelpcdn.com/bphoto/a4Nt2KfD_VI2xNgh9WzNGA/o.jpg,3236 Pacific Ave,,,Stockton,US,CA,95204,Siamese Street Thai Restaurant,+12094660130,$$,4.0,521,[],https://www.yelp.com/biz/siamese-street-thai-restaurant-stockton?adjust_creative=Wu9gfEkr1Iqmmu5UKQvcJw&utm_campaign=yelp_api_v3&utm_medium=api_v3_business_search&utm_source=Wu9gfEkr1Iqmmu5UKQvcJw
imperial-garden-modesto,['chinese'],['Chinese'],37.668981,-121.032326,(209) 521-1226,31955.594460297973,F6PiSyBNbPx_svJsZ5p80A,https://s3-media4.fl.yelpcdn.com/bphoto/XdpTLP_wYHKc-GNUnOUWgg/o.jpg,2045 W Briggsmore Ave,Ste A1,,Modesto,US,CA,95350,Imperial Garden,+12095211226,$$,3.5,200,"['pickup', 'delivery']",https://www.yelp.com/biz/imperial-garden-modesto?adjust_creative=Wu9gfEkr1Iqmmu5UKQvcJw&utm_campaign=yelp_api_v3&utm_medium=api_v3_business_search&utm_source=Wu9gfEkr1Iqmmu5UKQvcJw
asm-asian-market-stockton,['importedfood'],['Imported Food'],37.9394894,-121.2823879,(209) 466-2692,67091.03414486437,yIfIkPi1IctFv3x_Y77PXw,https://s3-media2.fl.yelpcdn.com/bphoto/Y7h4rM2OOQzCxVj6oJyHzg/o.jpg,378 W Dr Martin Luther King Jr Blvd,,,Stockton,US,CA,95206,ASM Asian Market,+12094662692,$$,3.0,14,[],https://www.yelp.com/biz/asm-asian-market-stockton?adjust_creative=Wu9gfEkr1Iqmmu5UKQvcJw&utm_campaign=yelp_api_v3&utm_medium=api_v3_business_search&utm_source=Wu9gfEkr1Iqmmu5UKQvcJw
thai-cuisine-ii-merced,['thai'],['Thai'],37.33252,-120.46019,(209) 726-0334,32018.805590005377,dNb0W0Solzuh1hzC3JLcAQ,https://s3-media1.fl.yelpcdn.com/bphoto/v3KmTXvZOl--F9fnVOzu_g/o.jpg,779 E Yosemite Ave,Ste G,,Merced,US,CA,95340,Thai Cuisine II,+12097260334,$$,3.5,249,[],https://www.yelp.com/biz/thai-cuisine-ii-merced?adjust_creative=Wu9gfEkr1Iqmmu5UKQvcJw&utm_campaign=yelp_api_v3&utm_medium=api_v3_business_search&utm_source=Wu9gfEkr1Iqmmu5UKQvcJw
panera-bread-modesto,"['sandwiches', 'salad', 'soup']","['Sandwiches', 'Salad', 'Soup']",37.674254868909,-120.994523763657,(209) 900-6525,29269.839374710096,5UiSNHIe-2_108Uubu68fg,https://s3-media1.fl.yelpcdn.com/bphoto/dfWhDcWsLLrpJVtPsw8Zyg/o.jpg,2103 Mchenry Ave,,,Modesto,US,CA,95350,Panera Bread,+12099006525,$$,2.5,161,[],https://www.yelp.com/biz/panera-bread-modesto?adjust_creative=Wu9gfEkr1Iqmmu5UKQvcJw&utm_campaign=yelp_api_v3&utm_medium=api_v3_business_search&utm_source=Wu9gfEkr1Iqmmu5UKQvcJw
mitapheap-restaurant-stockton,"['cambodian', 'noodles', 'soup']","['Cambodian', 'Noodles', 'Soup']",38.0223171,-121.3152797,(209) 956-3900,75410.64024097685,jfHbXjgy2SOvZt4ZN7fA-Q,https://s3-media1.fl.yelpcdn.com/bphoto/cwDCe9i1KdadIFfNNHJRDw/o.jpg,8028 N El Dorado St,,,Stockton,US,CA,95210,Mitapheap Restaurant,+12099563900,$,3.5,60,[],https://www.yelp.com/biz/mitapheap-restaurant-stockton?adjust_creative=Wu9gfEkr1Iqmmu5UKQvcJw&utm_campaign=yelp_api_v3&utm_medium=api_v3_business_search&utm_source=Wu9gfEkr1Iqmmu5UKQvcJw
dynasty-garden-modesto,['dimsum'],['Dim Sum'],37.68936,-120.97556,(209) 521-8808,28706.639274538476,BcH4J21M9eTzY4GarXfXNA,https://s3-media1.fl.yelpcdn.com/bphoto/0VuryRraVj7EvFnSAs2CxQ/o.jpg,3500 Coffee Rd,,,Modesto,US,CA,95355,Dynasty Garden,+12095218808,$$,3.5,391,['delivery'],https://www.yelp.com/biz/dynasty-garden-modesto?adjust_creative=Wu9gfEkr1Iqmmu5UKQvcJw&utm_campaign=yelp_api_v3&utm_medium=api_v3_business_search&utm_source=Wu9gfEkr1Iqmmu5UKQvcJw
tea-daze-stockton,"['bubbletea', 'juicebars', 'coffee']","['Bubble Tea', 'Juice Bars & Smoothies', 'Coffee & Tea']",37.987061,-121.311512,,72512.01143443747,heINohy4MngyidYToeM7LQ,https://s3-media1.fl.yelpcdn.com/bphoto/3Vy6JVVXD2AOqTQadE2W-Q/o.jpg,4343 Pacific Ave,Ste C2,,Stockton,US,CA,95207,Tea Daze,,,4.0,78,[],https://www.yelp.com/biz/tea-daze-stockton?adjust_creative=Wu9gfEkr1Iqmmu5UKQvcJw&utm_campaign=yelp_api_v3&utm_medium=api_v3_business_search&utm_source=Wu9gfEkr1Iqmmu5UKQvcJw
far-east-restaurant-stockton,"['chinese', 'tradamerican', 'breakfast_brunch']","['Chinese', 'American (Traditional)', 'Breakfast & Brunch']",37.977374,-121.275021,(209) 463-4478,69439.91993867357,xSzVlErelatcwqwocLWJBQ,https://s3-media3.fl.yelpcdn.com/bphoto/wCvJf4otCF5aTk1ESgQWCQ/o.jpg,2127 N Wilson Way,,,Stockton,US,CA,95205,Far East Restaurant,+12094634478,$,4.0,40,[],https://www.yelp.com/biz/far-east-restaurant-stockton?adjust_creative=Wu9gfEkr1Iqmmu5UKQvcJw&utm_campaign=yelp_api_v3&utm_medium=api_v3_business_search&utm_source=Wu9gfEkr1Iqmmu5UKQvcJw
bubble-leaf-stockton,['bubbletea'],['Bubble Tea'],38.01114,-121.31828,,74780.27022046178,KJ9HaMerD9ZDn0xGB-x5rg,https://s3-media1.fl.yelpcdn.com/bphoto/C3BlRVoIrqsVAFRx2xqXWw/o.jpg,526 W Benjamin Holt Dr,Ste A,,Stockton,US,CA,95207,Bubble Leaf,,$,4.0,51,[],https://www.yelp.com/biz/bubble-leaf-stockton?adjust_creative=Wu9gfEkr1Iqmmu5UKQvcJw&utm_campaign=yelp_api_v3&utm_medium=api_v3_business_search&utm_source=Wu9gfEkr1Iqmmu5UKQvcJw
thai-kitchen-lodi,['thai'],['Thai'],38.1356170204186,-121.272384372963,(209) 625-8373,82431.74103138121,-D9nNm_c6pDwI8ME0g6DuQ,https://s3-media1.fl.yelpcdn.com/bphoto/NK8UG5UlwcvboZuVcrpvuQ/o.jpg,107 N Sacramento St,,,Lodi,US,CA,95240,Thai Kitchen,+12096258373,$$,4.5,249,[],https://www.yelp.com/biz/thai-kitchen-lodi?adjust_creative=Wu9gfEkr1Iqmmu5UKQvcJw&utm_campaign=yelp_api_v3&utm_medium=api_v3_business_search&utm_source=Wu9gfEkr1Iqmmu5UKQvcJw
luus-chicken-bowl-stockton-2,"['japanese', 'chinese']","['Japanese', 'Chinese']",37.96833,-121.2984,(209) 461-6416,70258.60785472137,bGJZBReyt5u1J-5io4dL2A,https://s3-media1.fl.yelpcdn.com/bphoto/1Lfv8vvY1Nk20EixxNFOkA/o.jpg,1632 Pacific Ave,,,Stockton,US,CA,95204,Luu's Chicken Bowl,+12094616416,$,3.5,52,[],https://www.yelp.com/biz/luus-chicken-bowl-stockton-2?adjust_creative=Wu9gfEkr1Iqmmu5UKQvcJw&utm_campaign=yelp_api_v3&utm_medium=api_v3_business_search&utm_source=Wu9gfEkr1Iqmmu5UKQvcJw
be-wok-and-sushi-sonora,"['sushi', 'chinese']","['Sushi Bars', 'Chinese']",37.9755200126794,-120.369897727626,(209) 532-2638,56214.01868187949,zCnzQca9Ejpt_Tzx4kQM3A,https://s3-media4.fl.yelpcdn.com/bphoto/GuFkypLC97w4Hm3p0EeTjw/o.jpg,764 Mono Way,,,Sonora,US,CA,95370,BE Wok and Sushi,+12095322638,$$,3.0,141,[],https://www.yelp.com/biz/be-wok-and-sushi-sonora?adjust_creative=Wu9gfEkr1Iqmmu5UKQvcJw&utm_campaign=yelp_api_v3&utm_medium=api_v3_business_search&utm_source=Wu9gfEkr1Iqmmu5UKQvcJw
shangri-la-asian-bistro-and-sushi-bar-lodi,"['sushi', 'asianfusion']","['Sushi Bars', 'Asian Fusion']",38.13143,-121.27419,(209) 366-0539,82150.73750559265,rG_R-rbEqRkukXSvRio_dA,https://s3-media3.fl.yelpcdn.com/bphoto/gQCriLpg1uoFXgZaDEki5w/o.jpg,203 S School St,,,Lodi,US,CA,95240,Shangri La Asian Bistro & Sushi Bar,+12093660539,$$,3.5,281,[],https://www.yelp.com/biz/shangri-la-asian-bistro-and-sushi-bar-lodi?adjust_creative=Wu9gfEkr1Iqmmu5UKQvcJw&utm_campaign=yelp_api_v3&utm_medium=api_v3_business_search&utm_source=Wu9gfEkr1Iqmmu5UKQvcJw
swagat-indian-cuisine-stockton,"['indpak', 'vegetarian', 'buffets']","['Indian', 'Vegetarian', 'Buffets']",37.9849750083673,-121.333771443191,(209) 478-4724,73808.92748254006,WDs3_ZwpVs00dv1Ma2kbwQ,https://s3-media3.fl.yelpcdn.com/bphoto/YG7MfD706pngWHbcKmKEMg/o.jpg,2233 Grand Canal Blvd,Ste 205,,Stockton,US,CA,95207,Swagat Indian Cuisine,+12094784724,$$,4.0,332,['pickup'],https://www.yelp.com/biz/swagat-indian-cuisine-stockton?adjust_creative=Wu9gfEkr1Iqmmu5UKQvcJw&utm_campaign=yelp_api_v3&utm_medium=api_v3_business_search&utm_source=Wu9gfEkr1Iqmmu5UKQvcJw
bambu-stockton-2,"['coffee', 'juicebars', 'bubbletea']","['Coffee & Tea', 'Juice Bars & Smoothies', 'Bubble Tea']",38.02009,-121.296286,(209) 808-5182,74097.52128505814,tSlaCoh7fQ7U3h4f-tEQ8g,https://s3-media1.fl.yelpcdn.com/bphoto/XXqpYXq4AlbdiuUAUuC35w/o.jpg,1304 E Hammer Ln,,,Stockton,US,CA,95210,BAMBU,+12098085182,$,4.0,152,[],https://www.yelp.com/biz/bambu-stockton-2?adjust_creative=Wu9gfEkr1Iqmmu5UKQvcJw&utm_campaign=yelp_api_v3&utm_medium=api_v3_business_search&utm_source=Wu9gfEkr1Iqmmu5UKQvcJw
house-of-shaw-espresso-cafe-stockton,"['coffee', 'bagels', 'sandwiches']","['Coffee & Tea', 'Bagels', 'Sandwiches']",37.9709025,-121.300557,(209) 948-4300,70585.39148930708,DKKMw89jwzTHJIe-uHqKkQ,https://s3-media1.fl.yelpcdn.com/bphoto/tnf1tkwEmOA9i2f8wvLoXg/o.jpg,227 Dorris Pl,,,Stockton,US,CA,95204,House of Shaw Espresso Cafe,+12099484300,$,4.5,142,[],https://www.yelp.com/biz/house-of-shaw-espresso-cafe-stockton?adjust_creative=Wu9gfEkr1Iqmmu5UKQvcJw&utm_campaign=yelp_api_v3&utm_medium=api_v3_business_search&utm_source=Wu9gfEkr1Iqmmu5UKQvcJw
royal-siam-stockton,['thai'],['Thai'],38.006118,-121.318115,(209) 323-4557,74357.34562603643,Vx4P3pUbUglytb4zLlrqxg,https://s3-media1.fl.yelpcdn.com/bphoto/4UafIqCwrOYRF537B_CuPw/o.jpg,6124 Pacific Ave,,,Stockton,US,CA,95207,Royal Siam,+12093234557,$$,4.0,328,[],https://www.yelp.com/biz/royal-siam-stockton?adjust_creative=Wu9gfEkr1Iqmmu5UKQvcJw&utm_campaign=yelp_api_v3&utm_medium=api_v3_business_search&utm_source=Wu9gfEkr1Iqmmu5UKQvcJw
champion-thai-restaurant-lodi,['thai'],['Thai'],38.1452552161837,-121.273748473169,(209) 369-5131,83357.85807218663,gu_SVcwCG8DURvEbE4EocA,https://s3-media4.fl.yelpcdn.com/bphoto/B2UTvwMcRVr_gf2OSc2rrg/o.jpg,116 W Turner Rd,Ste A,,Lodi,US,CA,95240,Champion Thai Restaurant,+12093695131,$$,4.5,69,"['pickup', 'delivery']",https://www.yelp.com/biz/champion-thai-restaurant-lodi?adjust_creative=Wu9gfEkr1Iqmmu5UKQvcJw&utm_campaign=yelp_api_v3&utm_medium=api_v3_business_search&utm_source=Wu9gfEkr1Iqmmu5UKQvcJw
ming-sing-chinese-restaurant-lodi,['chinese'],['Chinese'],38.1297187805176,-121.284019470215,(209) 367-8998,82542.52191658871,plBt5Z3e7HB0cItWGUyhlg,https://s3-media3.fl.yelpcdn.com/bphoto/DtGvOmutnc_2E3cTGndePg/o.jpg,840 W Lodi Ave,,,Lodi,US,CA,95240,Ming Sing Chinese Restaurant,+12093678998,$,3.5,90,[],https://www.yelp.com/biz/ming-sing-chinese-restaurant-lodi?adjust_creative=Wu9gfEkr1Iqmmu5UKQvcJw&utm_campaign=yelp_api_v3&utm_medium=api_v3_business_search&utm_source=Wu9gfEkr1Iqmmu5UKQvcJw
yummy-sushi-burrito-stockton,"['sushi', 'japanese', 'chinese']","['Sushi Bars', 'Japanese', 'Chinese']",37.98983,-121.32274,(209) 951-1288,73442.79124632104,kI8rkPCz5hER999obDFK5g,https://s3-media3.fl.yelpcdn.com/bphoto/wfX0FofPv-aV89c5iybBLg/o.jpg,1425 W March Ln,,,Stockton,US,CA,95207,Yummy Sushi Burrito,+12099511288,$,3.5,202,"['pickup', 'delivery']",https://www.yelp.com/biz/yummy-sushi-burrito-stockton?adjust_creative=Wu9gfEkr1Iqmmu5UKQvcJw&utm_campaign=yelp_api_v3&utm_medium=api_v3_business_search&utm_source=Wu9gfEkr1Iqmmu5UKQvcJw
t4-tracy-4,"['bubbletea', 'juicebars', 'coffee']","['Bubble Tea', 'Juice Bars & Smoothies', 'Coffee & Tea']",37.7381706237793,-121.428352355957,(209) 637-9138,67211.26507562473,m45Q9bBvUyJrykKoSRh2Nw,https://s3-media1.fl.yelpcdn.com/bphoto/hy9bp_f1BKmeWDxbdH7ELQ/o.jpg,110 W 10th St,,,Tracy,US,CA,95376,T4,+12096379138,$,3.5,159,[],https://www.yelp.com/biz/t4-tracy-4?adjust_creative=Wu9gfEkr1Iqmmu5UKQvcJw&utm_campaign=yelp_api_v3&utm_medium=api_v3_business_search&utm_source=Wu9gfEkr1Iqmmu5UKQvcJw
johns-place-stockton,"['tradamerican', 'vietnamese']","['American (Traditional)', 'Vietnamese']",37.95191,-121.29006,,68497.82399980233,r5A4AFZuwCJUK2gSdMwhqQ,https://s3-media2.fl.yelpcdn.com/bphoto/cWAmmc1gMsjMjC8MMUqUjA/o.jpg,35 S El Dorado St,,,Stockton,US,CA,95202,John's Place,,$,1.0,1,[],https://www.yelp.com/biz/johns-place-stockton?adjust_creative=Wu9gfEkr1Iqmmu5UKQvcJw&utm_campaign=yelp_api_v3&utm_medium=api_v3_business_search&utm_source=Wu9gfEkr1Iqmmu5UKQvcJw
tea-time-boba-cafe-manteca,"['bubbletea', 'juicebars', 'coffee']","['Bubble Tea', 'Juice Bars & Smoothies', 'Coffee & Tea']",37.7982067756625,-121.194898188114,(209) 639-0944,51491.91832525417,EwlBOlLNp0LaL-d9sY0rcA,https://s3-media3.fl.yelpcdn.com/bphoto/cg6WaqwzsYBfBTPUAquSJg/o.jpg,1375 E Yosemite Ave,,,Manteca,US,CA,95336,Tea Time Boba Cafe,+12096390944,$,4.5,172,[],https://www.yelp.com/biz/tea-time-boba-cafe-manteca?adjust_creative=Wu9gfEkr1Iqmmu5UKQvcJw&utm_campaign=yelp_api_v3&utm_medium=api_v3_business_search&utm_source=Wu9gfEkr1Iqmmu5UKQvcJw
quickly-stockton,"['bubbletea', 'juicebars', 'asianfusion']","['Bubble Tea', 'Juice Bars & Smoothies', 'Asian Fusion']",38.000164357279,-121.317583080442,(209) 227-8596,73891.96926301542,EdwlfxYU9VuvELfs8Cn2yA,https://s3-media4.fl.yelpcdn.com/bphoto/U7ryWjdpXcQ9HoqnL7sy7Q/o.jpg,960 W Robinhood Dr,,,Stockton,US,CA,95207,Quickly,+12092278596,$,4.0,172,[],https://www.yelp.com/biz/quickly-stockton?adjust_creative=Wu9gfEkr1Iqmmu5UKQvcJw&utm_campaign=yelp_api_v3&utm_medium=api_v3_business_search&utm_source=Wu9gfEkr1Iqmmu5UKQvcJw
east-n-west-chinese-cuisine-stockton,['chinese'],['Chinese'],38.0033251990795,-121.293775811791,(209) 473-8183,72627.05124227304,r3fZIITjDSvXRO8TAz5HsQ,https://s3-media2.fl.yelpcdn.com/bphoto/4DLJVdWxiuxGMm2sCJkTdQ/o.jpg,1139 E March Ln,,,Stockton,US,CA,95210,East N West Chinese Cuisine,+12094738183,$,4.0,116,[],https://www.yelp.com/biz/east-n-west-chinese-cuisine-stockton?adjust_creative=Wu9gfEkr1Iqmmu5UKQvcJw&utm_campaign=yelp_api_v3&utm_medium=api_v3_business_search&utm_source=Wu9gfEkr1Iqmmu5UKQvcJw
sweet-lab-boba-tea-and-desserts-lodi-2,"['bubbletea', 'desserts']","['Bubble Tea', 'Desserts']",38.1150526,-121.3070681,,82543.16761003753,voDyoh8T6ZNZ8ZaxL0FZKw,https://s3-media3.fl.yelpcdn.com/bphoto/yMV1svGw9MUjvHhamSnn4A/o.jpg,1401 S Lower Sacramento Rd,Ste 130,,Lodi,US,CA,95242,Sweet Lab Boba Tea & Desserts,,,3.5,36,[],https://www.yelp.com/biz/sweet-lab-boba-tea-and-desserts-lodi-2?adjust_creative=Wu9gfEkr1Iqmmu5UKQvcJw&utm_campaign=yelp_api_v3&utm_medium=api_v3_business_search&utm_source=Wu9gfEkr1Iqmmu5UKQvcJw
dynasty-restaurant-stockton,['dimsum'],['Dim Sum'],38.010416,-121.32215,(209) 478-1818,74964.55955116778,5ApGy4jTkYxmac6ixCwq5w,https://s3-media2.fl.yelpcdn.com/bphoto/4-V4LUxGHNOOV8aq5lKU4Q/o.jpg,848 W Benjamin Holt Dr,,,Stockton,US,CA,95207,Dynasty Restaurant,+12094781818,$$,3.5,330,[],https://www.yelp.com/biz/dynasty-restaurant-stockton?adjust_creative=Wu9gfEkr1Iqmmu5UKQvcJw&utm_campaign=yelp_api_v3&utm_medium=api_v3_business_search&utm_source=Wu9gfEkr1Iqmmu5UKQvcJw
