alias,categories_alias,categories_title,coordinates_latitude,coordinates_longitude,display_phone,distance,id,image_url,location_address1,location_address2,location_address3,location_city,location_country,location_state,location_zip_code,name,phone,price,rating,review_count,transactions,url
huong-lan-sandwiches-fresno,['vietnamese'],['Vietnamese'],36.8074801604157,-119.781784934546,(559) 221-8000,1584.4454915194679,vrVVOcZ9RzVNgAjhl1-cjw,https://s3-media4.fl.yelpcdn.com/bphoto/9oOTEcpohZeoEzu9LzceRA/o.jpg,4965 N Fresno St,,,Fresno,US,CA,93726,Huong Lan Sandwiches,+15592218000,$,3.5,470,[],https://www.yelp.com/biz/huong-lan-sandwiches-fresno?adjust_creative=Wu9gfEkr1Iqmmu5UKQvcJw&utm_campaign=yelp_api_v3&utm_medium=api_v3_business_search&utm_source=Wu9gfEkr1Iqmmu5UKQvcJw
pho-phuong-nine-restaurant-fresno,['vietnamese'],['Vietnamese'],36.73709,-119.73155,(559) 454-1762,8447.365135619684,jhZ1jvsFMNBps67Dv81xDg,https://s3-media3.fl.yelpcdn.com/bphoto/yw1KjP4oKAM9cqyLsGoBDw/o.jpg,4903 E Kings Canyon Rd,Ste 107,,Fresno,US,CA,93727,Pho Phuong Nine Restaurant,+15594541762,$,4.0,165,[],https://www.yelp.com/biz/pho-phuong-nine-restaurant-fresno?adjust_creative=Wu9gfEkr1Iqmmu5UKQvcJw&utm_campaign=yelp_api_v3&utm_medium=api_v3_business_search&utm_source=Wu9gfEkr1Iqmmu5UKQvcJw
pho-fresno-fresno,['vietnamese'],['Vietnamese'],36.778806866027,-119.800363406539,(559) 229-9879,2036.9725647937844,48bsok70ZzYhcPyKVCtzvw,https://s3-media1.fl.yelpcdn.com/bphoto/BXGUbVfWFKHkQ9fwJeoJ9g/o.jpg,3111 N Maroa Ave,,,Fresno,US,CA,93704,PHO FRESNO,+15592299879,$,4.5,99,"['delivery', 'pickup']",https://www.yelp.com/biz/pho-fresno-fresno?adjust_creative=Wu9gfEkr1Iqmmu5UKQvcJw&utm_campaign=yelp_api_v3&utm_medium=api_v3_business_search&utm_source=Wu9gfEkr1Iqmmu5UKQvcJw
pho-89-fresno-2,"['vietnamese', 'soup']","['Vietnamese', 'Soup']",36.83642578125,-119.75511932373,(559) 345-4789,5619.664096613322,zwXiEA94LmdERurFf1m5Wg,https://s3-media3.fl.yelpcdn.com/bphoto/4fjYLbq3XpSJuUE_1KGQ3w/o.jpg,6769 N Cedar Ave,,,Fresno,US,CA,93710,Pho 89,+15593454789,$,3.5,118,[],https://www.yelp.com/biz/pho-89-fresno-2?adjust_creative=Wu9gfEkr1Iqmmu5UKQvcJw&utm_campaign=yelp_api_v3&utm_medium=api_v3_business_search&utm_source=Wu9gfEkr1Iqmmu5UKQvcJw
pho-delite-clovis,['vietnamese'],['Vietnamese'],36.80943,-119.71747,(559) 322-8688,6777.2816973969775,XkrnBmg0LMqdzD2uMcAMdg,https://s3-media1.fl.yelpcdn.com/bphoto/W3L8F80dFcEF_IVCQ-_E5g/o.jpg,393 W Shaw Ave,Ste A14,,Clovis,US,CA,93612,Pho Delite,+15593228688,$,4.0,239,[],https://www.yelp.com/biz/pho-delite-clovis?adjust_creative=Wu9gfEkr1Iqmmu5UKQvcJw&utm_campaign=yelp_api_v3&utm_medium=api_v3_business_search&utm_source=Wu9gfEkr1Iqmmu5UKQvcJw
huong-lan-11-fresno,['vietnamese'],['Vietnamese'],36.80809,-119.86183,(559) 271-9998,6321.38703851586,l-0JdBhCfJ549WEaDS9taA,https://s3-media2.fl.yelpcdn.com/bphoto/rbfC1seDU2hU-MJTAr3IlQ/o.jpg,3757 West Shaw Ave,,,Fresno,US,CA,93711,Huong Lan 11,+15592719998,,4.0,11,[],https://www.yelp.com/biz/huong-lan-11-fresno?adjust_creative=Wu9gfEkr1Iqmmu5UKQvcJw&utm_campaign=yelp_api_v3&utm_medium=api_v3_business_search&utm_source=Wu9gfEkr1Iqmmu5UKQvcJw
basil-bistro-fresno,"['vietnamese', 'sandwiches', 'soup']","['Vietnamese', 'Sandwiches', 'Soup']",36.77188,-119.78193,(559) 225-7990,2829.1025125752058,MRf5tWpm3wpZSgZ17HMivA,https://s3-media2.fl.yelpcdn.com/bphoto/a1hwHMf9jBljbJkXAdleNQ/o.jpg,2327 N Fresno St,Ste 102,,Fresno,US,CA,93703,Basil Bistro,+15592257990,,4.0,36,[],https://www.yelp.com/biz/basil-bistro-fresno?adjust_creative=Wu9gfEkr1Iqmmu5UKQvcJw&utm_campaign=yelp_api_v3&utm_medium=api_v3_business_search&utm_source=Wu9gfEkr1Iqmmu5UKQvcJw
com-and-pho-bamboo-fresno,['vietnamese'],['Vietnamese'],36.85033,-119.77672,(559) 319-8167,6244.178201386725,vmFiXs3o8Afet3oH1hG6Ng,https://s3-media4.fl.yelpcdn.com/bphoto/ZLagQM1DVs9Ecby3iq80nQ/o.jpg,7737 North First St,,,Fresno,US,CA,93720,Com and Pho Bamboo,+15593198167,,4.0,46,[],https://www.yelp.com/biz/com-and-pho-bamboo-fresno?adjust_creative=Wu9gfEkr1Iqmmu5UKQvcJw&utm_campaign=yelp_api_v3&utm_medium=api_v3_business_search&utm_source=Wu9gfEkr1Iqmmu5UKQvcJw
pho-2006-clovis,['vietnamese'],['Vietnamese'],36.8133511,-119.7012152,(559) 322-8922,8327.267546601934,AUeUStvQTE8-UBUW0siHWQ,https://s3-media4.fl.yelpcdn.com/bphoto/pv1Rsp1BPbMKTd-bzdmcEw/o.jpg,1468 Clovis Ave,,,Clovis,US,CA,93612,Pho 2006,+15593228922,$,4.0,252,[],https://www.yelp.com/biz/pho-2006-clovis?adjust_creative=Wu9gfEkr1Iqmmu5UKQvcJw&utm_campaign=yelp_api_v3&utm_medium=api_v3_business_search&utm_source=Wu9gfEkr1Iqmmu5UKQvcJw
sweet-mango-mart-and-deli-fresno-2,"['vietnamese', 'thai']","['Vietnamese', 'Thai']",36.75889,-119.7723,(559) 515-6889,4493.750011537008,5allUwDDWvYeZmkCEttXnw,https://s3-media1.fl.yelpcdn.com/bphoto/A1Iq0couMDJJ6_3L7Udopw/o.jpg,1244 N First St,,,Fresno,US,CA,93703,Sweet Mango Mart & Deli,+15595156889,,4.5,20,[],https://www.yelp.com/biz/sweet-mango-mart-and-deli-fresno-2?adjust_creative=Wu9gfEkr1Iqmmu5UKQvcJw&utm_campaign=yelp_api_v3&utm_medium=api_v3_business_search&utm_source=Wu9gfEkr1Iqmmu5UKQvcJw
noodle-q-home-style-fresh-noodles-fresno-3,['noodles'],['Noodles'],36.7939751,-119.7796802,(559) 558-8973,1123.465589473511,eQT08GgVIYQi5wi6ciHbSQ,https://s3-media4.fl.yelpcdn.com/bphoto/AMKzF2dvozzDMu-llfk3Gg/o.jpg,2648 E Ashlan Ave,,,Fresno,US,CA,93726,Noodle Q Home Style Fresh Noodles,+15595588973,$,4.0,517,[],https://www.yelp.com/biz/noodle-q-home-style-fresh-noodles-fresno-3?adjust_creative=Wu9gfEkr1Iqmmu5UKQvcJw&utm_campaign=yelp_api_v3&utm_medium=api_v3_business_search&utm_source=Wu9gfEkr1Iqmmu5UKQvcJw
paradise-restaurant-fresno,['vietnamese'],['Vietnamese'],36.7674560546875,-119.772163391113,(559) 264-9025,3634.4237762577814,ZM4CVbA_Yb8PETqb71w4QQ,https://s3-media2.fl.yelpcdn.com/bphoto/Fm6Nv4XvOwkpSpnyPb6xwA/o.jpg,1848 N 1st St,,,Fresno,US,CA,93703,Paradise Restaurant,+15592649025,$,4.0,132,[],https://www.yelp.com/biz/paradise-restaurant-fresno?adjust_creative=Wu9gfEkr1Iqmmu5UKQvcJw&utm_campaign=yelp_api_v3&utm_medium=api_v3_business_search&utm_source=Wu9gfEkr1Iqmmu5UKQvcJw
huong-lan-pho-and-sandwiches-fresno-2,['vietnamese'],['Vietnamese'],36.7377760792984,-119.696696698666,(559) 251-5000,10682.718567252365,iH4VvDDVdPR96Dif3mvv7Q,https://s3-media3.fl.yelpcdn.com/bphoto/TBlhUqnZkRRuPxATORqMRA/o.jpg,5669 E Kings Canyon Rd,Ste 102,,Fresno,US,CA,93727,Huong Lan Pho & Sandwiches,+15592515000,$,3.5,136,[],https://www.yelp.com/biz/huong-lan-pho-and-sandwiches-fresno-2?adjust_creative=Wu9gfEkr1Iqmmu5UKQvcJw&utm_campaign=yelp_api_v3&utm_medium=api_v3_business_search&utm_source=Wu9gfEkr1Iqmmu5UKQvcJw
pho-1-fresno,['vietnamese'],['Vietnamese'],36.765913,-119.772164,(559) 233-9674,3781.9647480810704,oDXWskRUfQOwRj-VXV3gGA,https://s3-media1.fl.yelpcdn.com/bphoto/vAvpFWpwO4L5bZQR_wcc0Q/o.jpg,1656 N First,,,Fresno,US,CA,93703,Pho #1,+15592339674,$,3.5,135,[],https://www.yelp.com/biz/pho-1-fresno?adjust_creative=Wu9gfEkr1Iqmmu5UKQvcJw&utm_campaign=yelp_api_v3&utm_medium=api_v3_business_search&utm_source=Wu9gfEkr1Iqmmu5UKQvcJw
saigon-garden-fresno,['vietnamese'],['Vietnamese'],36.762123,-119.753906,(559) 251-7949,5098.553777747879,RhewwUMiRcBUGYC1X49hpA,https://s3-media4.fl.yelpcdn.com/bphoto/Qy-5emoNUMkGouSgj9GnsQ/o.jpg,1432 N Cedar Ave,,,Fresno,US,CA,93703,Saigon Garden,+15592517949,$,3.0,43,[],https://www.yelp.com/biz/saigon-garden-fresno?adjust_creative=Wu9gfEkr1Iqmmu5UKQvcJw&utm_campaign=yelp_api_v3&utm_medium=api_v3_business_search&utm_source=Wu9gfEkr1Iqmmu5UKQvcJw
pho-vn-clovis-2,['vietnamese'],['Vietnamese'],36.85164,-119.72789,(559) 324-8677,8444.390910145936,IWJCs_Fp9OKfOZ7cH360lQ,https://s3-media3.fl.yelpcdn.com/bphoto/868vf8oHCc9aKQFDNKFSlw/o.jpg,1187 N Willow Ave,Ste 104,,Clovis,US,CA,93611,Pho VN,+15593248677,$,3.5,120,[],https://www.yelp.com/biz/pho-vn-clovis-2?adjust_creative=Wu9gfEkr1Iqmmu5UKQvcJw&utm_campaign=yelp_api_v3&utm_medium=api_v3_business_search&utm_source=Wu9gfEkr1Iqmmu5UKQvcJw
lotus-kitchen-fresno-2,"['seafood', 'laotian', 'thai']","['Seafood', 'Laotian', 'Thai']",36.7619,-119.75423,(559) 374-5200,5098.553777747879,g3H7MFSUydHJsphkOYgKOA,https://s3-media2.fl.yelpcdn.com/bphoto/dH22VxDHnlmsapTih3Xfqw/o.jpg,1432 N Cedar Ave,Ste 106,,Fresno,US,CA,93703,Lotus Kitchen,+15593745200,$$$,4.0,53,"['delivery', 'pickup']",https://www.yelp.com/biz/lotus-kitchen-fresno-2?adjust_creative=Wu9gfEkr1Iqmmu5UKQvcJw&utm_campaign=yelp_api_v3&utm_medium=api_v3_business_search&utm_source=Wu9gfEkr1Iqmmu5UKQvcJw
pho-le-777-clovis,['vietnamese'],['Vietnamese'],36.854018,-119.728403,(559) 297-7776,8600.3251255527,_yP8_cwzZvWKkCLD77wvZQ,https://s3-media4.fl.yelpcdn.com/bphoto/jGl6TACkPFSn_F7-5UhB-A/o.jpg,1365 N Willow Ave,Ste 100,,Clovis,US,CA,93619,Pho Le 777,+15592977776,$,3.5,179,[],https://www.yelp.com/biz/pho-le-777-clovis?adjust_creative=Wu9gfEkr1Iqmmu5UKQvcJw&utm_campaign=yelp_api_v3&utm_medium=api_v3_business_search&utm_source=Wu9gfEkr1Iqmmu5UKQvcJw
asian-cuisine-fresno,['vietnamese'],['Vietnamese'],36.73451,-119.73441,(559) 255-1878,8564.030454834146,f-Oo5vTnBleAJKDPE5go1w,https://s3-media4.fl.yelpcdn.com/bphoto/-tSQgperBbEKcp-bBZFxRw/o.jpg,4842 E Kings Canyon Rd,,,Fresno,US,CA,93727,Asian Cuisine,+15592551878,$,3.5,49,[],https://www.yelp.com/biz/asian-cuisine-fresno?adjust_creative=Wu9gfEkr1Iqmmu5UKQvcJw&utm_campaign=yelp_api_v3&utm_medium=api_v3_business_search&utm_source=Wu9gfEkr1Iqmmu5UKQvcJw
pho-99-fresno,['vietnamese'],['Vietnamese'],36.7652049,-119.77131,(559) 485-1233,3878.3497180766567,u3pmDFEHU9X7GNx4iv2B5g,https://s3-media1.fl.yelpcdn.com/bphoto/-ylxoVQV5UQ3qMMBR7gNeg/o.jpg,3141 E McKinley Ave,,,Fresno,US,CA,93703,Pho 99,+15594851233,$,4.0,96,[],https://www.yelp.com/biz/pho-99-fresno?adjust_creative=Wu9gfEkr1Iqmmu5UKQvcJw&utm_campaign=yelp_api_v3&utm_medium=api_v3_business_search&utm_source=Wu9gfEkr1Iqmmu5UKQvcJw
pho-90-fresno,['vietnamese'],['Vietnamese'],36.771271,-119.78118,(559) 248-9090,2909.657759921347,hyhViDi3NgEl2w4DHJrU3w,https://s3-media3.fl.yelpcdn.com/bphoto/w1A02z8cV0vhlOFhyctZ_g/o.jpg,2256 N Fresno St,,,Fresno,US,CA,93703,Pho 90,+15592489090,$,3.5,128,[],https://www.yelp.com/biz/pho-90-fresno?adjust_creative=Wu9gfEkr1Iqmmu5UKQvcJw&utm_campaign=yelp_api_v3&utm_medium=api_v3_business_search&utm_source=Wu9gfEkr1Iqmmu5UKQvcJw
pho-lao-vieng-fresno-3,"['vietnamese', 'laotian', 'thai']","['Vietnamese', 'Laotian', 'Thai']",36.75801,-119.73771,(559) 389-0025,6423.117785694097,NrPbkVLqozxr1khTNvnPEQ,https://s3-media2.fl.yelpcdn.com/bphoto/Zp5pwFHHQB64cf65pRv9yQ/o.jpg,4767 E Olive Ave,,,Fresno,US,CA,93702,Pho Lao Vieng,+15593890025,$,3.5,57,[],https://www.yelp.com/biz/pho-lao-vieng-fresno-3?adjust_creative=Wu9gfEkr1Iqmmu5UKQvcJw&utm_campaign=yelp_api_v3&utm_medium=api_v3_business_search&utm_source=Wu9gfEkr1Iqmmu5UKQvcJw
nho-cafe-fresno,['vietnamese'],['Vietnamese'],36.7654722,-119.7712919,(559) 233-4195,3862.0657472872463,ms6DuGorkj_gp6KU7Sa0jg,https://s3-media4.fl.yelpcdn.com/bphoto/aHKxyHZql5sxBoLk5iSB0g/o.jpg,3145 E McKinley Ave,,,Fresno,US,CA,93703,Nho Cafe,+15592334195,$,4.0,57,[],https://www.yelp.com/biz/nho-cafe-fresno?adjust_creative=Wu9gfEkr1Iqmmu5UKQvcJw&utm_campaign=yelp_api_v3&utm_medium=api_v3_business_search&utm_source=Wu9gfEkr1Iqmmu5UKQvcJw
jasmine-garden-fresno,['vietnamese'],['Vietnamese'],36.8084927,-119.7398986,(559) 294-2199,4860.116859304343,bInMyFmYDELGlrUtRYy19Q,https://s3-media4.fl.yelpcdn.com/bphoto/k05MLo2iVTZnEi7iXGvsuw/o.jpg,2633 E Shaw Ave,,,Fresno,US,CA,93710,Jasmine Garden,+15592942199,$,3.5,64,[],https://www.yelp.com/biz/jasmine-garden-fresno?adjust_creative=Wu9gfEkr1Iqmmu5UKQvcJw&utm_campaign=yelp_api_v3&utm_medium=api_v3_business_search&utm_source=Wu9gfEkr1Iqmmu5UKQvcJw
wayside-noodles-fresno-2,['vietnamese'],['Vietnamese'],36.809379,-119.806806,(559) 389-0506,1984.7587752449617,KN5c3Z1Vg4gPNtYwU47qhw,https://s3-media4.fl.yelpcdn.com/bphoto/eDEZpRpgdFR2iAyvWBZEcg/o.jpg,760 W Shaw,Ste 101,,Fresno,US,CA,93704,Wayside Noodles,+15593890506,$,3.0,243,['pickup'],https://www.yelp.com/biz/wayside-noodles-fresno-2?adjust_creative=Wu9gfEkr1Iqmmu5UKQvcJw&utm_campaign=yelp_api_v3&utm_medium=api_v3_business_search&utm_source=Wu9gfEkr1Iqmmu5UKQvcJw
kings-kitchen-fresno,"['vietnamese', 'chinese']","['Vietnamese', 'Chinese']",36.736202,-119.746507,(559) 385-7325,7786.5578102734835,tVdmWpfUIbB5LQXRDk9keA,https://s3-media3.fl.yelpcdn.com/bphoto/n9sppddwrKa11VTtwTbrLg/o.jpg,4579 East Kings Canyon Rd,,,Fresno,US,CA,93702,Kings Kitchen,+15593857325,,4.5,25,[],https://www.yelp.com/biz/kings-kitchen-fresno?adjust_creative=Wu9gfEkr1Iqmmu5UKQvcJw&utm_campaign=yelp_api_v3&utm_medium=api_v3_business_search&utm_source=Wu9gfEkr1Iqmmu5UKQvcJw
phodera-madera,"['vietnamese', 'asianfusion', 'chinese']","['Vietnamese', 'Asian Fusion', 'Chinese']",36.9521553084448,-120.058760046959,(559) 395-4510,29396.281744797947,heK-S5sE6u0TeQw_MLFfdQ,https://s3-media2.fl.yelpcdn.com/bphoto/IQMaEIcBPM122az3Dmpq1w/o.jpg,200 W Olive Ave,,,Madera,US,CA,93637,Pho'dera,+15593954510,$,3.5,184,[],https://www.yelp.com/biz/phodera-madera?adjust_creative=Wu9gfEkr1Iqmmu5UKQvcJw&utm_campaign=yelp_api_v3&utm_medium=api_v3_business_search&utm_source=Wu9gfEkr1Iqmmu5UKQvcJw
pho-75-2-oriental-restaurant-fresno,['vietnamese'],['Vietnamese'],36.7655,-119.77161,(559) 497-9261,3846.8843398285126,gcDAa8HjvEDhsBIOo5UHlQ,https://s3-media3.fl.yelpcdn.com/bphoto/Dswj74LDKmbo0ajptJ26ug/o.jpg,3127 E McKinley Ave,,,Fresno,US,CA,93703,Pho 75-2 Oriental Restaurant,+15594979261,$,3.0,315,[],https://www.yelp.com/biz/pho-75-2-oriental-restaurant-fresno?adjust_creative=Wu9gfEkr1Iqmmu5UKQvcJw&utm_campaign=yelp_api_v3&utm_medium=api_v3_business_search&utm_source=Wu9gfEkr1Iqmmu5UKQvcJw
green-papaya-mart-and-deli-fresno,"['thai', 'grocery', 'sandwiches']","['Thai', 'Grocery', 'Sandwiches']",36.7725,-119.78263,(559) 570-8450,2738.543034289344,dKgDEWMMh3XstU7MAuTDWw,https://s3-media3.fl.yelpcdn.com/bphoto/psL5h3hd8tYY9wxfJmgwMQ/o.jpg,2403 E Clinton Ave,,,Fresno,US,CA,93703,Green Papaya Mart & Deli,+15595708450,$,4.5,95,[],https://www.yelp.com/biz/green-papaya-mart-and-deli-fresno?adjust_creative=Wu9gfEkr1Iqmmu5UKQvcJw&utm_campaign=yelp_api_v3&utm_medium=api_v3_business_search&utm_source=Wu9gfEkr1Iqmmu5UKQvcJw
popping-ave-boba-tea-fresno,['bubbletea'],['Bubble Tea'],36.81021,-119.78164,,1769.6326692082246,cDexQMo_RGh7txBWUGW2Dg,https://s3-media1.fl.yelpcdn.com/bphoto/Gc2QRnSsoUhLrPKH4myeaA/o.jpg,5091 N Fresno St,Ste 124,,Fresno,US,CA,93710,Popping Ave Boba Tea,,$$,4.5,23,[],https://www.yelp.com/biz/popping-ave-boba-tea-fresno?adjust_creative=Wu9gfEkr1Iqmmu5UKQvcJw&utm_campaign=yelp_api_v3&utm_medium=api_v3_business_search&utm_source=Wu9gfEkr1Iqmmu5UKQvcJw
sabaidee-thai-lao-cuisine-fresno,"['laotian', 'thai', 'seafood']","['Laotian', 'Thai', 'Seafood']",36.821375,-119.771131,(559) 412-7895,3395.09478758803,YTWzj7akSPgdMZ85qh0Smw,https://s3-media4.fl.yelpcdn.com/bphoto/ecXY6LJS_LXjEAZ2YwqjFg/o.jpg,5730 N First St,Ste 103,,Fresno,US,CA,93710,SabaiDee Thai Lao Cuisine,+15594127895,$$,4.0,588,['pickup'],https://www.yelp.com/biz/sabaidee-thai-lao-cuisine-fresno?adjust_creative=Wu9gfEkr1Iqmmu5UKQvcJw&utm_campaign=yelp_api_v3&utm_medium=api_v3_business_search&utm_source=Wu9gfEkr1Iqmmu5UKQvcJw
pho-lao-vientiane-fresno-2,"['laotian', 'thai', 'chinese']","['Laotian', 'Thai', 'Chinese']",36.77953,-119.82557,,3488.062052140224,cGk3pkPADElTK_LwYXFE_Q,https://s3-media3.fl.yelpcdn.com/bphoto/S3Fm1R5RMf9RJc-Ha2vyvA/o.jpg,1220 W Shields Ave,,,Fresno,US,CA,93705,Pho Lao Vientiane,,,4.5,11,[],https://www.yelp.com/biz/pho-lao-vientiane-fresno-2?adjust_creative=Wu9gfEkr1Iqmmu5UKQvcJw&utm_campaign=yelp_api_v3&utm_medium=api_v3_business_search&utm_source=Wu9gfEkr1Iqmmu5UKQvcJw
angkor-restaurant-fresno,"['cambodian', 'vietnamese']","['Cambodian', 'Vietnamese']",36.757774,-119.734843,(559) 454-0887,6637.591258848098,tQp56e8LxqX1oYPSQu8-Mw,https://s3-media1.fl.yelpcdn.com/bphoto/D2jXzrVSg4CTjveJ3_8czA/o.jpg,4853 E Olive Ave,,,Fresno,US,CA,93727,Angkor Restaurant,+15594540887,$$,3.5,66,[],https://www.yelp.com/biz/angkor-restaurant-fresno?adjust_creative=Wu9gfEkr1Iqmmu5UKQvcJw&utm_campaign=yelp_api_v3&utm_medium=api_v3_business_search&utm_source=Wu9gfEkr1Iqmmu5UKQvcJw
khmer-family-cafe-fresno,"['cambodian', 'cafes']","['Cambodian', 'Cafes']",36.7441736830939,-119.745863408443,(559) 478-4802,7079.098477507465,m4Aozi8fN0xQJyVy3sGIeg,https://s3-media3.fl.yelpcdn.com/bphoto/0mlsY4E7cNRAtkRWCYVHQg/o.jpg,133 North Maple Ave,,,Fresno,US,CA,93702,Khmer Family Cafe,+15594784802,$$,4.5,27,[],https://www.yelp.com/biz/khmer-family-cafe-fresno?adjust_creative=Wu9gfEkr1Iqmmu5UKQvcJw&utm_campaign=yelp_api_v3&utm_medium=api_v3_business_search&utm_source=Wu9gfEkr1Iqmmu5UKQvcJw
pho-76-restaurant-and-bakery-fresno,['vietnamese'],['Vietnamese'],36.765697,-119.736667,(559) 255-2510,5977.159861331064,fgD3sDklUrRAx1eamIXQuQ,https://s3-media4.fl.yelpcdn.com/bphoto/RhZnaVeXpdgnB2tS4ln_kA/o.jpg,4793 E McKinley Ave,,,Fresno,US,CA,93703,Pho 76 Restaurant & Bakery,+15592552510,$,3.0,135,[],https://www.yelp.com/biz/pho-76-restaurant-and-bakery-fresno?adjust_creative=Wu9gfEkr1Iqmmu5UKQvcJw&utm_campaign=yelp_api_v3&utm_medium=api_v3_business_search&utm_source=Wu9gfEkr1Iqmmu5UKQvcJw
susan-deli-and-drinking-center-fresno,"['vietnamese', 'laotian', 'thai']","['Vietnamese', 'Laotian', 'Thai']",36.7718227,-119.780759,(559) 224-1905,2865.052480425535,XxXN4hDrh03ltwRZWxj8iA,https://s3-media2.fl.yelpcdn.com/bphoto/qtr8_flFjqGRabWa8IMa3Q/o.jpg,2302 N Fresno St,,,Fresno,US,CA,93703,Susan Deli and Drinking Center,+15592241905,$,3.5,43,[],https://www.yelp.com/biz/susan-deli-and-drinking-center-fresno?adjust_creative=Wu9gfEkr1Iqmmu5UKQvcJw&utm_campaign=yelp_api_v3&utm_medium=api_v3_business_search&utm_source=Wu9gfEkr1Iqmmu5UKQvcJw
angkor-asian-bistro-and-bar-fresno-5,"['cambodian', 'asianfusion', 'bars']","['Cambodian', 'Asian Fusion', 'Bars']",36.86786,-119.75561,(559) 492-2344,8559.180406553283,8WHl9xsVO-EwvKcwVzyyHg,https://s3-media1.fl.yelpcdn.com/bphoto/isDFNq2-hMBpqZpg6ZpaUw/o.jpg,1568 E Champlain Dr,Ste 105,,Fresno,US,CA,93720,Angkor Asian Bistro & Bar,+15594922344,$$,4.5,70,[],https://www.yelp.com/biz/angkor-asian-bistro-and-bar-fresno-5?adjust_creative=Wu9gfEkr1Iqmmu5UKQvcJw&utm_campaign=yelp_api_v3&utm_medium=api_v3_business_search&utm_source=Wu9gfEkr1Iqmmu5UKQvcJw
p-f-changs-fresno,"['chinese', 'asianfusion', 'gluten_free']","['Chinese', 'Asian Fusion', 'Gluten-Free']",36.8514566941257,-119.790229357941,(559) 438-0814,6178.719686602026,7YpATMBvXAp1eUGzt9q5Kw,https://s3-media2.fl.yelpcdn.com/bphoto/vmsGOHO-0O0jaXP3FLDKpA/o.jpg,7894 N Blackstone Ave,,,Fresno,US,CA,93720,P.F. Chang's,+15594380814,$$,3.5,248,"['delivery', 'pickup']",https://www.yelp.com/biz/p-f-changs-fresno?adjust_creative=Wu9gfEkr1Iqmmu5UKQvcJw&utm_campaign=yelp_api_v3&utm_medium=api_v3_business_search&utm_source=Wu9gfEkr1Iqmmu5UKQvcJw
taipei-101-fresno,"['coffee', 'desserts', 'bubbletea']","['Coffee & Tea', 'Desserts', 'Bubble Tea']",36.83546,-119.75277,(559) 323-4804,5664.326235632281,f7ntqpgWlH0RL4OyaiYf9Q,https://s3-media1.fl.yelpcdn.com/bphoto/u3r1cogHmDmv9n-AFesFsg/o.jpg,6702 N Cedar Ave,Ste 103,,Fresno,US,CA,93710,Taipei 101,+15593234804,$$,4.0,354,[],https://www.yelp.com/biz/taipei-101-fresno?adjust_creative=Wu9gfEkr1Iqmmu5UKQvcJw&utm_campaign=yelp_api_v3&utm_medium=api_v3_business_search&utm_source=Wu9gfEkr1Iqmmu5UKQvcJw
legendary-pho-restaurant-fresno,['vietnamese'],['Vietnamese'],36.7942374140322,-119.872007899197,(559) 271-8889,7110.964101372568,p8wh2Xjt0JEFmM5oy2Lm5Q,https://s3-media2.fl.yelpcdn.com/bphoto/vYy_4gw0y29_y_DHqmAooQ/o.jpg,4446 W Ashlan Ave,,,Fresno,US,CA,93722,Legendary Pho Restaurant,+15592718889,$,2.5,180,[],https://www.yelp.com/biz/legendary-pho-restaurant-fresno?adjust_creative=Wu9gfEkr1Iqmmu5UKQvcJw&utm_campaign=yelp_api_v3&utm_medium=api_v3_business_search&utm_source=Wu9gfEkr1Iqmmu5UKQvcJw
ac-mart-and-deli-fresno,"['grocery', 'laotian']","['Grocery', 'Laotian']",36.75743,-119.77284,(559) 441-7518,4619.0405564826915,3z-mWWuWKr6x1GDD70_Ytg,https://s3-media4.fl.yelpcdn.com/bphoto/dKK7_vmN6wzG5RZBCk6PWw/o.jpg,3080 E Olive Ave,,,Fresno,US,CA,93701,AC Mart & Deli,+15594417518,$,4.5,38,[],https://www.yelp.com/biz/ac-mart-and-deli-fresno?adjust_creative=Wu9gfEkr1Iqmmu5UKQvcJw&utm_campaign=yelp_api_v3&utm_medium=api_v3_business_search&utm_source=Wu9gfEkr1Iqmmu5UKQvcJw
sweet-lyfe-boba-bar-fresno-2,"['bubbletea', 'juicebars', 'coffee']","['Bubble Tea', 'Juice Bars & Smoothies', 'Coffee & Tea']",36.812381,-119.735041,(559) 353-2440,5406.395428848584,ansEh1ZYavcDa5UaVhyXqw,https://s3-media2.fl.yelpcdn.com/bphoto/OmUWqgNlJUE3ZczfPuJQzQ/o.jpg,3052 E Campus Pointe Dr,,,Fresno,US,CA,93710,Sweet Lyfe Boba Bar,+15593532440,$,4.0,295,[],https://www.yelp.com/biz/sweet-lyfe-boba-bar-fresno-2?adjust_creative=Wu9gfEkr1Iqmmu5UKQvcJw&utm_campaign=yelp_api_v3&utm_medium=api_v3_business_search&utm_source=Wu9gfEkr1Iqmmu5UKQvcJw
mr-papaya-kitchen-fresno,"['thai', 'laotian', 'vietnamese']","['Thai', 'Laotian', 'Vietnamese']",36.73709,-119.73155,(559) 453-0709,8447.365135619684,Xe3kMAFaBnN02w-m2jcxpQ,https://s3-media4.fl.yelpcdn.com/bphoto/4WFH7yX04NG0CG7U_bFpbw/o.jpg,4903 E Kings Canyon Rd,Ste 106,,Fresno,US,CA,93727,Mr. Papaya Kitchen,+15594530709,$,3.0,144,[],https://www.yelp.com/biz/mr-papaya-kitchen-fresno?adjust_creative=Wu9gfEkr1Iqmmu5UKQvcJw&utm_campaign=yelp_api_v3&utm_medium=api_v3_business_search&utm_source=Wu9gfEkr1Iqmmu5UKQvcJw
rice-bowl-madera,['asianfusion'],['Asian Fusion'],36.9234580993652,-119.868606567383,(559) 645-5454,15698.89334955569,w1NWyOGCESF6KtES-pRQMQ,https://s3-media2.fl.yelpcdn.com/bphoto/m8vxzLTGCPQaEEL2Ti3Kpg/o.jpg,37405 Ave 12,,,Madera,US,CA,93636,Rice Bowl,+15596455454,$,4.5,36,[],https://www.yelp.com/biz/rice-bowl-madera?adjust_creative=Wu9gfEkr1Iqmmu5UKQvcJw&utm_campaign=yelp_api_v3&utm_medium=api_v3_business_search&utm_source=Wu9gfEkr1Iqmmu5UKQvcJw
sf-supermarket-fresno,['importedfood'],['Imported Food'],36.7356988,-119.7283287,(559) 255-5898,8883.049555407999,lJ4P4nk5unDYNsrIuVRUJw,https://s3-media1.fl.yelpcdn.com/bphoto/gIIXtFLdlo5oZTCgx7ymLA/o.jpg,4970 E Kings Canyon Rd,,,Fresno,US,CA,93727,SF Supermarket,+15592555898,$,4.0,60,[],https://www.yelp.com/biz/sf-supermarket-fresno?adjust_creative=Wu9gfEkr1Iqmmu5UKQvcJw&utm_campaign=yelp_api_v3&utm_medium=api_v3_business_search&utm_source=Wu9gfEkr1Iqmmu5UKQvcJw
15-tea-fresno,"['coffee', 'tea', 'bubbletea']","['Coffee & Tea', 'Tea Rooms', 'Bubble Tea']",36.8525029155926,-119.791915118694,(559) 840-1948,6292.668472563663,Lr0yIIpVpu1NFN5vrg5IxQ,https://s3-media2.fl.yelpcdn.com/bphoto/uy0_IIaSdeG-9F1to77-wg/o.jpg,132 W Nees Ave,Ste 103,,Fresno,US,CA,93711,15 Tea,+15598401948,$,3.5,79,[],https://www.yelp.com/biz/15-tea-fresno?adjust_creative=Wu9gfEkr1Iqmmu5UKQvcJw&utm_campaign=yelp_api_v3&utm_medium=api_v3_business_search&utm_source=Wu9gfEkr1Iqmmu5UKQvcJw
pearl-tea-house-fresno,"['tea', 'bubbletea', 'juicebars']","['Tea Rooms', 'Bubble Tea', 'Juice Bars & Smoothies']",36.8079387754946,-119.740325713783,(559) 291-1899,4806.225594054617,teIsHtCpNPoBtqiPcaQADQ,https://s3-media3.fl.yelpcdn.com/bphoto/QtbB2VAh3-Aw-q2ru75aRg/o.jpg,2633 E Shaw Ave,Ste 107,,Fresno,US,CA,93710,Pearl Tea House,+15592911899,$,3.5,200,[],https://www.yelp.com/biz/pearl-tea-house-fresno?adjust_creative=Wu9gfEkr1Iqmmu5UKQvcJw&utm_campaign=yelp_api_v3&utm_medium=api_v3_business_search&utm_source=Wu9gfEkr1Iqmmu5UKQvcJw
thai-season-clovis,['thai'],['Thai'],36.8096750961192,-119.711730504369,(559) 297-0307,7323.991998494329,AjxWtcMpGg_tu6w_tliYOQ,https://s3-media4.fl.yelpcdn.com/bphoto/jouiFq6E7fOZnH41krUwAQ/o.jpg,135 W Shaw Ave,,,Clovis,US,CA,93612,Thai Season,+15592970307,$$,4.0,177,[],https://www.yelp.com/biz/thai-season-clovis?adjust_creative=Wu9gfEkr1Iqmmu5UKQvcJw&utm_campaign=yelp_api_v3&utm_medium=api_v3_business_search&utm_source=Wu9gfEkr1Iqmmu5UKQvcJw
tower-tea-fresno-2,"['bubbletea', 'juicebars', 'comfortfood']","['Bubble Tea', 'Juice Bars & Smoothies', 'Comfort Food']",36.764837,-119.798541,(559) 269-8668,3501.56821210767,H-e-QbnJqXq7Q4OiTLQIVg,https://s3-media3.fl.yelpcdn.com/bphoto/bpWkJxKS7oxmEeP_7O1IaQ/o.jpg,1020 E McKinley Ave,,,Fresno,US,CA,93728,Tower Tea,+15592698668,$,4.5,61,[],https://www.yelp.com/biz/tower-tea-fresno-2?adjust_creative=Wu9gfEkr1Iqmmu5UKQvcJw&utm_campaign=yelp_api_v3&utm_medium=api_v3_business_search&utm_source=Wu9gfEkr1Iqmmu5UKQvcJw
fob-fried-or-boiled-seafood-fusion-fresno-3,"['seafood', 'asianfusion']","['Seafood', 'Asian Fusion']",36.79549,-119.78964,(559) 724-9980,202.68142713395991,dIXmowpb43vQWlKXvfPS6w,https://s3-media1.fl.yelpcdn.com/bphoto/lz-jHOoY8WrYtmKL1I-MGQ/o.jpg,4280 N Blackstone Ave,,,Fresno,US,CA,93726,FOB Fried Or Boiled Seafood Fusion,+15597249980,$$,3.5,284,[],https://www.yelp.com/biz/fob-fried-or-boiled-seafood-fusion-fresno-3?adjust_creative=Wu9gfEkr1Iqmmu5UKQvcJw&utm_campaign=yelp_api_v3&utm_medium=api_v3_business_search&utm_source=Wu9gfEkr1Iqmmu5UKQvcJw
ding-ho-kitchen-fresno,['chinese'],['Chinese'],36.82319,-119.84549,(559) 431-9685,5643.847945166956,UGjZOtLKYk1_S5FVMOUtog,https://s3-media4.fl.yelpcdn.com/bphoto/UccFGE1zovCHqKXY-65K7w/o.jpg,3022 W Bullard Ave,,,Fresno,US,CA,93711,Ding Ho Kitchen,+15594319685,$,4.0,181,[],https://www.yelp.com/biz/ding-ho-kitchen-fresno?adjust_creative=Wu9gfEkr1Iqmmu5UKQvcJw&utm_campaign=yelp_api_v3&utm_medium=api_v3_business_search&utm_source=Wu9gfEkr1Iqmmu5UKQvcJw
hunan-chinese-restaurant-fresno,"['chinese', 'breakfast_brunch', 'seafood']","['Chinese', 'Breakfast & Brunch', 'Seafood']",36.835874,-119.752224,(559) 297-0336,5691.5233258628805,otDtrKePBs4zNMtZdl6T9Q,https://s3-media1.fl.yelpcdn.com/bphoto/1OjszCPoekFXrmjM2kGH5g/o.jpg,6716 N Cedar Ave,Ste 104,,Fresno,US,CA,93710,Hunan Chinese Restaurant,+15592970336,$$,4.0,407,[],https://www.yelp.com/biz/hunan-chinese-restaurant-fresno?adjust_creative=Wu9gfEkr1Iqmmu5UKQvcJw&utm_campaign=yelp_api_v3&utm_medium=api_v3_business_search&utm_source=Wu9gfEkr1Iqmmu5UKQvcJw
pad-thai-restaurant-clovis,['thai'],['Thai'],36.8084135,-119.7063075,(559) 324-1235,7770.561737568113,nIvzmLsg0tWhBVV9RLwHbA,https://s3-media3.fl.yelpcdn.com/bphoto/zB5R0f1VFGGaP8LReZd2fA/o.jpg,198 Shaw Ave,,,Clovis,US,CA,93612,Pad Thai Restaurant,+15593241235,$$,4.0,474,[],https://www.yelp.com/biz/pad-thai-restaurant-clovis?adjust_creative=Wu9gfEkr1Iqmmu5UKQvcJw&utm_campaign=yelp_api_v3&utm_medium=api_v3_business_search&utm_source=Wu9gfEkr1Iqmmu5UKQvcJw
flower-city-restaurant-fresno,"['chinese', 'bbq', 'seafood']","['Chinese', 'Barbeque', 'Seafood']",36.82218,-119.80854,(559) 432-2030,3331.1913463045753,iegmRIXaRljjAYT71cTcFQ,https://s3-media2.fl.yelpcdn.com/bphoto/LdOLkf_JBpVnMoP0ANEimw/o.jpg,5785 N Palm Ave,,,Fresno,US,CA,93704,Flower City Restaurant,+15594322030,$,4.0,139,[],https://www.yelp.com/biz/flower-city-restaurant-fresno?adjust_creative=Wu9gfEkr1Iqmmu5UKQvcJw&utm_campaign=yelp_api_v3&utm_medium=api_v3_business_search&utm_source=Wu9gfEkr1Iqmmu5UKQvcJw
1920-tea-club-fresno,"['desserts', 'coffee', 'bubbletea']","['Desserts', 'Coffee & Tea', 'Bubble Tea']",36.8232011976219,-119.806794300435,(559) 412-4727,3301.753863829864,SS8BAoLlDe48KJVSVhTSYw,https://s3-media1.fl.yelpcdn.com/bphoto/bzCcS-vMFFIH-8DP829cdw/o.jpg,732 W Bullard Ave,,,Fresno,US,CA,93704,1920 Tea Club,+15594124727,$$,3.5,500,"['pickup', 'delivery']",https://www.yelp.com/biz/1920-tea-club-fresno?adjust_creative=Wu9gfEkr1Iqmmu5UKQvcJw&utm_campaign=yelp_api_v3&utm_medium=api_v3_business_search&utm_source=Wu9gfEkr1Iqmmu5UKQvcJw
new-city-chinese-cuisine-fresno,"['dimsum', 'cantonese']","['Dim Sum', 'Cantonese']",36.8089294433594,-119.761306762695,(559) 227-0896,3106.2332734293104,QFLOgHDkvn52wiK4NsuVaA,https://s3-media3.fl.yelpcdn.com/bphoto/vfzYMYQiD1MsQZcS5n95GA/o.jpg,1484 E Shaw Ave,,,Fresno,US,CA,93710,New City Chinese Cuisine,+15592270896,$$,3.5,177,"['pickup', 'delivery']",https://www.yelp.com/biz/new-city-chinese-cuisine-fresno?adjust_creative=Wu9gfEkr1Iqmmu5UKQvcJw&utm_campaign=yelp_api_v3&utm_medium=api_v3_business_search&utm_source=Wu9gfEkr1Iqmmu5UKQvcJw
asian-one-grocery-fresno,['importedfood'],['Imported Food'],36.79388,-119.8727,(559) 271-5981,7188.652968473155,AcIwc04sdK7KwbnkGU5bfw,https://s3-media3.fl.yelpcdn.com/bphoto/ZGVQgg6b1Q3DeL_eMoebqA/o.jpg,4470 W Ashlan Ave,,,Fresno,US,CA,93722,Asian One Grocery,+15592715981,$$,3.5,15,[],https://www.yelp.com/biz/asian-one-grocery-fresno?adjust_creative=Wu9gfEkr1Iqmmu5UKQvcJw&utm_campaign=yelp_api_v3&utm_medium=api_v3_business_search&utm_source=Wu9gfEkr1Iqmmu5UKQvcJw
rocket-dog-gourmet-brats-and-brew-fresno,"['hotdog', 'newamerican', 'sandwiches']","['Hot Dogs', 'American (New)', 'Sandwiches']",36.8088049482694,-119.788546097112,(559) 283-8096,1469.601793180903,N2eqSo_1vpFcICQnZzq3hA,https://s3-media2.fl.yelpcdn.com/bphoto/Nqz7OBNO0UWsac84hrKOHg/o.jpg,88 E Shaw Ave,,,Fresno,US,CA,93710,Rocket Dog Gourmet Brats & Brew,+15592838096,$,4.5,775,"['pickup', 'delivery']",https://www.yelp.com/biz/rocket-dog-gourmet-brats-and-brew-fresno?adjust_creative=Wu9gfEkr1Iqmmu5UKQvcJw&utm_campaign=yelp_api_v3&utm_medium=api_v3_business_search&utm_source=Wu9gfEkr1Iqmmu5UKQvcJw
golden-dragon-oriental-cuisine-fresno,['chinese'],['Chinese'],36.73642,-119.71735,(559) 458-0488,9403.736143906484,gI55HYTq9TOHg8ae2RBZ_g,https://s3-media1.fl.yelpcdn.com/bphoto/rTtyUYHrfDcmpmZxrFIbBQ/o.jpg,5235 E Kings Canyon Rd,Ste 101,,Fresno,US,CA,93727,Golden Dragon Oriental Cuisine,+15594580488,$,3.5,82,[],https://www.yelp.com/biz/golden-dragon-oriental-cuisine-fresno?adjust_creative=Wu9gfEkr1Iqmmu5UKQvcJw&utm_campaign=yelp_api_v3&utm_medium=api_v3_business_search&utm_source=Wu9gfEkr1Iqmmu5UKQvcJw
celsius-poke-bowl-and-boba-bar-fresno,"['bubbletea', 'juicebars', 'poke']","['Bubble Tea', 'Juice Bars & Smoothies', 'Poke']",36.85095,-119.77292,(559) 385-7595,6338.248934195297,EhQ9_wI7PwCR5mR4IQsceA,https://s3-media3.fl.yelpcdn.com/bphoto/qUpI7gLsBatZ3kJOhAqRBw/o.jpg,681 E Nees Ave,,,Fresno,US,CA,93720,Celsius Poke Bowl & Boba Bar,+15593857595,$,4.0,214,[],https://www.yelp.com/biz/celsius-poke-bowl-and-boba-bar-fresno?adjust_creative=Wu9gfEkr1Iqmmu5UKQvcJw&utm_campaign=yelp_api_v3&utm_medium=api_v3_business_search&utm_source=Wu9gfEkr1Iqmmu5UKQvcJw
dai-bai-dang-fresno,"['chinese', 'bars', 'asianfusion']","['Chinese', 'Bars', 'Asian Fusion']",36.849127,-119.788317,(559) 448-8894,5927.1993792028925,sGs1vJhLTKedYP3-_G4XUg,https://s3-media2.fl.yelpcdn.com/bphoto/gk-xBe1mEO1XXUsxMpJYKQ/o.jpg,165 E Paseo Del Centro,,,Fresno,US,CA,93720,Dai Bai Dang,+15594488894,$$,3.5,256,['pickup'],https://www.yelp.com/biz/dai-bai-dang-fresno?adjust_creative=Wu9gfEkr1Iqmmu5UKQvcJw&utm_campaign=yelp_api_v3&utm_medium=api_v3_business_search&utm_source=Wu9gfEkr1Iqmmu5UKQvcJw
lao-cafe-2-fresno-3,"['thai', 'laotian']","['Thai', 'Laotian']",36.78072,-119.75514,(559) 243-7099,3644.234776602793,LKl2VS78sKBVzDPXuh3Rfw,https://s3-media2.fl.yelpcdn.com/bphoto/eU2zaNLit7eq6Wwm8qdKNw/o.jpg,3255 N Cedar Ave,,,Fresno,US,CA,93726,Lao Cafe 2,+15592437099,$$,4.0,83,[],https://www.yelp.com/biz/lao-cafe-2-fresno-3?adjust_creative=Wu9gfEkr1Iqmmu5UKQvcJw&utm_campaign=yelp_api_v3&utm_medium=api_v3_business_search&utm_source=Wu9gfEkr1Iqmmu5UKQvcJw
lao-thai-restaurant-fresno,"['thai', 'laotian']","['Thai', 'Laotian']",36.7361285693182,-119.730996638762,(559) 251-2800,8595.845670086324,Tka7z2BD4TjLz9lEcNyjdg,https://s3-media2.fl.yelpcdn.com/bphoto/ZzE2Qt6V5K-k1F8_y2T7-Q/o.jpg,4937 E Kings Canyon Rd,,,Fresno,US,CA,93727,Lao-Thai Restaurant,+15592512800,$,4.0,146,[],https://www.yelp.com/biz/lao-thai-restaurant-fresno?adjust_creative=Wu9gfEkr1Iqmmu5UKQvcJw&utm_campaign=yelp_api_v3&utm_medium=api_v3_business_search&utm_source=Wu9gfEkr1Iqmmu5UKQvcJw
thai-gem-clovis,['thai'],['Thai'],36.8074265708953,-119.725582229015,(559) 298-4425,6065.798579266228,HUKej-hPtP8gflOztZXAPQ,https://s3-media2.fl.yelpcdn.com/bphoto/tqAZCI_TrGm8Ay0Mi4T2Kw/o.jpg,742 W Shaw Ave,,,Clovis,US,CA,93612,Thai Gem,+15592984425,$$,4.0,110,[],https://www.yelp.com/biz/thai-gem-clovis?adjust_creative=Wu9gfEkr1Iqmmu5UKQvcJw&utm_campaign=yelp_api_v3&utm_medium=api_v3_business_search&utm_source=Wu9gfEkr1Iqmmu5UKQvcJw
mamas-asian-noodle-house-fresno,"['laotian', 'thai', 'noodles']","['Laotian', 'Thai', 'Noodles']",36.7658877026041,-119.737051978247,(559) 293-3959,5936.878786539718,j8NNSMbL6GX_77kg-5Q54Q,https://s3-media3.fl.yelpcdn.com/bphoto/uR5RXxkeUcFH4IfTIeXQSQ/o.jpg,4787 E McKinley Ave,,,Fresno,US,CA,93703,Mamas Asian Noodle House,+15592933959,$,4.0,316,[],https://www.yelp.com/biz/mamas-asian-noodle-house-fresno?adjust_creative=Wu9gfEkr1Iqmmu5UKQvcJw&utm_campaign=yelp_api_v3&utm_medium=api_v3_business_search&utm_source=Wu9gfEkr1Iqmmu5UKQvcJw
thai-country-restaurant-clovis,"['thai', 'chinese']","['Thai', 'Chinese']",36.82337,-119.71209,(559) 298-6697,7764.379711236814,TntoHjXiOUHpzdc9rKJVQw,https://s3-media3.fl.yelpcdn.com/bphoto/QSf9qxapUueIx29xqel6dA/o.jpg,151 W Bullard Ave,Ste 103,,Clovis,US,CA,93612,Thai Country Restaurant,+15592986697,$$,4.0,373,[],https://www.yelp.com/biz/thai-country-restaurant-clovis?adjust_creative=Wu9gfEkr1Iqmmu5UKQvcJw&utm_campaign=yelp_api_v3&utm_medium=api_v3_business_search&utm_source=Wu9gfEkr1Iqmmu5UKQvcJw
thai-chili-clovis,"['thai', 'laotian']","['Thai', 'Laotian']",36.823363,-119.708429,(559) 326-0309,8056.248499979631,1p2GW8gxIrFhQwBOIxAwzA,https://s3-media4.fl.yelpcdn.com/bphoto/6yBWTDUzLcdd8L2_i1s3yg/o.jpg,75 Bullard Ave,,,Clovis,US,CA,93612,Thai Chili,+15593260309,$$,3.5,84,[],https://www.yelp.com/biz/thai-chili-clovis?adjust_creative=Wu9gfEkr1Iqmmu5UKQvcJw&utm_campaign=yelp_api_v3&utm_medium=api_v3_business_search&utm_source=Wu9gfEkr1Iqmmu5UKQvcJw
boba-cafe-fresno-2,['asianfusion'],['Asian Fusion'],36.7371957512638,-119.730633968089,(559) 252-5829,8525.121573026294,G7EhBNNZ1qaXWc8v1EslqQ,https://s3-media3.fl.yelpcdn.com/bphoto/xkYAMwqObgtl0MwoMj_bFg/o.jpg,4917 E Kings Canyon Rd,,,Fresno,US,CA,93727,Boba Cafe,+15592525829,$,3.5,22,[],https://www.yelp.com/biz/boba-cafe-fresno-2?adjust_creative=Wu9gfEkr1Iqmmu5UKQvcJw&utm_campaign=yelp_api_v3&utm_medium=api_v3_business_search&utm_source=Wu9gfEkr1Iqmmu5UKQvcJw
b-and-k-asian-kitchen-fresno,['thai'],['Thai'],36.7592982,-119.7720551,(559) 237-3918,4448.175115546952,180F8-rj_e53-2wgnS9HVQ,https://s3-media4.fl.yelpcdn.com/bphoto/thfru4J7NvhuKsyGQ2EKSw/o.jpg,1276 N First St,,,Fresno,US,CA,93703,B & K Asian Kitchen,+15592373918,$$,4.0,175,[],https://www.yelp.com/biz/b-and-k-asian-kitchen-fresno?adjust_creative=Wu9gfEkr1Iqmmu5UKQvcJw&utm_campaign=yelp_api_v3&utm_medium=api_v3_business_search&utm_source=Wu9gfEkr1Iqmmu5UKQvcJw
bowlzeye-clovis,['asianfusion'],['Asian Fusion'],36.823364,-119.708427,(559) 298-3986,8056.248499979631,Ddx7GmwmQYsRO_pprKXbng,https://s3-media3.fl.yelpcdn.com/bphoto/QrccQopFwFVW7pdn5glPPQ/o.jpg,75 Bullard Ave,Ste 102,,Clovis,US,CA,93612,Bowlzeye,+15592983986,$,4.5,186,[],https://www.yelp.com/biz/bowlzeye-clovis?adjust_creative=Wu9gfEkr1Iqmmu5UKQvcJw&utm_campaign=yelp_api_v3&utm_medium=api_v3_business_search&utm_source=Wu9gfEkr1Iqmmu5UKQvcJw
pho-long-hai-fresno,['vietnamese'],['Vietnamese'],36.7505849,-119.7846893,,5075.7387409915555,L61SLl8wE7CnH_XVj-XEwQ,,2213 E Belmont St,Ste 101,,Fresno,US,CA,93701,Pho Long Hai,,$,2.5,4,[],https://www.yelp.com/biz/pho-long-hai-fresno?adjust_creative=Wu9gfEkr1Iqmmu5UKQvcJw&utm_campaign=yelp_api_v3&utm_medium=api_v3_business_search&utm_source=Wu9gfEkr1Iqmmu5UKQvcJw
which-wich-clovis-2,['sandwiches'],['Sandwiches'],36.8074084950424,-119.693597895107,(559) 424-0098,8869.470392041305,tNwFzq_XV2K90uGmerNK3w,https://s3-media4.fl.yelpcdn.com/bphoto/pTrzqG0FqOocukxUOsTqkg/o.jpg,1220 Shaw Ave,Ste 105,,Clovis,US,CA,93612,Which Wich,+15594240098,$,4.0,117,"['pickup', 'delivery']",https://www.yelp.com/biz/which-wich-clovis-2?adjust_creative=Wu9gfEkr1Iqmmu5UKQvcJw&utm_campaign=yelp_api_v3&utm_medium=api_v3_business_search&utm_source=Wu9gfEkr1Iqmmu5UKQvcJw
the-loving-hut-fresno,['vegan'],['Vegan'],36.76292,-119.79926,(559) 237-4052,3715.7186049181687,Un6lNNQG6guFOy4_KRNJ6A,https://s3-media4.fl.yelpcdn.com/bphoto/qOSUEMJ1x1jlX_U8Bbs_4Q/o.jpg,1495 N Van Ness Ave,,,Fresno,US,CA,93728,The Loving Hut,+15592374052,$,4.0,155,[],https://www.yelp.com/biz/the-loving-hut-fresno?adjust_creative=Wu9gfEkr1Iqmmu5UKQvcJw&utm_campaign=yelp_api_v3&utm_medium=api_v3_business_search&utm_source=Wu9gfEkr1Iqmmu5UKQvcJw
four-seasons-chinese-restaurant-clovis,"['dimsum', 'cantonese']","['Dim Sum', 'Cantonese']",36.836089,-119.700546,(559) 324-8438,9300.015239381391,hMfucHIOMz9zKqtRvU_TmQ,https://s3-media2.fl.yelpcdn.com/bphoto/9pT34Z60OHOV2H3XVQrxDg/o.jpg,342 N Clovis Ave,,,Clovis,US,CA,93612,Four Seasons Chinese Restaurant,+15593248438,$$,3.5,353,[],https://www.yelp.com/biz/four-seasons-chinese-restaurant-clovis?adjust_creative=Wu9gfEkr1Iqmmu5UKQvcJw&utm_campaign=yelp_api_v3&utm_medium=api_v3_business_search&utm_source=Wu9gfEkr1Iqmmu5UKQvcJw
pure-water-and-ice-cream-clovis-2,"['icecream', 'bubbletea', 'juicebars']","['Ice Cream & Frozen Yogurt', 'Bubble Tea', 'Juice Bars & Smoothies']",36.79433,-119.68101,(559) 346-1399,9899.378821189232,OR5ntCIJfyaKPXRJPcHztw,https://s3-media1.fl.yelpcdn.com/bphoto/ZRDlD5jSK3ZIxvYAeGiKlA/o.jpg,1835 Ashlan Ave,Ste 103A,,Clovis,US,CA,93611,Pure Water & Ice Cream,+15593461399,$$,4.0,18,[],https://www.yelp.com/biz/pure-water-and-ice-cream-clovis-2?adjust_creative=Wu9gfEkr1Iqmmu5UKQvcJw&utm_campaign=yelp_api_v3&utm_medium=api_v3_business_search&utm_source=Wu9gfEkr1Iqmmu5UKQvcJw
thai-phuket-restaurant-fresno,['thai'],['Thai'],36.7668432641255,-119.771979600191,(559) 412-8873,3699.0033868356227,MTxF02rI-KUfO_1OlNmVUw,https://s3-media1.fl.yelpcdn.com/bphoto/xWPtu-aqYyTBJREBeFPfiA/o.jpg,1830 N First St,,,Fresno,US,CA,93703,Thai Phuket Restaurant,+15594128873,$,3.0,111,[],https://www.yelp.com/biz/thai-phuket-restaurant-fresno?adjust_creative=Wu9gfEkr1Iqmmu5UKQvcJw&utm_campaign=yelp_api_v3&utm_medium=api_v3_business_search&utm_source=Wu9gfEkr1Iqmmu5UKQvcJw
china-house-sanger,['chinese'],['Chinese'],36.7123038294538,-119.558200836182,(559) 875-8838,22824.100925312167,wWedLiYC2doQAXLPs6jR-w,https://s3-media4.fl.yelpcdn.com/bphoto/s-xaUvWM_YyDXGWcrVW51g/o.jpg,237 Academy Ave,,,Sanger,US,CA,93657,China House,+15598758838,$,4.0,16,[],https://www.yelp.com/biz/china-house-sanger?adjust_creative=Wu9gfEkr1Iqmmu5UKQvcJw&utm_campaign=yelp_api_v3&utm_medium=api_v3_business_search&utm_source=Wu9gfEkr1Iqmmu5UKQvcJw
emw-china-bistro-express-fresno,"['chinese', 'bubbletea', 'gluten_free']","['Chinese', 'Bubble Tea', 'Gluten-Free']",36.8708840435644,-119.765712397132,(559) 434-8399,8662.80404950543,XrpNLBVIijpLKCJddsJUQQ,https://s3-media4.fl.yelpcdn.com/bphoto/COwSQbOi3XfhoHPUg_THUw/o.jpg,1093 E Champlain Dr,,,Fresno,US,CA,93720,EMW China Bistro Express,+15594348399,$,3.5,110,[],https://www.yelp.com/biz/emw-china-bistro-express-fresno?adjust_creative=Wu9gfEkr1Iqmmu5UKQvcJw&utm_campaign=yelp_api_v3&utm_medium=api_v3_business_search&utm_source=Wu9gfEkr1Iqmmu5UKQvcJw
lins-fusion-fresno,"['chinese', 'bars', 'buffets']","['Chinese', 'Bars', 'Buffets']",36.81135,-119.79097,(559) 222-8478,1722.4057296792053,B-MwNhiYfGT-AcV4_7shHw,https://s3-media1.fl.yelpcdn.com/bphoto/FlTe96MO_NpEsFrD4n8L3A/o.jpg,5155 N Blackstone Ave,,,Fresno,US,CA,93710,Lin's Fusion,+15592228478,$$,3.0,359,[],https://www.yelp.com/biz/lins-fusion-fresno?adjust_creative=Wu9gfEkr1Iqmmu5UKQvcJw&utm_campaign=yelp_api_v3&utm_medium=api_v3_business_search&utm_source=Wu9gfEkr1Iqmmu5UKQvcJw
queen-sandwich-and-cake-fresno,"['bakeries', 'sandwiches', 'coffee']","['Bakeries', 'Sandwiches', 'Coffee & Tea']",36.77194,-119.78075,(559) 225-3192,2875.008534215898,LI-fqdQZxDOj76XJeVGbBg,https://s3-media1.fl.yelpcdn.com/bphoto/6NBYJVF-FgFqLQucGinbbQ/o.jpg,2318 N Fresno St,,,Fresno,US,CA,93703,Queen Sandwich & Cake,+15592253192,$,3.0,84,[],https://www.yelp.com/biz/queen-sandwich-and-cake-fresno?adjust_creative=Wu9gfEkr1Iqmmu5UKQvcJw&utm_campaign=yelp_api_v3&utm_medium=api_v3_business_search&utm_source=Wu9gfEkr1Iqmmu5UKQvcJw
imperial-garden-restaurant-fresno,"['dimsum', 'salad', 'newamerican']","['Dim Sum', 'Salad', 'American (New)']",36.83481,-119.78996,(559) 435-4406,4336.407932130077,W215zFYX0msIHMcPnAyXew,https://s3-media4.fl.yelpcdn.com/bphoto/VhQ41ogI2RzgI96JnIg9aw/o.jpg,6640 N Blackstone Ave,Ste 108,,Fresno,US,CA,93710,Imperial Garden Restaurant,+15594354406,$$,3.0,339,[],https://www.yelp.com/biz/imperial-garden-restaurant-fresno?adjust_creative=Wu9gfEkr1Iqmmu5UKQvcJw&utm_campaign=yelp_api_v3&utm_medium=api_v3_business_search&utm_source=Wu9gfEkr1Iqmmu5UKQvcJw
la-boulangerie-fresno,"['bakeries', 'sandwiches', 'cakeshop']","['Bakeries', 'Sandwiches', 'Patisserie/Cake Shop']",36.8102223967567,-119.806757107116,(559) 222-0555,2053.6774913487106,yn8hi5pFTl3Ct7sbF2G0kw,https://s3-media2.fl.yelpcdn.com/bphoto/UP5wRe9HoNYs0tg_4Mws_w/o.jpg,730 W Shaw Ave,,,Fresno,US,CA,93704,La Boulangerie,+15592220555,$$,4.0,345,[],https://www.yelp.com/biz/la-boulangerie-fresno?adjust_creative=Wu9gfEkr1Iqmmu5UKQvcJw&utm_campaign=yelp_api_v3&utm_medium=api_v3_business_search&utm_source=Wu9gfEkr1Iqmmu5UKQvcJw
deli-delicious-fresno,"['sandwiches', 'delis']","['Sandwiches', 'Delis']",36.81996,-119.78902,(559) 447-0666,2710.8986916258614,9nP3p81r4DjH6z2eZFCObg,https://s3-media3.fl.yelpcdn.com/bphoto/iXhSKoCNguB9se61Q2BpmQ/o.jpg,5628 N Blackstone Ave,,,Fresno,US,CA,93710,Deli Delicious,+15594470666,$,3.5,60,[],https://www.yelp.com/biz/deli-delicious-fresno?adjust_creative=Wu9gfEkr1Iqmmu5UKQvcJw&utm_campaign=yelp_api_v3&utm_medium=api_v3_business_search&utm_source=Wu9gfEkr1Iqmmu5UKQvcJw
oriental-express-downtown-fresno,['chinese'],['Chinese'],36.7357521057129,-119.784439086914,(559) 268-0036,6727.347761879562,KMUTc17V1qxLEnpSnpbFAA,https://s3-media3.fl.yelpcdn.com/bphoto/Cau4jQniI0N8xcCc2KU_DA/o.jpg,2405 Capitol St,,,Fresno,US,CA,93721,Oriental Express Downtown,+15592680036,$,4.0,34,[],https://www.yelp.com/biz/oriental-express-downtown-fresno?adjust_creative=Wu9gfEkr1Iqmmu5UKQvcJw&utm_campaign=yelp_api_v3&utm_medium=api_v3_business_search&utm_source=Wu9gfEkr1Iqmmu5UKQvcJw
little-hong-kong-fresno,['chinese'],['Chinese'],36.7291951,-119.7955728,(559) 268-5899,7413.491712590381,xJReEJnjk7wpKD7oeoH5DA,https://s3-media3.fl.yelpcdn.com/bphoto/hJnjZv0mlJLikHjU3METHQ/o.jpg,943 E St,,,Fresno,US,CA,93706,Little Hong Kong,+15592685899,$,2.5,30,[],https://www.yelp.com/biz/little-hong-kong-fresno?adjust_creative=Wu9gfEkr1Iqmmu5UKQvcJw&utm_campaign=yelp_api_v3&utm_medium=api_v3_business_search&utm_source=Wu9gfEkr1Iqmmu5UKQvcJw
