alias,categories_alias,categories_title,coordinates_latitude,coordinates_longitude,display_phone,distance,id,image_url,location_address1,location_address2,location_address3,location_city,location_country,location_state,location_zip_code,name,phone,price,rating,review_count,transactions,url
pho-cali-rocklin-5,"['vietnamese', 'juicebars', 'noodles']","['Vietnamese', 'Juice Bars & Smoothies', 'Noodles']",38.8049965076175,-121.271195429911,(916) 259-2086,21428.630856973738,_ntbt2Fixf-M6Igwgj5vyQ,https://s3-media1.fl.yelpcdn.com/bphoto/3KjzuAr7KjIl5rFFoBmlCg/o.jpg,2209 Sunset Blvd,Ste 903,,Rocklin,US,CA,95765,Pho Cali,+19162592086,$,4.5,915,"['pickup', 'delivery']",https://www.yelp.com/biz/pho-cali-rocklin-5?adjust_creative=Wu9gfEkr1Iqmmu5UKQvcJw&utm_campaign=yelp_api_v3&utm_medium=api_v3_business_search&utm_source=Wu9gfEkr1Iqmmu5UKQvcJw
pho-king-good-auburn,['vietnamese'],['Vietnamese'],38.9252186,-121.0855054,(530) 888-6868,25844.315303903368,N6Srot1d7lyguiP2_Y875g,https://s3-media2.fl.yelpcdn.com/bphoto/sSPozUzphsHTvcUWLkllGw/o.jpg,1501 Grass Valley Hwy,,,Auburn,US,CA,95603,Pho King Good,+15308886868,$,4.0,372,[],https://www.yelp.com/biz/pho-king-good-auburn?adjust_creative=Wu9gfEkr1Iqmmu5UKQvcJw&utm_campaign=yelp_api_v3&utm_medium=api_v3_business_search&utm_source=Wu9gfEkr1Iqmmu5UKQvcJw
pho-hang-roseville,"['vietnamese', 'desserts', 'noodles']","['Vietnamese', 'Desserts', 'Noodles']",38.78426,-121.28672,(916) 771-2565,23057.618053322574,WQ6OYDEH-1k9yx0tbqI3_g,https://s3-media3.fl.yelpcdn.com/bphoto/O3T3p1IT0coxHvOjJAGiow/o.jpg,916 Pleasant Grove Blvd,Ste 150,,Roseville,US,CA,95678,Pho Hang,+19167712565,$,4.0,385,[],https://www.yelp.com/biz/pho-hang-roseville?adjust_creative=Wu9gfEkr1Iqmmu5UKQvcJw&utm_campaign=yelp_api_v3&utm_medium=api_v3_business_search&utm_source=Wu9gfEkr1Iqmmu5UKQvcJw
dt-noodle-roseville,['vietnamese'],['Vietnamese'],38.7607903,-121.308283,(916) 797-8883,25024.30424531617,6Bl8hhg9WS6OrIuCKL5Ilw,https://s3-media1.fl.yelpcdn.com/bphoto/DTswU_CbdNLJAyWyN-ZDNQ/o.jpg,5015 Foothills Blvd,Ste 3B,,Roseville,US,CA,95747,DT Noodle,+19167978883,$,4.5,204,[],https://www.yelp.com/biz/dt-noodle-roseville?adjust_creative=Wu9gfEkr1Iqmmu5UKQvcJw&utm_campaign=yelp_api_v3&utm_medium=api_v3_business_search&utm_source=Wu9gfEkr1Iqmmu5UKQvcJw
pho-saigon-palace-citrus-heights-2,"['vietnamese', 'chinese']","['Vietnamese', 'Chinese']",38.681051,-121.32196,(916) 729-4987,33522.1270288333,EHngjRBB9rq3nWV_-efXuQ,https://s3-media3.fl.yelpcdn.com/bphoto/-TcHh9A5ig6u3YKcigeOZw/o.jpg,6029 Greenback Ln,,,Citrus Heights,US,CA,95621,Pho Saigon Palace,+19167294987,$,4.5,252,"['pickup', 'delivery']",https://www.yelp.com/biz/pho-saigon-palace-citrus-heights-2?adjust_creative=Wu9gfEkr1Iqmmu5UKQvcJw&utm_campaign=yelp_api_v3&utm_medium=api_v3_business_search&utm_source=Wu9gfEkr1Iqmmu5UKQvcJw
kt-noodles-rocklin,"['vietnamese', 'noodles']","['Vietnamese', 'Noodles']",38.7868976239632,-121.2515071,(916) 624-3469,23984.064378021496,pkFwB_n2w8CWZ-dU4XAvnQ,https://s3-media1.fl.yelpcdn.com/bphoto/nWSZ_-vxuL3TSMFHFbglMQ/o.jpg,3101 Sunset Blvd,Ste B,,Rocklin,US,CA,95677,KT Noodles,+19166243469,$,4.0,328,[],https://www.yelp.com/biz/kt-noodles-rocklin?adjust_creative=Wu9gfEkr1Iqmmu5UKQvcJw&utm_campaign=yelp_api_v3&utm_medium=api_v3_business_search&utm_source=Wu9gfEkr1Iqmmu5UKQvcJw
pho-222-colfax,"['vietnamese', 'noodles', 'asianfusion']","['Vietnamese', 'Noodles', 'Asian Fusion']",39.10112,-120.95357,,38909.826967521854,K5xo9C-gIqgRkzhKwlLKWw,https://s3-media3.fl.yelpcdn.com/bphoto/BmKNUKaaomno4SEHPDAQZA/o.jpg,38 N Main St,,,Colfax,US,CA,95713,Pho 222,,,4.0,6,[],https://www.yelp.com/biz/pho-222-colfax?adjust_creative=Wu9gfEkr1Iqmmu5UKQvcJw&utm_campaign=yelp_api_v3&utm_medium=api_v3_business_search&utm_source=Wu9gfEkr1Iqmmu5UKQvcJw
pho-abc-folsom,['vietnamese'],['Vietnamese'],38.6736546419633,-121.163129094024,(916) 817-8588,38695.70553154509,PgzLu4jUUb3RXUKO86q4Cg,https://s3-media3.fl.yelpcdn.com/bphoto/ACsG8IdxpSqddxbqXPLhLA/o.jpg,602 E Bidwell St,,,Folsom,US,CA,95630,Pho ABC,+19168178588,$$,4.0,529,['pickup'],https://www.yelp.com/biz/pho-abc-folsom?adjust_creative=Wu9gfEkr1Iqmmu5UKQvcJw&utm_campaign=yelp_api_v3&utm_medium=api_v3_business_search&utm_source=Wu9gfEkr1Iqmmu5UKQvcJw
pho-abc-citrus-heights-2,['vietnamese'],['Vietnamese'],38.67892,-121.27566,(916) 721-0206,34540.50546361716,eWcClvKoV-lrbsha8rCKKw,https://s3-media1.fl.yelpcdn.com/bphoto/WqsHQVr_pQvGbMCScAbe2Q/o.jpg,7811 Greenback Ln,,,Citrus Heights,US,CA,95610,PHO ABC,+19167210206,$$,4.0,285,['pickup'],https://www.yelp.com/biz/pho-abc-citrus-heights-2?adjust_creative=Wu9gfEkr1Iqmmu5UKQvcJw&utm_campaign=yelp_api_v3&utm_medium=api_v3_business_search&utm_source=Wu9gfEkr1Iqmmu5UKQvcJw
pho-viet-citrus-heights,"['vietnamese', 'chinese']","['Vietnamese', 'Chinese']",38.6748346,-121.3251627,(916) 338-1868,34169.79828461044,J9ONXPKImgdcHLuDQpm0rQ,https://s3-media3.fl.yelpcdn.com/bphoto/bWM2OgcyYyQyUJaBk8WAJQ/o.jpg,5948 Auburn Blvd,,,Citrus Heights,US,CA,95621,Pho Viet,+19163381868,$,4.0,393,['pickup'],https://www.yelp.com/biz/pho-viet-citrus-heights?adjust_creative=Wu9gfEkr1Iqmmu5UKQvcJw&utm_campaign=yelp_api_v3&utm_medium=api_v3_business_search&utm_source=Wu9gfEkr1Iqmmu5UKQvcJw
pho-vegan-asian-cuisine-rocklin,"['vegan', 'vietnamese', 'asianfusion']","['Vegan', 'Vietnamese', 'Asian Fusion']",38.7829,-121.26379,(916) 259-1588,23886.530593845473,3hE2D2dN1gBVFZ7dSUZNig,https://s3-media2.fl.yelpcdn.com/bphoto/e1Z6uLaE7YnbuwOXVYEuig/o.jpg,6661 Stanford Ranch Rd,Ste E,,Rocklin,US,CA,95677,Pho Vegan Asian Cuisine,+19162591588,$,4.5,277,[],https://www.yelp.com/biz/pho-vegan-asian-cuisine-rocklin?adjust_creative=Wu9gfEkr1Iqmmu5UKQvcJw&utm_campaign=yelp_api_v3&utm_medium=api_v3_business_search&utm_source=Wu9gfEkr1Iqmmu5UKQvcJw
saigon-rice-n-noodle-yuba-city,"['vietnamese', 'noodles', 'asianfusion']","['Vietnamese', 'Noodles', 'Asian Fusion']",39.140893,-121.632237,(530) 713-8187,28484.48902806235,PTCa3BGdqfyXBZdiM-MsAg,https://s3-media1.fl.yelpcdn.com/bphoto/8U5d3Gcm-CbD9uhhqhULRQ/o.jpg,1272 Colusa Ave,Ste D,,Yuba City,US,CA,95991,Saigon Rice N’ Noodle,+15307138187,,3.5,25,[],https://www.yelp.com/biz/saigon-rice-n-noodle-yuba-city?adjust_creative=Wu9gfEkr1Iqmmu5UKQvcJw&utm_campaign=yelp_api_v3&utm_medium=api_v3_business_search&utm_source=Wu9gfEkr1Iqmmu5UKQvcJw
pho-saigon-rocklin,['vietnamese'],['Vietnamese'],38.7978310485016,-121.290047850092,(916) 780-2999,21535.886815196678,LcFmtuEEdXwUpb_rlm0QEg,https://s3-media2.fl.yelpcdn.com/bphoto/8_x_rEMx83t0seOqrEI7Ug/o.jpg,6827 Lonetree Blvd,Ste D-104,,Rocklin,US,CA,95765,Pho Saigon,+19167802999,$,4.0,204,[],https://www.yelp.com/biz/pho-saigon-rocklin?adjust_creative=Wu9gfEkr1Iqmmu5UKQvcJw&utm_campaign=yelp_api_v3&utm_medium=api_v3_business_search&utm_source=Wu9gfEkr1Iqmmu5UKQvcJw
asian-cuisine-marysville,"['asianfusion', 'thai']","['Asian Fusion', 'Thai']",39.1487343,-121.5854108,(530) 741-9041,26085.425574407014,X3CJC0SjOcFAhcosv681Rw,https://s3-media2.fl.yelpcdn.com/bphoto/CO3yaxLU9Nd-8b-rv_8Nvw/o.jpg,22 E 12th St,,,Marysville,US,CA,95901,Asian Cuisine,+15307419041,$,4.0,93,[],https://www.yelp.com/biz/asian-cuisine-marysville?adjust_creative=Wu9gfEkr1Iqmmu5UKQvcJw&utm_campaign=yelp_api_v3&utm_medium=api_v3_business_search&utm_source=Wu9gfEkr1Iqmmu5UKQvcJw
pho-hot-rocklin-3,"['soup', 'vietnamese', 'sandwiches']","['Soup', 'Vietnamese', 'Sandwiches']",38.7973297,-121.2922267,(916) 781-2858,21610.77985923483,kc-rgQ8YDCQYqhBhQTE0dQ,https://s3-media1.fl.yelpcdn.com/bphoto/tEXxMfHYVZhHA4Sa_6dixg/o.jpg,6696 Lonetree Blvd,Ste 500,,Rocklin,US,CA,95765,Pho Hot,+19167812858,$,3.5,289,[],https://www.yelp.com/biz/pho-hot-rocklin-3?adjust_creative=Wu9gfEkr1Iqmmu5UKQvcJw&utm_campaign=yelp_api_v3&utm_medium=api_v3_business_search&utm_source=Wu9gfEkr1Iqmmu5UKQvcJw
pho-cali-yuba-city-2,"['vietnamese', 'juicebars', 'sandwiches']","['Vietnamese', 'Juice Bars & Smoothies', 'Sandwiches']",39.1422358255352,-121.630162022801,(530) 870-8890,28436.269673249077,XjJtT-XygOLixYhDN_YBrA,https://s3-media1.fl.yelpcdn.com/bphoto/MVt3dP4zsNmIL8O7JhVoOw/o.jpg,1025 Gray Ave,,,Yuba City,US,CA,95991,Pho Cali,+15308708890,$,3.5,137,[],https://www.yelp.com/biz/pho-cali-yuba-city-2?adjust_creative=Wu9gfEkr1Iqmmu5UKQvcJw&utm_campaign=yelp_api_v3&utm_medium=api_v3_business_search&utm_source=Wu9gfEkr1Iqmmu5UKQvcJw
quan-nem-ninh-hoa-sacramento,['vietnamese'],['Vietnamese'],38.5087866336107,-121.435145661235,(916) 428-3748,52641.60527348215,vZE-nRz2AC-fshDJ3XH7wg,https://s3-media3.fl.yelpcdn.com/bphoto/xd4EIW9fmbZhMDicsHqRYg/o.jpg,6450 Stockton Blvd,,,Sacramento,US,CA,95823,Quan Nem Ninh Hoa,+19164283748,$,4.0,1018,[],https://www.yelp.com/biz/quan-nem-ninh-hoa-sacramento?adjust_creative=Wu9gfEkr1Iqmmu5UKQvcJw&utm_campaign=yelp_api_v3&utm_medium=api_v3_business_search&utm_source=Wu9gfEkr1Iqmmu5UKQvcJw
bo-urban-corner-citrus-heights,"['vietnamese', 'delis', 'venues']","['Vietnamese', 'Delis', 'Venues & Event Spaces']",38.674835,-121.292793,(916) 633-0728,34650.36788628999,QojmD41gfDPda2oX_0Jesw,https://s3-media3.fl.yelpcdn.com/bphoto/8vKM_OI47jGoO94d7ApW_w/o.jpg,6001 San Juan Ave,Ste 100,,Citrus Heights,US,CA,95610,Bo Urban Corner,+19166330728,$,4.5,267,"['pickup', 'delivery']",https://www.yelp.com/biz/bo-urban-corner-citrus-heights?adjust_creative=Wu9gfEkr1Iqmmu5UKQvcJw&utm_campaign=yelp_api_v3&utm_medium=api_v3_business_search&utm_source=Wu9gfEkr1Iqmmu5UKQvcJw
viet-ha-noodles-and-grill-sacramento,"['vietnamese', 'chinese']","['Vietnamese', 'Chinese']",38.55885,-121.48075,(916) 391-9888,47658.868513134286,Ac65leDZVJtvnK4fv_4yEg,https://s3-media1.fl.yelpcdn.com/bphoto/CeCkPG65iXoESQPATbPQKg/o.jpg,2417 Broadway,Ste A2,,Sacramento,US,CA,95818,Viet Ha Noodles & Grill,+19163919888,$,4.5,548,['pickup'],https://www.yelp.com/biz/viet-ha-noodles-and-grill-sacramento?adjust_creative=Wu9gfEkr1Iqmmu5UKQvcJw&utm_campaign=yelp_api_v3&utm_medium=api_v3_business_search&utm_source=Wu9gfEkr1Iqmmu5UKQvcJw
coriander-vietnamese-restaurant-sacramento,['vietnamese'],['Vietnamese'],38.562912,-121.4693298,(916) 456-0888,47027.003047268445,VEIfk-VTvezetAE0eVsvMQ,https://s3-media3.fl.yelpcdn.com/bphoto/7lCpcDu10t2YOB1iN3JPzQ/o.jpg,1899 Alhambra Blvd,,,Sacramento,US,CA,95816,Coriander Vietnamese Restaurant,+19164560888,$$,4.0,371,[],https://www.yelp.com/biz/coriander-vietnamese-restaurant-sacramento?adjust_creative=Wu9gfEkr1Iqmmu5UKQvcJw&utm_campaign=yelp_api_v3&utm_medium=api_v3_business_search&utm_source=Wu9gfEkr1Iqmmu5UKQvcJw
quán-nem-ninh-hòa-elk-grove-2,['vietnamese'],['Vietnamese'],38.41024860255,-121.390271103019,(916) 683-9621,63316.30550936784,y-dx1UG_w_SDGiCuinShEw,https://s3-media4.fl.yelpcdn.com/bphoto/nJR_VDNLEsfemI1ghu_HLQ/o.jpg,8469 Elk Grove Blvd,,,Elk Grove,US,CA,95758,Quán Nem Ninh Hòa,+19166839621,$,4.0,494,[],https://www.yelp.com/biz/qu%C3%A1n-nem-ninh-h%C3%B2a-elk-grove-2?adjust_creative=Wu9gfEkr1Iqmmu5UKQvcJw&utm_campaign=yelp_api_v3&utm_medium=api_v3_business_search&utm_source=Wu9gfEkr1Iqmmu5UKQvcJw
pho-fresh-rancho-cordova,['vietnamese'],['Vietnamese'],38.6123105813479,-121.290381141007,(916) 706-2523,41506.21473546201,2kiT6hdT5_iHxO5KLlmCPA,https://s3-media2.fl.yelpcdn.com/bphoto/ZwrJObK8bPkuFIoZ5wNKbQ/o.jpg,10673 Coloma Rd,,,Rancho Cordova,US,CA,95670,Pho Fresh,+19167062523,$,4.0,359,"['pickup', 'delivery']",https://www.yelp.com/biz/pho-fresh-rancho-cordova?adjust_creative=Wu9gfEkr1Iqmmu5UKQvcJw&utm_campaign=yelp_api_v3&utm_medium=api_v3_business_search&utm_source=Wu9gfEkr1Iqmmu5UKQvcJw
co-do-2-sacramento-3,['vietnamese'],['Vietnamese'],38.648829283097,-121.509829756124,(916) 928-8088,38557.58691477261,p5l-4Fl7TPPiw_Aj6DJ8rw,https://s3-media4.fl.yelpcdn.com/bphoto/zC6xABM06WocBoEX7ssadw/o.jpg,4251 Truxel Rd,,,Sacramento,US,CA,95834,Co Do 2,+19169288088,$$,3.5,163,[],https://www.yelp.com/biz/co-do-2-sacramento-3?adjust_creative=Wu9gfEkr1Iqmmu5UKQvcJw&utm_campaign=yelp_api_v3&utm_medium=api_v3_business_search&utm_source=Wu9gfEkr1Iqmmu5UKQvcJw
mints-euro-asian-cuisine-rancho-cordova-2,"['vietnamese', 'asianfusion']","['Vietnamese', 'Asian Fusion']",38.59821,-121.28067,(916) 635-2744,43195.96627050487,OwUrparYb7pqJuNJYaNsWg,https://s3-media1.fl.yelpcdn.com/bphoto/Tg7h5NgDeDUbxWSdmnFrqA/o.jpg,11088 Olson Dr,Ste A,,Rancho Cordova,US,CA,95670,Mints Euro Asian Cuisine,+19166352744,$$,4.0,290,[],https://www.yelp.com/biz/mints-euro-asian-cuisine-rancho-cordova-2?adjust_creative=Wu9gfEkr1Iqmmu5UKQvcJw&utm_campaign=yelp_api_v3&utm_medium=api_v3_business_search&utm_source=Wu9gfEkr1Iqmmu5UKQvcJw
hey-hey-ice-cream-yuba-city,"['bubbletea', 'icecream', 'vietnamese']","['Bubble Tea', 'Ice Cream & Frozen Yogurt', 'Vietnamese']",39.14117,-121.63164,(530) 751-5106,28451.59402564311,FhWMWdfjrrlGt7mgghcOxw,https://s3-media4.fl.yelpcdn.com/bphoto/zB1VBehsoYzv3oZsA0fr_g/o.jpg,940 Colusa Ave,,,Yuba City,US,CA,95991,Hey Hey Ice Cream,+15307515106,$,4.0,84,[],https://www.yelp.com/biz/hey-hey-ice-cream-yuba-city?adjust_creative=Wu9gfEkr1Iqmmu5UKQvcJw&utm_campaign=yelp_api_v3&utm_medium=api_v3_business_search&utm_source=Wu9gfEkr1Iqmmu5UKQvcJw
cô-mais-kitchen-sacramento-2,"['vietnamese', 'sandwiches', 'noodles']","['Vietnamese', 'Sandwiches', 'Noodles']",38.56583,-121.50685,(916) 448-3577,47382.64138694488,K-4htSGVhA3oziNWiD61dQ,https://s3-media2.fl.yelpcdn.com/bphoto/0NQ5XCqxzJumf-Z-2Rs_Kw/o.jpg,501 Broadway,,,Sacramento,US,CA,95818,Cô Mai's Kitchen,+19164483577,$,4.0,177,"['pickup', 'delivery']",https://www.yelp.com/biz/c%C3%B4-mais-kitchen-sacramento-2?adjust_creative=Wu9gfEkr1Iqmmu5UKQvcJw&utm_campaign=yelp_api_v3&utm_medium=api_v3_business_search&utm_source=Wu9gfEkr1Iqmmu5UKQvcJw
pho-house-carmichael,"['vietnamese', 'soup', 'vegan']","['Vietnamese', 'Soup', 'Vegan']",38.618333,-121.327435,(916) 993-9986,40387.19002036329,5q_kb3HUGwaKB8Iz0xy2Cg,https://s3-media2.fl.yelpcdn.com/bphoto/3NC1_CxDv6AEHAuTVPcZlA/o.jpg,6436 Fair Oaks Blvd,,,Carmichael,US,CA,95608,Pho House,+19169939986,,4.0,51,[],https://www.yelp.com/biz/pho-house-carmichael?adjust_creative=Wu9gfEkr1Iqmmu5UKQvcJw&utm_campaign=yelp_api_v3&utm_medium=api_v3_business_search&utm_source=Wu9gfEkr1Iqmmu5UKQvcJw
baanthai-cuisine-marysville-3,['thai'],['Thai'],39.13941,-121.58945,(530) 763-5139,25600.677073356495,ecLkPp9PaW8muvHxDcUZIQ,https://s3-media3.fl.yelpcdn.com/bphoto/dpXcTY1sVj8qokezcJO5qw/o.jpg,415 4th St,,,Marysville,US,CA,95901,Baanthai cuisine,+15307635139,,5.0,61,[],https://www.yelp.com/biz/baanthai-cuisine-marysville-3?adjust_creative=Wu9gfEkr1Iqmmu5UKQvcJw&utm_campaign=yelp_api_v3&utm_medium=api_v3_business_search&utm_source=Wu9gfEkr1Iqmmu5UKQvcJw
pho-king-4-davis-2,"['vietnamese', 'chinese']","['Vietnamese', 'Chinese']",38.5437213,-121.7459065,(530) 589-8888,58109.960735972265,UQi46vvRtAtQ20JvFnsptg,https://s3-media2.fl.yelpcdn.com/bphoto/wFk29rWhfhgo5p9NsU-rUg/o.jpg,226 3rd St,,,Davis,US,CA,95616,Pho King 4,+15305898888,$,3.0,600,"['pickup', 'delivery']",https://www.yelp.com/biz/pho-king-4-davis-2?adjust_creative=Wu9gfEkr1Iqmmu5UKQvcJw&utm_campaign=yelp_api_v3&utm_medium=api_v3_business_search&utm_source=Wu9gfEkr1Iqmmu5UKQvcJw
saigon-corner-sacramento,"['sandwiches', 'vietnamese', 'bubbletea']","['Sandwiches', 'Vietnamese', 'Bubble Tea']",38.61364,-121.49712,(916) 900-8425,41991.87803652038,B_ApZhfNGGhtnApQdqxxzg,https://s3-media3.fl.yelpcdn.com/bphoto/KyRQfTvH97iIm1tgfOlkrA/o.jpg,1589 W El Camino Ave,Ste 101,,Sacramento,US,CA,95833,Saigon Corner,+19169008425,$,4.5,43,[],https://www.yelp.com/biz/saigon-corner-sacramento?adjust_creative=Wu9gfEkr1Iqmmu5UKQvcJw&utm_campaign=yelp_api_v3&utm_medium=api_v3_business_search&utm_source=Wu9gfEkr1Iqmmu5UKQvcJw
pho-tam-folsom,['vietnamese'],['Vietnamese'],38.69106,-121.125731,(916) 542-7913,38721.45585545177,5j4bdMWUCZmvWicxuGHClQ,https://s3-media3.fl.yelpcdn.com/bphoto/gg5pUtMaIJRK5R5ZX3RuGw/o.jpg,25004 Blue Ravine Rd,Ste 121,,Folsom,US,CA,95630,Pho Tam,+19165427913,$$,3.5,130,[],https://www.yelp.com/biz/pho-tam-folsom?adjust_creative=Wu9gfEkr1Iqmmu5UKQvcJw&utm_campaign=yelp_api_v3&utm_medium=api_v3_business_search&utm_source=Wu9gfEkr1Iqmmu5UKQvcJw
pho-noodle-house-oroville,"['thai', 'noodles', 'asianfusion']","['Thai', 'Noodles', 'Asian Fusion']",39.51288,-121.55636,(530) 532-9630,61309.675215951305,1qQ4fP8hE70nfKZOEHeYEA,https://s3-media1.fl.yelpcdn.com/bphoto/aSoppumJy9iaOMRecQg4BA/o.jpg,1898 Bird St,,,Oroville,US,CA,95965,Pho Noodle House,+15305329630,$,4.0,154,[],https://www.yelp.com/biz/pho-noodle-house-oroville?adjust_creative=Wu9gfEkr1Iqmmu5UKQvcJw&utm_campaign=yelp_api_v3&utm_medium=api_v3_business_search&utm_source=Wu9gfEkr1Iqmmu5UKQvcJw
seafood-house-quan-oc-sacramento-5,"['vietnamese', 'seafood', 'bars']","['Vietnamese', 'Seafood', 'Bars']",38.5083279378569,-121.434659863219,(916) 399-4918,52644.02775676284,dBZshl4aVu2HUr2W3aAZQg,https://s3-media2.fl.yelpcdn.com/bphoto/Vz1X8LyR4rDCkJGLIsLJhg/o.jpg,6471 Stockton Blvd,,,Sacramento,US,CA,95823,Seafood House Quan Oc,+19163994918,$$,4.5,222,['pickup'],https://www.yelp.com/biz/seafood-house-quan-oc-sacramento-5?adjust_creative=Wu9gfEkr1Iqmmu5UKQvcJw&utm_campaign=yelp_api_v3&utm_medium=api_v3_business_search&utm_source=Wu9gfEkr1Iqmmu5UKQvcJw
saigon-street-eat-sacramento-2,['vietnamese'],['Vietnamese'],38.5607760374538,-121.488801576197,(916) 443-7888,47580.561591191894,4_sMKUqazJuCZcLnwfDkuQ,https://s3-media1.fl.yelpcdn.com/bphoto/oOJfJS9tQmLlZk5klTEMgw/o.jpg,1827 Broadway,,,Sacramento,US,CA,95818,Saigon Street Eat,+19164437888,$,4.0,220,"['pickup', 'delivery']",https://www.yelp.com/biz/saigon-street-eat-sacramento-2?adjust_creative=Wu9gfEkr1Iqmmu5UKQvcJw&utm_campaign=yelp_api_v3&utm_medium=api_v3_business_search&utm_source=Wu9gfEkr1Iqmmu5UKQvcJw
pho-city-sacramento,['vietnamese'],['Vietnamese'],38.5129624069031,-121.436006494253,(916) 754-2143,52142.61799574677,4DzUMFk5NlJqOt3TZ9yu0w,https://s3-media1.fl.yelpcdn.com/bphoto/zX1eqA7bWbG82l1ZivV-gA/o.jpg,6175 Stockton Blvd,Ste 200,,Sacramento,US,CA,95824,Pho City,+19167542143,$,4.0,364,[],https://www.yelp.com/biz/pho-city-sacramento?adjust_creative=Wu9gfEkr1Iqmmu5UKQvcJw&utm_campaign=yelp_api_v3&utm_medium=api_v3_business_search&utm_source=Wu9gfEkr1Iqmmu5UKQvcJw
pho-no-1-fair-oaks,"['vietnamese', 'chinese']","['Vietnamese', 'Chinese']",38.6626385,-121.2724093,(916) 966-2020,36332.4414570941,eo_IlzmymoG95y6L89lMOQ,https://s3-media3.fl.yelpcdn.com/bphoto/9inLsTJjyrdzS2I86V1ejA/o.jpg,5323 Sunrise Blvd,,,Fair Oaks,US,CA,95628,Pho No 1,+19169662020,$,3.5,293,['pickup'],https://www.yelp.com/biz/pho-no-1-fair-oaks?adjust_creative=Wu9gfEkr1Iqmmu5UKQvcJw&utm_campaign=yelp_api_v3&utm_medium=api_v3_business_search&utm_source=Wu9gfEkr1Iqmmu5UKQvcJw
pinto-thai-bistro-roseville,['thai'],['Thai'],38.7841691,-121.2726349,(916) 780-1500,23499.612771334774,DsYXU8O2HqRxmqxmiZGrXQ,https://s3-media1.fl.yelpcdn.com/bphoto/xFCFjE_lDHMIzHS5C8sWcQ/o.jpg,9700 Fairway Dr,Ste 100,,Roseville,US,CA,95678,Pinto Thai Bistro,+19167801500,$$,4.0,305,['pickup'],https://www.yelp.com/biz/pinto-thai-bistro-roseville?adjust_creative=Wu9gfEkr1Iqmmu5UKQvcJw&utm_campaign=yelp_api_v3&utm_medium=api_v3_business_search&utm_source=Wu9gfEkr1Iqmmu5UKQvcJw
com-tam-dat-thanh-sacramento,"['vietnamese', 'noodles', 'soup']","['Vietnamese', 'Noodles', 'Soup']",38.5250949,-121.4457399,(916) 758-5775,50860.19693444637,s31HcmrPmsW8K9l2AGsC0w,https://s3-media2.fl.yelpcdn.com/bphoto/CRRXFfE6SzWiWAxXD1g6Zg/o.jpg,5035 Fruitridge Rd,,,Sacramento,US,CA,95820,Com Tam Dat Thanh,+19167585775,$$,4.5,147,[],https://www.yelp.com/biz/com-tam-dat-thanh-sacramento?adjust_creative=Wu9gfEkr1Iqmmu5UKQvcJw&utm_campaign=yelp_api_v3&utm_medium=api_v3_business_search&utm_source=Wu9gfEkr1Iqmmu5UKQvcJw
chay-corner-davis-2,"['vegan', 'vietnamese', 'sandwiches']","['Vegan', 'Vietnamese', 'Sandwiches']",38.5465,-121.74006,(530) 746-2088,57577.718084347485,xcDBpd6h7EUcb2Adba4WmA,https://s3-media1.fl.yelpcdn.com/bphoto/z6S7bWLRjjkZ00v1rS8p-w/o.jpg,407 G St,Ste 4,,Davis,US,CA,95616,Chay Corner,+15307462088,,4.0,30,[],https://www.yelp.com/biz/chay-corner-davis-2?adjust_creative=Wu9gfEkr1Iqmmu5UKQvcJw&utm_campaign=yelp_api_v3&utm_medium=api_v3_business_search&utm_source=Wu9gfEkr1Iqmmu5UKQvcJw
tay-giang-restaurant-sacramento,['vietnamese'],['Vietnamese'],38.45564,-121.41711,(916) 688-8223,58370.33944275078,yxh7CyTYne9fPujnitaBZQ,https://s3-media3.fl.yelpcdn.com/bphoto/RNEId8xyDoSS6ojOlbhviA/o.jpg,7321 W Stockton Blvd,Ste 100,,Sacramento,US,CA,95823,Tay Giang Restaurant,+19166888223,$$,4.0,170,[],https://www.yelp.com/biz/tay-giang-restaurant-sacramento?adjust_creative=Wu9gfEkr1Iqmmu5UKQvcJw&utm_campaign=yelp_api_v3&utm_medium=api_v3_business_search&utm_source=Wu9gfEkr1Iqmmu5UKQvcJw
bobo-cafe-auburn,['vietnamese'],['Vietnamese'],38.9087362446227,-121.07607690279,(530) 887-5494,27115.1467046158,GsrhjjIxvYOc5MLAu5Aehg,https://s3-media1.fl.yelpcdn.com/bphoto/9z3ChIcOBdx-LhAbukuRqw/o.jpg,213 Palm Ave,,,Auburn,US,CA,95603,Bobo Cafe,+15308875494,$,3.0,52,[],https://www.yelp.com/biz/bobo-cafe-auburn?adjust_creative=Wu9gfEkr1Iqmmu5UKQvcJw&utm_campaign=yelp_api_v3&utm_medium=api_v3_business_search&utm_source=Wu9gfEkr1Iqmmu5UKQvcJw
tm-noodle-carmichael,"['vietnamese', 'chinese', 'noodles']","['Vietnamese', 'Chinese', 'Noodles']",38.6386731,-121.3277099,(916) 486-2579,38112.24183479349,B9PryBZ1twi0ZprmnmMG3Q,https://s3-media2.fl.yelpcdn.com/bphoto/q-NJQ4dLqcEjZl_bUjQN6Q/o.jpg,4110 Manzanita Ave,,,Carmichael,US,CA,95608,TM Noodle,+19164862579,$,4.0,134,[],https://www.yelp.com/biz/tm-noodle-carmichael?adjust_creative=Wu9gfEkr1Iqmmu5UKQvcJw&utm_campaign=yelp_api_v3&utm_medium=api_v3_business_search&utm_source=Wu9gfEkr1Iqmmu5UKQvcJw
hotpot-express-citrus-heights,"['hotpot', 'thai', 'asianfusion']","['Hot Pot', 'Thai', 'Asian Fusion']",38.707164,-121.313571,(916) 735-8512,30769.119416199184,Anl8-wx5UISxmrWo-wyDxA,https://s3-media2.fl.yelpcdn.com/bphoto/kQqlhFZtsQ2n8-n66UO8nw/o.jpg,6456 Antelope Rd,,,Citrus Heights,US,CA,95621,Hotpot Express,+19167358512,$$,4.5,259,[],https://www.yelp.com/biz/hotpot-express-citrus-heights?adjust_creative=Wu9gfEkr1Iqmmu5UKQvcJw&utm_campaign=yelp_api_v3&utm_medium=api_v3_business_search&utm_source=Wu9gfEkr1Iqmmu5UKQvcJw
pho-ru-vietnamese-restaurant-sacramento,['vietnamese'],['Vietnamese'],38.4744339,-121.4308777,(916) 476-3754,56209.7413017836,CuJUINuTVFWCjLA2vOcN-w,https://s3-media3.fl.yelpcdn.com/bphoto/SsCZ41OeYXsFOuexWjSXUg/o.jpg,6115 Mack Rd,,,Sacramento,US,CA,95823,Pho Ru Vietnamese Restaurant,+19164763754,$,4.0,217,[],https://www.yelp.com/biz/pho-ru-vietnamese-restaurant-sacramento?adjust_creative=Wu9gfEkr1Iqmmu5UKQvcJw&utm_campaign=yelp_api_v3&utm_medium=api_v3_business_search&utm_source=Wu9gfEkr1Iqmmu5UKQvcJw
noodle-house-sacramento,"['vietnamese', 'noodles']","['Vietnamese', 'Noodles']",38.66018,-121.328763,(916) 344-5769,35749.229230572484,1Dn_SALa2_qazQyLtb_M_Q,https://s3-media3.fl.yelpcdn.com/bphoto/R0OCZ2Er3c0Tx5mGOPB4UQ/o.jpg,5800 Madison Ave,Ste X,,Sacramento,US,CA,95841,Noodle House,+19163445769,$,3.5,105,"['pickup', 'delivery']",https://www.yelp.com/biz/noodle-house-sacramento?adjust_creative=Wu9gfEkr1Iqmmu5UKQvcJw&utm_campaign=yelp_api_v3&utm_medium=api_v3_business_search&utm_source=Wu9gfEkr1Iqmmu5UKQvcJw
viet-ha-sacramento,"['chinese', 'vietnamese', 'noodles']","['Chinese', 'Vietnamese', 'Noodles']",38.4958451,-121.4271341,(916) 424-5685,53981.137943527,rGY1mRYnXXv9r7G7-lNCmQ,https://s3-media4.fl.yelpcdn.com/bphoto/4LXExxDJmnIasdwUkqlzNg/o.jpg,6534 Florin Rd,,,Sacramento,US,CA,95828,Viet-Ha,+19164245685,$,4.0,495,[],https://www.yelp.com/biz/viet-ha-sacramento?adjust_creative=Wu9gfEkr1Iqmmu5UKQvcJw&utm_campaign=yelp_api_v3&utm_medium=api_v3_business_search&utm_source=Wu9gfEkr1Iqmmu5UKQvcJw
bambu-asian-cuisine-roseville,"['vietnamese', 'asianfusion']","['Vietnamese', 'Asian Fusion']",38.7767,-121.29142,(916) 772-8688,23706.93389578867,OyGa2Xwpv32G-9OtMA9vWw,https://s3-media2.fl.yelpcdn.com/bphoto/PbyRlYqO6lYQWfoQ2qhbKQ/o.jpg,1090 Pleasant Grove Blvd,,,Roseville,US,CA,95678,Bambu Asian Cuisine,+19167728688,$$,3.5,168,[],https://www.yelp.com/biz/bambu-asian-cuisine-roseville?adjust_creative=Wu9gfEkr1Iqmmu5UKQvcJw&utm_campaign=yelp_api_v3&utm_medium=api_v3_business_search&utm_source=Wu9gfEkr1Iqmmu5UKQvcJw
pho-xe-lua-sacramento,"['vietnamese', 'noodles']","['Vietnamese', 'Noodles']",38.52678,-121.44272,(916) 451-8838,50685.55547910525,lM3N_HNdMR4--IKegGruFg,https://s3-media4.fl.yelpcdn.com/bphoto/_q8LzBs_I0DXBpZ9QRs08w/o.jpg,5331 Stockton Blvd,,,Sacramento,US,CA,95820,Pho Xe Lua,+19164518838,$,4.0,632,[],https://www.yelp.com/biz/pho-xe-lua-sacramento?adjust_creative=Wu9gfEkr1Iqmmu5UKQvcJw&utm_campaign=yelp_api_v3&utm_medium=api_v3_business_search&utm_source=Wu9gfEkr1Iqmmu5UKQvcJw
banh-cuon-tay-ho-sacramento,"['vietnamese', 'bbq']","['Vietnamese', 'Barbeque']",38.50193,-121.43011,(916) 395-1188,53298.84606131608,x8IfWX4JUDOK4Hb1IrpZjw,https://s3-media1.fl.yelpcdn.com/bphoto/iVMfEc7mM58hDlKrTEtn9g/o.jpg,6840 65th St,Ste 125,,Sacramento,US,CA,95828,Banh Cuon Tay Ho,+19163951188,$,4.0,379,[],https://www.yelp.com/biz/banh-cuon-tay-ho-sacramento?adjust_creative=Wu9gfEkr1Iqmmu5UKQvcJw&utm_campaign=yelp_api_v3&utm_medium=api_v3_business_search&utm_source=Wu9gfEkr1Iqmmu5UKQvcJw
thai-kitchen-marysville,['thai'],['Thai'],39.1453138805496,-121.587603952826,(530) 329-8693,25945.72284909984,kTlVwQXW9oMUb_j9q4N1iQ,https://s3-media1.fl.yelpcdn.com/bphoto/HdonA5GcfeQNFdupCBOiMQ/o.jpg,906 B St,,,Marysville,US,CA,95901,Thai Kitchen,+15303298693,$,4.0,153,['pickup'],https://www.yelp.com/biz/thai-kitchen-marysville?adjust_creative=Wu9gfEkr1Iqmmu5UKQvcJw&utm_campaign=yelp_api_v3&utm_medium=api_v3_business_search&utm_source=Wu9gfEkr1Iqmmu5UKQvcJw
pho-le-sacramento,"['vietnamese', 'noodles']","['Vietnamese', 'Noodles']",38.4393516964609,-121.419408031352,(916) 688-7799,60185.68924788864,SOVsaBaoxDck4UMUssSngQ,https://s3-media2.fl.yelpcdn.com/bphoto/hwSSu0nCNm99DmdTeDXzew/o.jpg,8785 Center Pkwy,Ste B180,,Sacramento,US,CA,95823,Pho Le,+19166887799,$,4.0,998,[],https://www.yelp.com/biz/pho-le-sacramento?adjust_creative=Wu9gfEkr1Iqmmu5UKQvcJw&utm_campaign=yelp_api_v3&utm_medium=api_v3_business_search&utm_source=Wu9gfEkr1Iqmmu5UKQvcJw
pho-bac-hoa-viet-sacramento-12,['vietnamese'],['Vietnamese'],38.569363,-121.336881,(916) 361-3888,45738.159357494595,qoOA8vqO3YEjg4tt1YNJFQ,https://s3-media2.fl.yelpcdn.com/bphoto/6ROgZSsD6krSXPx5hl28FQ/o.jpg,3110 Bradshaw Rd,,,Sacramento,US,CA,95827,Pho Bac Hoa Viet,+19163613888,$,3.5,548,"['pickup', 'delivery']",https://www.yelp.com/biz/pho-bac-hoa-viet-sacramento-12?adjust_creative=Wu9gfEkr1Iqmmu5UKQvcJw&utm_campaign=yelp_api_v3&utm_medium=api_v3_business_search&utm_source=Wu9gfEkr1Iqmmu5UKQvcJw
saigon-restaurant-sacramento,['vietnamese'],['Vietnamese'],38.52708,-121.44401,(916) 457-5580,50616.632642595905,P67mXLsVwovDs8I-azJtqw,https://s3-media3.fl.yelpcdn.com/bphoto/uocfq0OKYToLPtVg-9VXPg/o.jpg,5304 Stockton Blvd,,,Sacramento,US,CA,95820,Saigon Restaurant,+19164575580,$,3.5,516,[],https://www.yelp.com/biz/saigon-restaurant-sacramento?adjust_creative=Wu9gfEkr1Iqmmu5UKQvcJw&utm_campaign=yelp_api_v3&utm_medium=api_v3_business_search&utm_source=Wu9gfEkr1Iqmmu5UKQvcJw
pho-1920-sacramento,"['vietnamese', 'noodles']","['Vietnamese', 'Noodles']",38.5127664,-121.4367616,(916) 431-7788,52163.21457614465,adKxBlo2pCgEwMGyJb5Zjw,https://s3-media1.fl.yelpcdn.com/bphoto/ybZjI_9g97fgWwfWq2kQJw/o.jpg,6175 Stockton Blvd,Ste 270,,Sacramento,US,CA,95824,Pho 1920,+19164317788,$,4.0,76,[],https://www.yelp.com/biz/pho-1920-sacramento?adjust_creative=Wu9gfEkr1Iqmmu5UKQvcJw&utm_campaign=yelp_api_v3&utm_medium=api_v3_business_search&utm_source=Wu9gfEkr1Iqmmu5UKQvcJw
pho-54-citrus-heights,['vietnamese'],['Vietnamese'],38.678593,-121.319061,(916) 721-3039,33828.454221831074,gtPxhQKfYzIhgkGiHFd-7g,https://s3-media2.fl.yelpcdn.com/bphoto/WGca3HjTLrbnyYFQ6PBIMQ/o.jpg,6191 Greenback Ln,Ste C,,Citrus Heights,US,CA,95621,Pho 54,+19167213039,$,4.0,133,[],https://www.yelp.com/biz/pho-54-citrus-heights?adjust_creative=Wu9gfEkr1Iqmmu5UKQvcJw&utm_campaign=yelp_api_v3&utm_medium=api_v3_business_search&utm_source=Wu9gfEkr1Iqmmu5UKQvcJw
rice-noodle-sacramento,"['vietnamese', 'noodles']","['Vietnamese', 'Noodles']",38.5958126,-121.3971619,(916) 481-3726,42735.98739681165,TOzyMb15cu9hlhn8aPOQSg,https://s3-media3.fl.yelpcdn.com/bphoto/AdnKtgUK9KDHW4b4ZO6bwA/o.jpg,2836 Arden Way,,,Sacramento,US,CA,95825,Rice Noodle,+19164813726,$,3.5,207,[],https://www.yelp.com/biz/rice-noodle-sacramento?adjust_creative=Wu9gfEkr1Iqmmu5UKQvcJw&utm_campaign=yelp_api_v3&utm_medium=api_v3_business_search&utm_source=Wu9gfEkr1Iqmmu5UKQvcJw
pho-bac-hoa-viet-sacramento-3,"['vietnamese', 'chinese', 'salad']","['Vietnamese', 'Chinese', 'Salad']",38.4807244475016,-121.51808873274,(916) 393-0138,56818.86261853603,apUhlUKPUdSFkv5wpqKOAw,https://s3-media1.fl.yelpcdn.com/bphoto/EB8-TXAJj74b2kmNifhTww/o.jpg,7600 Greenhaven Dr,Ste 9,,Sacramento,US,CA,95831,Pho Bac Hoa Viet,+19163930138,$$,4.0,344,[],https://www.yelp.com/biz/pho-bac-hoa-viet-sacramento-3?adjust_creative=Wu9gfEkr1Iqmmu5UKQvcJw&utm_campaign=yelp_api_v3&utm_medium=api_v3_business_search&utm_source=Wu9gfEkr1Iqmmu5UKQvcJw
pho-bac-hoa-viet-sacramento-4,"['vietnamese', 'chinese', 'asianfusion']","['Vietnamese', 'Chinese', 'Asian Fusion']",38.66045,-121.34626,(916) 331-3888,35578.450733545156,25dFLjJTFbBHM5ZKIQkO4w,https://s3-media4.fl.yelpcdn.com/bphoto/iS67Q0IB38lB3816ElOR5w/o.jpg,5060 Madison Ave,,,Sacramento,US,CA,95841,Pho Bac Hoa Viet,+19163313888,$,3.0,357,[],https://www.yelp.com/biz/pho-bac-hoa-viet-sacramento-4?adjust_creative=Wu9gfEkr1Iqmmu5UKQvcJw&utm_campaign=yelp_api_v3&utm_medium=api_v3_business_search&utm_source=Wu9gfEkr1Iqmmu5UKQvcJw
pho-huy-hoang-elk-grove,['vietnamese'],['Vietnamese'],38.4274636,-121.4705809,(916) 683-1101,61935.223259153034,6mBppqqtr0PCbvgp64NBZw,https://s3-media2.fl.yelpcdn.com/bphoto/7uLlg2Zr1N6uR1CUb4oDiA/o.jpg,9080 Laguna Main St,,,Elk Grove,US,CA,95758,Pho Huy Hoang,+19166831101,$,3.5,161,[],https://www.yelp.com/biz/pho-huy-hoang-elk-grove?adjust_creative=Wu9gfEkr1Iqmmu5UKQvcJw&utm_campaign=yelp_api_v3&utm_medium=api_v3_business_search&utm_source=Wu9gfEkr1Iqmmu5UKQvcJw
quickly-pho-king-best-oroville-3,['vietnamese'],['Vietnamese'],39.502323,-121.56231,(530) 353-3499,60300.18278013446,9pqDXKXLBkJ6h0GeZQTcjQ,https://s3-media1.fl.yelpcdn.com/bphoto/ZVr1UKo2sJmRRzNi9Vk5Yw/o.jpg,1124 Oro Dam Blvd E,,,Oroville,US,CA,95965,Quickly Pho King Best!,+15303533499,$,3.5,68,[],https://www.yelp.com/biz/quickly-pho-king-best-oroville-3?adjust_creative=Wu9gfEkr1Iqmmu5UKQvcJw&utm_campaign=yelp_api_v3&utm_medium=api_v3_business_search&utm_source=Wu9gfEkr1Iqmmu5UKQvcJw
twin-dragon-mandarin-cuisine-auburn,"['chinese', 'noodles']","['Chinese', 'Noodles']",38.9088735,-121.074365,(530) 888-6190,27309.11145840088,zql_GpPl1GoKUi1eYxySTg,https://s3-media3.fl.yelpcdn.com/bphoto/Lx_dLCT4azUtw9_j3hiwUw/o.jpg,520 Auburn Ravine Rd,,,Auburn,US,CA,95603,Twin Dragon Mandarin Cuisine,+15308886190,$$,3.5,129,[],https://www.yelp.com/biz/twin-dragon-mandarin-cuisine-auburn?adjust_creative=Wu9gfEkr1Iqmmu5UKQvcJw&utm_campaign=yelp_api_v3&utm_medium=api_v3_business_search&utm_source=Wu9gfEkr1Iqmmu5UKQvcJw
kims-vietnamese-sacramento,"['vietnamese', 'noodles']","['Vietnamese', 'Noodles']",38.58,-121.49322,(916) 448-8922,45573.92383590676,w74Tbr0pg114IjmVvAPXqg,https://s3-media2.fl.yelpcdn.com/bphoto/bpmCbxqDtd6SxitNlXjz_w/o.jpg,1008 J St,,,Sacramento,US,CA,95814,Kim's Vietnamese,+19164488922,$,4.0,253,[],https://www.yelp.com/biz/kims-vietnamese-sacramento?adjust_creative=Wu9gfEkr1Iqmmu5UKQvcJw&utm_campaign=yelp_api_v3&utm_medium=api_v3_business_search&utm_source=Wu9gfEkr1Iqmmu5UKQvcJw
vuvuzela-seafood-and-hot-pot-sacramento-2,"['seafood', 'vietnamese', 'hotpot']","['Seafood', 'Vietnamese', 'Hot Pot']",38.5023982,-121.4319045,(916) 706-3801,53314.33779582513,-aNRCMqc61vahIT96SJsuA,https://s3-media4.fl.yelpcdn.com/bphoto/D1cxw0hJBvoU8l2HynTSxw/o.jpg,6835 Stockton Blvd,Ste 450,,Sacramento,US,CA,95823,Vuvuzela Seafood and Hot Pot,+19167063801,,5.0,3,[],https://www.yelp.com/biz/vuvuzela-seafood-and-hot-pot-sacramento-2?adjust_creative=Wu9gfEkr1Iqmmu5UKQvcJw&utm_campaign=yelp_api_v3&utm_medium=api_v3_business_search&utm_source=Wu9gfEkr1Iqmmu5UKQvcJw
lemon-grass-restaurant-sacramento,"['asianfusion', 'vietnamese', 'thai']","['Asian Fusion', 'Vietnamese', 'Thai']",38.57618,-121.40205,(916) 486-4891,44913.566613527764,hsw6xMIcNiqGkCUH4TAqSQ,https://s3-media2.fl.yelpcdn.com/bphoto/RnPupRwVRWGbNAw2MOhqoQ/o.jpg,601 Munroe St,,,Sacramento,US,CA,95825,Lemon Grass Restaurant,+19164864891,$$,3.5,167,[],https://www.yelp.com/biz/lemon-grass-restaurant-sacramento?adjust_creative=Wu9gfEkr1Iqmmu5UKQvcJw&utm_campaign=yelp_api_v3&utm_medium=api_v3_business_search&utm_source=Wu9gfEkr1Iqmmu5UKQvcJw
saigon-pho-vacaville,"['vietnamese', 'noodles', 'asianfusion']","['Vietnamese', 'Noodles', 'Asian Fusion']",38.3517428837441,-121.965328171042,(707) 451-2548,86547.5946314283,G34kS7Ew4oTBoAu3lYal3w,https://s3-media2.fl.yelpcdn.com/bphoto/xNoHnbu7OqpDZgvS_BqoDQ/o.jpg,500 Elmira Rd,,,Vacaville,US,CA,95687,Saigon Pho,+17074512548,$,4.0,246,[],https://www.yelp.com/biz/saigon-pho-vacaville?adjust_creative=Wu9gfEkr1Iqmmu5UKQvcJw&utm_campaign=yelp_api_v3&utm_medium=api_v3_business_search&utm_source=Wu9gfEkr1Iqmmu5UKQvcJw
thai-peppers-roseville-2,['thai'],['Thai'],38.73039,-121.27321,(916) 297-7296,29103.39652974429,zr3L56X16cBMLeirv5DI1A,https://s3-media2.fl.yelpcdn.com/bphoto/F6zcx795bQ92mw8PTFGbzw/o.jpg,970 Sunrise Ave,Ste 120,,Roseville,US,CA,95661,Thai Peppers,+19162977296,$$,4.5,122,"['pickup', 'delivery']",https://www.yelp.com/biz/thai-peppers-roseville-2?adjust_creative=Wu9gfEkr1Iqmmu5UKQvcJw&utm_campaign=yelp_api_v3&utm_medium=api_v3_business_search&utm_source=Wu9gfEkr1Iqmmu5UKQvcJw
andy-nguyens-vegetarian-sacramento-2,"['vietnamese', 'vegetarian', 'vegan']","['Vietnamese', 'Vegetarian', 'Vegan']",38.560214,-121.486688,(916) 736-1157,47604.492223622394,XJEPyw-aqkUgQdYVuQogoQ,https://s3-media1.fl.yelpcdn.com/bphoto/scfbvct_wcXME4u79wZC3Q/o.jpg,2007 Broadway,,,Sacramento,US,CA,95818,Andy Nguyen's Vegetarian,+19167361157,$$,4.0,776,[],https://www.yelp.com/biz/andy-nguyens-vegetarian-sacramento-2?adjust_creative=Wu9gfEkr1Iqmmu5UKQvcJw&utm_campaign=yelp_api_v3&utm_medium=api_v3_business_search&utm_source=Wu9gfEkr1Iqmmu5UKQvcJw
khobkoon-thai-cuisine-roseville,['thai'],['Thai'],38.77086,-121.31337,(916) 771-7995,23849.971657573642,iAcaLXRqZSTT-XRBbPDbQg,https://s3-media3.fl.yelpcdn.com/bphoto/Ui7A5iKxN4mvpnOHtwDO7Q/o.jpg,7452 Foothills Blvd,,,Roseville,US,CA,95747,Khobkoon Thai Cuisine,+19167717995,$,4.0,203,[],https://www.yelp.com/biz/khobkoon-thai-cuisine-roseville?adjust_creative=Wu9gfEkr1Iqmmu5UKQvcJw&utm_campaign=yelp_api_v3&utm_medium=api_v3_business_search&utm_source=Wu9gfEkr1Iqmmu5UKQvcJw
bon-mua-vietnamese-restaurant-sacramento,"['vietnamese', 'coffee', 'noodles']","['Vietnamese', 'Coffee & Tea', 'Noodles']",38.5019002887132,-121.431427186508,(916) 427-4682,53329.52074119178,4fG50ajV1ewh2t20n_Y_fg,https://s3-media4.fl.yelpcdn.com/bphoto/JopWyqAhMm9MvUb7krS_2A/o.jpg,6835 Stockton Blvd,Ste 400,,Sacramento,US,CA,95823,Bon Mua Vietnamese Restaurant,+19164274682,$,4.0,315,[],https://www.yelp.com/biz/bon-mua-vietnamese-restaurant-sacramento?adjust_creative=Wu9gfEkr1Iqmmu5UKQvcJw&utm_campaign=yelp_api_v3&utm_medium=api_v3_business_search&utm_source=Wu9gfEkr1Iqmmu5UKQvcJw
pho-viet-2-sacramento,['vietnamese'],['Vietnamese'],38.6136749213058,-121.497075060773,(916) 925-2138,42013.60519698574,XknoBFqtyeulRxJHphqlEw,https://s3-media3.fl.yelpcdn.com/bphoto/WvdoMgV7kIgOsBBfFXmH6g/o.jpg,1589 W El Camino Ave,Ste 105,,Sacramento,US,CA,95833,Pho Viet 2,+19169252138,$,3.5,39,[],https://www.yelp.com/biz/pho-viet-2-sacramento?adjust_creative=Wu9gfEkr1Iqmmu5UKQvcJw&utm_campaign=yelp_api_v3&utm_medium=api_v3_business_search&utm_source=Wu9gfEkr1Iqmmu5UKQvcJw
huong-lan-sandwiches-rancho-cordova,"['vietnamese', 'sandwiches', 'cafes']","['Vietnamese', 'Sandwiches', 'Cafes']",38.5839799,-121.31419,(916) 917-5553,44320.26313055937,QqbTO6IZStfLGfpkbT4I1Q,https://s3-media1.fl.yelpcdn.com/bphoto/sEUhLyleKCa22wBBNY_8GQ/o.jpg,10145 Folsom Blvd,,,Rancho Cordova,US,CA,95670,Huong Lan Sandwiches,+19169175553,$,4.0,134,[],https://www.yelp.com/biz/huong-lan-sandwiches-rancho-cordova?adjust_creative=Wu9gfEkr1Iqmmu5UKQvcJw&utm_campaign=yelp_api_v3&utm_medium=api_v3_business_search&utm_source=Wu9gfEkr1Iqmmu5UKQvcJw
pho-saigon-bay-sacramento-2,['vietnamese'],['Vietnamese'],38.5941477216593,-121.41626540741,(916) 922-1288,42996.926554269405,xFGNdDrQoQNcWkA4KAJd2w,https://s3-media2.fl.yelpcdn.com/bphoto/-B_yzMTSGLiy8t3TAyI2bA/o.jpg,1537 Howe Ave,,,Sacramento,US,CA,95825,Pho Saigon Bay,+19169221288,$,3.0,394,[],https://www.yelp.com/biz/pho-saigon-bay-sacramento-2?adjust_creative=Wu9gfEkr1Iqmmu5UKQvcJw&utm_campaign=yelp_api_v3&utm_medium=api_v3_business_search&utm_source=Wu9gfEkr1Iqmmu5UKQvcJw
anh-hong-bo-7-mon-sacramento,['vietnamese'],['Vietnamese'],38.495518,-121.449198,(916) 823-5333,54192.32766879717,PcgXoNkpMTE_0wu3WyD0-A,https://s3-media4.fl.yelpcdn.com/bphoto/3bFWTu2_bYVVzcksfPyUkQ/o.jpg,4800 Florin Rd,Ste A,,Sacramento,US,CA,95823,Anh Hong - Bo 7 Mon,+19168235333,$$,3.5,55,['pickup'],https://www.yelp.com/biz/anh-hong-bo-7-mon-sacramento?adjust_creative=Wu9gfEkr1Iqmmu5UKQvcJw&utm_campaign=yelp_api_v3&utm_medium=api_v3_business_search&utm_source=Wu9gfEkr1Iqmmu5UKQvcJw
duc-huong-sandwiches-sacramento,"['vietnamese', 'sandwiches']","['Vietnamese', 'Sandwiches']",38.5023398,-121.4318766,(916) 428-1188,53285.660262721634,e0qy36QgddfI6MvMaaZGwg,https://s3-media1.fl.yelpcdn.com/bphoto/stVXQTQPnFWxhfEZBbol2w/o.jpg,6825 Stockton Blvd,Ste 200,,Sacramento,US,CA,95823,Duc Huong Sandwiches,+19164281188,$,4.5,690,[],https://www.yelp.com/biz/duc-huong-sandwiches-sacramento?adjust_creative=Wu9gfEkr1Iqmmu5UKQvcJw&utm_campaign=yelp_api_v3&utm_medium=api_v3_business_search&utm_source=Wu9gfEkr1Iqmmu5UKQvcJw
com-tam-thien-huong-sacramento-4,['vietnamese'],['Vietnamese'],38.5019610191946,-121.431152187288,(916) 476-4258,53320.65382864098,31fL56I-yN1FURjgPVsXbQ,https://s3-media1.fl.yelpcdn.com/bphoto/Fskcq45dpuSRGvCJCHj4xQ/o.jpg,6835 Stockton Blvd,,,Sacramento,US,CA,95823,Com Tam Thien Huong,+19164764258,$$,3.0,97,[],https://www.yelp.com/biz/com-tam-thien-huong-sacramento-4?adjust_creative=Wu9gfEkr1Iqmmu5UKQvcJw&utm_campaign=yelp_api_v3&utm_medium=api_v3_business_search&utm_source=Wu9gfEkr1Iqmmu5UKQvcJw
panoy-bistro-grass-valley,['laotian'],['Laotian'],39.215125,-121.0537943,(530) 268-5267,38205.70736987168,tsD_OL01Bv8Ugbxecl9Gig,https://s3-media3.fl.yelpcdn.com/bphoto/NiTezd6HSalbYSETnRp-Wg/o.jpg,442 Colfax Ave,,,Grass Valley,US,CA,95945,Panoy Bistro,+15302685267,$$,4.0,61,[],https://www.yelp.com/biz/panoy-bistro-grass-valley?adjust_creative=Wu9gfEkr1Iqmmu5UKQvcJw&utm_campaign=yelp_api_v3&utm_medium=api_v3_business_search&utm_source=Wu9gfEkr1Iqmmu5UKQvcJw
pho-anh-duc-east-west-cafe-elk-grove,['vietnamese'],['Vietnamese'],38.42185,-121.39738,(916) 684-9988,62059.7944319468,o8qqjOdPLOF2AskfPioGUA,https://s3-media2.fl.yelpcdn.com/bphoto/dO-pjqbMSgTiWxAd4SDPyw/o.jpg,9261 Laguna Springs Dr,Ste 130,,Elk Grove,US,CA,95758,Pho Anh Duc East West Cafe,+19166849988,$,3.5,323,[],https://www.yelp.com/biz/pho-anh-duc-east-west-cafe-elk-grove?adjust_creative=Wu9gfEkr1Iqmmu5UKQvcJw&utm_campaign=yelp_api_v3&utm_medium=api_v3_business_search&utm_source=Wu9gfEkr1Iqmmu5UKQvcJw
khun-suda-roseville-3,"['thai', 'seafood', 'noodles']","['Thai', 'Seafood', 'Noodles']",38.7447,-121.25968,(916) 782-2745,27990.07446279469,p3uP8bx40dBMX2--QNuZvg,https://s3-media1.fl.yelpcdn.com/bphoto/yhrPq_GgFKHoyCTq7wBQZg/o.jpg,1825 Douglas Blvd,,,Roseville,US,CA,95661,Khun Suda,+19167822745,$$,4.0,301,['pickup'],https://www.yelp.com/biz/khun-suda-roseville-3?adjust_creative=Wu9gfEkr1Iqmmu5UKQvcJw&utm_campaign=yelp_api_v3&utm_medium=api_v3_business_search&utm_source=Wu9gfEkr1Iqmmu5UKQvcJw
jannois-app-khao-papaya-and-noodle-shack-sacramento,"['thai', 'laotian']","['Thai', 'Laotian']",38.63674167,-121.38162333,(916) 418-4424,38132.33902294224,HtaQJmzgQYju4pkT_McPzQ,https://s3-media2.fl.yelpcdn.com/bphoto/Gwb7Uur91WZThn896vPvRQ/o.jpg,3510 Auburn Blvd,Ste 10,,Sacramento,US,CA,95821,Jannoi's App-Khao Papaya & Noodle Shack,+19164184424,,4.5,54,[],https://www.yelp.com/biz/jannois-app-khao-papaya-and-noodle-shack-sacramento?adjust_creative=Wu9gfEkr1Iqmmu5UKQvcJw&utm_campaign=yelp_api_v3&utm_medium=api_v3_business_search&utm_source=Wu9gfEkr1Iqmmu5UKQvcJw
mandalay-express-davis,['vietnamese'],['Vietnamese'],38.539751,-121.7507163,,58917.29202128181,Q-xi4tE6xAynn9WR-t4_2w,https://s3-media1.fl.yelpcdn.com/bphoto/tL8f8-6wWpW5e-dwq9VV8Q/o.jpg,1 Shields Ave,,,Davis,US,CA,95616,Mandalay Express,,,4.0,1,[],https://www.yelp.com/biz/mandalay-express-davis?adjust_creative=Wu9gfEkr1Iqmmu5UKQvcJw&utm_campaign=yelp_api_v3&utm_medium=api_v3_business_search&utm_source=Wu9gfEkr1Iqmmu5UKQvcJw
pho-bolsa-sacramento,['vietnamese'],['Vietnamese'],38.5208075,-121.4405007,(916) 451-7985,51292.160402054455,IDEAx2Xc0Jb8UeyEKqNVug,https://s3-media3.fl.yelpcdn.com/bphoto/BK5V9cbTLwyQT0iDmwTbyQ/o.jpg,5815 Stockton Blvd,,,Sacramento,US,CA,95824,Pho Bolsa,+19164517985,$,4.0,105,[],https://www.yelp.com/biz/pho-bolsa-sacramento?adjust_creative=Wu9gfEkr1Iqmmu5UKQvcJw&utm_campaign=yelp_api_v3&utm_medium=api_v3_business_search&utm_source=Wu9gfEkr1Iqmmu5UKQvcJw
sushi-king-sacramento-2,"['japanese', 'sushi', 'vietnamese']","['Japanese', 'Sushi Bars', 'Vietnamese']",38.61309,-121.51838,(916) 921-6898,42586.3056647737,xXvAbyiHSNcJQ0PnooiKsg,https://s3-media3.fl.yelpcdn.com/bphoto/jfdMchVsOtdvuUM9J4oqDA/o.jpg,2550 W El Camino Ave,Ste 13,,Sacramento,US,CA,95833,Sushi King,+19169216898,$$,3.5,236,[],https://www.yelp.com/biz/sushi-king-sacramento-2?adjust_creative=Wu9gfEkr1Iqmmu5UKQvcJw&utm_campaign=yelp_api_v3&utm_medium=api_v3_business_search&utm_source=Wu9gfEkr1Iqmmu5UKQvcJw
pho-tahoe-pollock-pines,"['vietnamese', 'noodles', 'chicken_wings']","['Vietnamese', 'Noodles', 'Chicken Wings']",38.7620566225066,-120.574987041664,(530) 344-7924,73449.29201407018,UIfKdreVN-mhaN5kftM-qA,https://s3-media4.fl.yelpcdn.com/bphoto/618hhDL9nyBPeKP_u0mh4w/o.jpg,6530 Pony Express Trl,,,Pollock Pines,US,CA,95726,Pho Tahoe,+15303447924,$$,4.0,74,[],https://www.yelp.com/biz/pho-tahoe-pollock-pines?adjust_creative=Wu9gfEkr1Iqmmu5UKQvcJw&utm_campaign=yelp_api_v3&utm_medium=api_v3_business_search&utm_source=Wu9gfEkr1Iqmmu5UKQvcJw
pho-lee-hoa-phat-vacaville,['vietnamese'],['Vietnamese'],38.3539886474609,-121.978248596191,(707) 452-8829,87014.87927230877,HiXZsD-HT1K6izxqb9GjXw,https://s3-media1.fl.yelpcdn.com/bphoto/6X5vX5tGLNkE4sgAeZ_1rQ/o.jpg,88 Peabody Rd,,,Vacaville,US,CA,95687,Pho Lee Hoa Phat,+17074528829,$,3.5,470,[],https://www.yelp.com/biz/pho-lee-hoa-phat-vacaville?adjust_creative=Wu9gfEkr1Iqmmu5UKQvcJw&utm_campaign=yelp_api_v3&utm_medium=api_v3_business_search&utm_source=Wu9gfEkr1Iqmmu5UKQvcJw
liu-mandarin-kitchen-auburn,['chinese'],['Chinese'],38.89493,-121.07778,(530) 745-4098,27461.33297847335,zv4sA5zIOsfaK7J8tvQJdQ,https://s3-media4.fl.yelpcdn.com/bphoto/Y3oIDcl5QTweD9scYA1dWQ/o.jpg,167 Sacramento St,,,Auburn,US,CA,95603,Liu Mandarin Kitchen,+15307454098,$$,4.5,223,[],https://www.yelp.com/biz/liu-mandarin-kitchen-auburn?adjust_creative=Wu9gfEkr1Iqmmu5UKQvcJw&utm_campaign=yelp_api_v3&utm_medium=api_v3_business_search&utm_source=Wu9gfEkr1Iqmmu5UKQvcJw
bodhi-bowl-sacramento,"['vietnamese', 'vegetarian', 'noodles']","['Vietnamese', 'Vegetarian', 'Noodles']",38.50138,-121.42867,(916) 428-4160,53370.28910104914,LkjYH-3QagqS2T_LEG4a5Q,https://s3-media3.fl.yelpcdn.com/bphoto/odkoAUKmZyEulx_ix6R1xQ/o.jpg,6511 Savings Pl,Ste 100,,Sacramento,US,CA,95828,Bodhi Bowl,+19164284160,$,4.5,164,[],https://www.yelp.com/biz/bodhi-bowl-sacramento?adjust_creative=Wu9gfEkr1Iqmmu5UKQvcJw&utm_campaign=yelp_api_v3&utm_medium=api_v3_business_search&utm_source=Wu9gfEkr1Iqmmu5UKQvcJw
pho-dynasty-elk-grove,"['vietnamese', 'chinese']","['Vietnamese', 'Chinese']",38.45061,-121.37029,(916) 682-8611,58818.137272837186,9Vs51Mi61KhmenaPDdaBrQ,https://s3-media3.fl.yelpcdn.com/bphoto/8CDq8l7vVJ0Or_f14AEe2A/o.jpg,8457 Elk Grove Florin Rd,Ste 100,,Elk Grove,US,CA,95624,Pho Dynasty,+19166828611,$,3.5,268,[],https://www.yelp.com/biz/pho-dynasty-elk-grove?adjust_creative=Wu9gfEkr1Iqmmu5UKQvcJw&utm_campaign=yelp_api_v3&utm_medium=api_v3_business_search&utm_source=Wu9gfEkr1Iqmmu5UKQvcJw
red-lantern-lincoln,"['asianfusion', 'szechuan']","['Asian Fusion', 'Szechuan']",38.8404679159913,-121.314504127637,(916) 408-8326,16358.562400018598,kQ5YqO2_fKmXYfMm3zyAYA,https://s3-media2.fl.yelpcdn.com/bphoto/4GtuUD07FKAVAG3B9huViw/o.jpg,Thunder Valley Casino Resort,1200 Athens Ave,,Lincoln,US,CA,95648,Red Lantern,+19164088326,$$,3.5,157,[],https://www.yelp.com/biz/red-lantern-lincoln?adjust_creative=Wu9gfEkr1Iqmmu5UKQvcJw&utm_campaign=yelp_api_v3&utm_medium=api_v3_business_search&utm_source=Wu9gfEkr1Iqmmu5UKQvcJw
wayside-noodles-sacramento,"['vietnamese', 'noodles']","['Vietnamese', 'Noodles']",38.63496,-121.50345,(916) 285-9611,39864.76812623225,7dkmbzzuZOcpF0xBF6gz7Q,https://s3-media1.fl.yelpcdn.com/bphoto/r1VruHvmwmUexeYpoh4d0Q/o.jpg,3551 Truxel Rd,Ste A3,,Sacramento,US,CA,95834,Wayside Noodles,+19162859611,$,2.5,350,[],https://www.yelp.com/biz/wayside-noodles-sacramento?adjust_creative=Wu9gfEkr1Iqmmu5UKQvcJw&utm_campaign=yelp_api_v3&utm_medium=api_v3_business_search&utm_source=Wu9gfEkr1Iqmmu5UKQvcJw
ha-noi-pho-elk-grove-2,"['vietnamese', 'chinese']","['Vietnamese', 'Chinese']",38.41851,-121.40584,(916) 683-4222,62430.59622062902,0LwBnPtRbn_O8dqoC4wjYg,https://s3-media1.fl.yelpcdn.com/bphoto/CGnF9n3H0hokbsZXQCL2gA/o.jpg,9341 Big Horn Blvd,,,Elk Grove,US,CA,95758,Ha Noi Pho,+19166834222,$$,3.5,114,[],https://www.yelp.com/biz/ha-noi-pho-elk-grove-2?adjust_creative=Wu9gfEkr1Iqmmu5UKQvcJw&utm_campaign=yelp_api_v3&utm_medium=api_v3_business_search&utm_source=Wu9gfEkr1Iqmmu5UKQvcJw
co-do-restaurant-vietnamese-cuisine-sacramento,['vietnamese'],['Vietnamese'],38.5063,-121.43331,(916) 427-8305,52848.262407492606,iGMMCTgdV-65hEZCAhEh8w,https://s3-media4.fl.yelpcdn.com/bphoto/6V3UOD5j28I69YIw3MjBdw/o.jpg,6665 Stockton Blvd,Ste 10,,Sacramento,US,CA,95823,Co Do Restaurant Vietnamese Cuisine,+19164278305,$,3.5,150,[],https://www.yelp.com/biz/co-do-restaurant-vietnamese-cuisine-sacramento?adjust_creative=Wu9gfEkr1Iqmmu5UKQvcJw&utm_campaign=yelp_api_v3&utm_medium=api_v3_business_search&utm_source=Wu9gfEkr1Iqmmu5UKQvcJw
huong-lan-sandwiches-sacramento,"['sandwiches', 'vietnamese']","['Sandwiches', 'Vietnamese']",38.5012245178223,-121.433570861816,(916) 429-9999,53366.324004290196,NGhMh-rwWegzYz7I-CyguQ,https://s3-media1.fl.yelpcdn.com/bphoto/gDVabhzRM96My-VkHbCjuA/o.jpg,6930 65th St,Ste 109,,Sacramento,US,CA,95823,Huong Lan Sandwiches,+19164299999,$,4.0,779,[],https://www.yelp.com/biz/huong-lan-sandwiches-sacramento?adjust_creative=Wu9gfEkr1Iqmmu5UKQvcJw&utm_campaign=yelp_api_v3&utm_medium=api_v3_business_search&utm_source=Wu9gfEkr1Iqmmu5UKQvcJw
harrys-cafe-sacramento,"['chinese', 'breakfast_brunch', 'vietnamese']","['Chinese', 'Breakfast & Brunch', 'Vietnamese']",38.56639,-121.4906,(916) 448-0088,47013.03325070525,RgG3rcyYvpAzuGk4J_s1FA,https://s3-media4.fl.yelpcdn.com/bphoto/rrgKrNSC3KEPgWXiPQDvsw/o.jpg,2026 16th St,,,Sacramento,US,CA,95818,Harry's Cafe,+19164480088,$,4.0,622,[],https://www.yelp.com/biz/harrys-cafe-sacramento?adjust_creative=Wu9gfEkr1Iqmmu5UKQvcJw&utm_campaign=yelp_api_v3&utm_medium=api_v3_business_search&utm_source=Wu9gfEkr1Iqmmu5UKQvcJw
my-thai-kitchen-roseville-2,['thai'],['Thai'],38.7530926018765,-121.251939624905,(916) 781-7811,27380.083192249043,zH7Af9l3wBSNoX7joFKCLA,https://s3-media2.fl.yelpcdn.com/bphoto/Tw80UgTa-tqfLgrj5sVngQ/o.jpg,1465 Eureka Rd,Ste 140,,Roseville,US,CA,95661,My Thai Kitchen,+19167817811,$$,4.0,1038,"['pickup', 'delivery']",https://www.yelp.com/biz/my-thai-kitchen-roseville-2?adjust_creative=Wu9gfEkr1Iqmmu5UKQvcJw&utm_campaign=yelp_api_v3&utm_medium=api_v3_business_search&utm_source=Wu9gfEkr1Iqmmu5UKQvcJw
lollibowl-sacramento,"['chinese', 'vietnamese', 'soup']","['Chinese', 'Vietnamese', 'Soup']",38.502935,-121.432985,(916) 428-6800,53227.28497045946,34T9bn-FqkOwtEUu1DZkAQ,https://s3-media1.fl.yelpcdn.com/bphoto/p4WCoIgCoy8UQYa6guNHrA/o.jpg,6830 Stockton Blvd,,,Sacramento,US,CA,95823,Lollibowl,+19164286800,$,4.0,379,[],https://www.yelp.com/biz/lollibowl-sacramento?adjust_creative=Wu9gfEkr1Iqmmu5UKQvcJw&utm_campaign=yelp_api_v3&utm_medium=api_v3_business_search&utm_source=Wu9gfEkr1Iqmmu5UKQvcJw
pho-lotus-vietnamese-restaurant-elk-grove,['vietnamese'],['Vietnamese'],38.408538,-121.420639,(916) 686-9474,63612.136101773154,txY9gBEPl2skPaJB_NHXpA,https://s3-media2.fl.yelpcdn.com/bphoto/t8kr60X9FEvf3CxIWp36_g/o.jpg,9600 Bruceville Rd,Ste 100,,Elk Grove,US,CA,95757,Pho Lotus Vietnamese Restaurant,+19166869474,$$,3.0,393,[],https://www.yelp.com/biz/pho-lotus-vietnamese-restaurant-elk-grove?adjust_creative=Wu9gfEkr1Iqmmu5UKQvcJw&utm_campaign=yelp_api_v3&utm_medium=api_v3_business_search&utm_source=Wu9gfEkr1Iqmmu5UKQvcJw
fusion-rancho-cordova-2,"['coffee', 'juicebars', 'sandwiches']","['Coffee & Tea', 'Juice Bars & Smoothies', 'Sandwiches']",38.573583,-121.302865,(916) 400-3105,45586.566394191854,HWDhR_2UxFU8bJWlJj5U5Q,https://s3-media2.fl.yelpcdn.com/bphoto/FJLKN5wJUxMUUy7NWsO1uw/o.jpg,3360 Mather Field Rd,,,Rancho Cordova,US,CA,95670,Fusion,+19164003105,$,4.0,232,"['pickup', 'delivery']",https://www.yelp.com/biz/fusion-rancho-cordova-2?adjust_creative=Wu9gfEkr1Iqmmu5UKQvcJw&utm_campaign=yelp_api_v3&utm_medium=api_v3_business_search&utm_source=Wu9gfEkr1Iqmmu5UKQvcJw
thanh-son-hien-khanh-sacramento-5,"['desserts', 'vietnamese']","['Desserts', 'Vietnamese']",38.50333,-121.43203,(916) 391-6751,53171.953331217155,fBbhSb_C0pTj26Q5qEyhbQ,https://s3-media4.fl.yelpcdn.com/bphoto/tYjF5y0wjCE-f3vVKCMrYQ/o.jpg,6749 Stockton Blvd,,,Sacramento,US,CA,95823,Thanh Son Hien Khanh,+19163916751,$,3.5,28,[],https://www.yelp.com/biz/thanh-son-hien-khanh-sacramento-5?adjust_creative=Wu9gfEkr1Iqmmu5UKQvcJw&utm_campaign=yelp_api_v3&utm_medium=api_v3_business_search&utm_source=Wu9gfEkr1Iqmmu5UKQvcJw
vientiane-restaurant-west-sacramento-3,"['thai', 'laotian']","['Thai', 'Laotian']",38.57517,-121.52373,(916) 373-1556,46748.86214329153,ZGzEdyWLtP_PlAxHLXOH-g,https://s3-media4.fl.yelpcdn.com/bphoto/r8IkLiNE8qljeSXPFRTmIA/o.jpg,1001 Jefferson Blvd,,,West Sacramento,US,CA,95691,Vientiane Restaurant,+19163731556,$,4.0,305,['pickup'],https://www.yelp.com/biz/vientiane-restaurant-west-sacramento-3?adjust_creative=Wu9gfEkr1Iqmmu5UKQvcJw&utm_campaign=yelp_api_v3&utm_medium=api_v3_business_search&utm_source=Wu9gfEkr1Iqmmu5UKQvcJw
thai-pepper-woodland-2,['thai'],['Thai'],38.677299623637,-121.770300418139,(530) 668-9364,47913.006684775595,hyUVryYv1kgz0xiwqZYGoA,https://s3-media1.fl.yelpcdn.com/bphoto/WzNcn2Vm35HuckDNyL19OA/o.jpg,808 Main St,,,Woodland,US,CA,95695,Thai Pepper,+15306689364,$$,4.0,84,[],https://www.yelp.com/biz/thai-pepper-woodland-2?adjust_creative=Wu9gfEkr1Iqmmu5UKQvcJw&utm_campaign=yelp_api_v3&utm_medium=api_v3_business_search&utm_source=Wu9gfEkr1Iqmmu5UKQvcJw
star-ginger-sacramento-4,"['asianfusion', 'vietnamese', 'thai']","['Asian Fusion', 'Vietnamese', 'Thai']",38.56949,-121.46622,(916) 231-8888,46256.41893857529,PUXgFwoWmx_8_w4F4jvw-g,https://s3-media1.fl.yelpcdn.com/bphoto/VPAeLiecvQ8zaCG4ZIAqYg/o.jpg,3101 Folsom Blvd,,,Sacramento,US,CA,95816,Star Ginger,+19162318888,$$,3.5,513,"['pickup', 'delivery']",https://www.yelp.com/biz/star-ginger-sacramento-4?adjust_creative=Wu9gfEkr1Iqmmu5UKQvcJw&utm_campaign=yelp_api_v3&utm_medium=api_v3_business_search&utm_source=Wu9gfEkr1Iqmmu5UKQvcJw
fusion-taps-folsom,"['tradamerican', 'beer_and_wine', 'thai']","['American (Traditional)', 'Beer, Wine & Spirits', 'Thai']",38.655854,-121.177773,(916) 790-8324,39891.24945516094,xLqBR7u15w6gIb2Rh6kNWg,https://s3-media4.fl.yelpcdn.com/bphoto/VMXOufExRroci6j2pNRNuw/o.jpg,194 Blue Ravine Rd,Ste 120,,Folsom,US,CA,95630,Fusion Taps,+19167908324,$$,4.0,103,[],https://www.yelp.com/biz/fusion-taps-folsom?adjust_creative=Wu9gfEkr1Iqmmu5UKQvcJw&utm_campaign=yelp_api_v3&utm_medium=api_v3_business_search&utm_source=Wu9gfEkr1Iqmmu5UKQvcJw
wonder-cafe-sacramento,"['vietnamese', 'karaoke', 'coffee']","['Vietnamese', 'Karaoke', 'Coffee & Tea']",38.50145,-121.43031,(916) 399-9960,53383.672448471836,zB10cIHm7iZkO3Qrw47q3A,https://s3-media2.fl.yelpcdn.com/bphoto/dg6TqzywygfwyiCUKtY-Kg/o.jpg,6880 65th St,Ste 45,,Sacramento,US,CA,95828,Wonder Cafe,+19163999960,$$,3.0,23,[],https://www.yelp.com/biz/wonder-cafe-sacramento?adjust_creative=Wu9gfEkr1Iqmmu5UKQvcJw&utm_campaign=yelp_api_v3&utm_medium=api_v3_business_search&utm_source=Wu9gfEkr1Iqmmu5UKQvcJw
viet-hoa-vietnamese-and-chinese-elk-grove,"['chinese', 'vietnamese', 'noodles']","['Chinese', 'Vietnamese', 'Noodles']",38.4241140280892,-121.44944286823,(916) 428-4295,62089.686610872486,pBlCZK0Ls2DOM6M_lwdiTA,https://s3-media4.fl.yelpcdn.com/bphoto/uxdpk1ALsC1rTzZ7L70tsQ/o.jpg,4805 Laguna Blvd,,,Elk Grove,US,CA,95758,Viet Hoa Vietnamese & Chinese,+19164284295,$,3.5,164,[],https://www.yelp.com/biz/viet-hoa-vietnamese-and-chinese-elk-grove?adjust_creative=Wu9gfEkr1Iqmmu5UKQvcJw&utm_campaign=yelp_api_v3&utm_medium=api_v3_business_search&utm_source=Wu9gfEkr1Iqmmu5UKQvcJw
origami-asian-grill-sacramento,['asianfusion'],['Asian Fusion'],38.56171,-121.44581,(916) 400-3075,46854.0738917102,D8SfFlY3XU05fc5JJ2T8Vg,https://s3-media3.fl.yelpcdn.com/bphoto/hmWBtlyLmmzTd6g156bp_w/o.jpg,4801 Folsom Blvd,Ste 1,,Sacramento,US,CA,95819,Origami Asian Grill,+19164003075,$$,4.5,187,[],https://www.yelp.com/biz/origami-asian-grill-sacramento?adjust_creative=Wu9gfEkr1Iqmmu5UKQvcJw&utm_campaign=yelp_api_v3&utm_medium=api_v3_business_search&utm_source=Wu9gfEkr1Iqmmu5UKQvcJw
thanh-huong-food-to-go-sacramento,"['vietnamese', 'sandwiches']","['Vietnamese', 'Sandwiches']",38.50154,-121.43099,(916) 393-9999,53366.58023067523,IkGNigTPWmjALL8Hk8Pz0Q,https://s3-media3.fl.yelpcdn.com/bphoto/tqY-VOKUCBQAF12oV8mC0g/o.jpg,6901 Stockton Blvd,,,Sacramento,US,CA,95823,Thanh Huong Food To Go,+19163939999,$,4.0,100,[],https://www.yelp.com/biz/thanh-huong-food-to-go-sacramento?adjust_creative=Wu9gfEkr1Iqmmu5UKQvcJw&utm_campaign=yelp_api_v3&utm_medium=api_v3_business_search&utm_source=Wu9gfEkr1Iqmmu5UKQvcJw
huong-sen-tofu-sacramento,"['vegetarian', 'vietnamese', 'vegan']","['Vegetarian', 'Vietnamese', 'Vegan']",38.50241,-121.432868,(916) 391-8282,53284.47418469138,93E6iLIfIyxr-wIkhhNRXA,https://s3-media3.fl.yelpcdn.com/bphoto/gZtjQzT0vf6ZcM4R-zQsBA/o.jpg,6830 Stockton Blvd,Ste 155,,Sacramento,US,CA,95823,Huong Sen Tofu,+19163918282,$,4.0,138,[],https://www.yelp.com/biz/huong-sen-tofu-sacramento?adjust_creative=Wu9gfEkr1Iqmmu5UKQvcJw&utm_campaign=yelp_api_v3&utm_medium=api_v3_business_search&utm_source=Wu9gfEkr1Iqmmu5UKQvcJw
lollicup-roseville,"['coffee', 'bubbletea', 'juicebars']","['Coffee & Tea', 'Bubble Tea', 'Juice Bars & Smoothies']",38.77188,-121.31115,(916) 787-5335,23766.135445943764,ttfMrm_84Pz_BQCUqhgNqg,https://s3-media3.fl.yelpcdn.com/bphoto/WgjBdqBP2Q1Odm6Yjvei9g/o.jpg,1253 Pleasant Grove Blvd,Ste 120,,Roseville,US,CA,95678,Lollicup,+19167875335,$,4.0,315,[],https://www.yelp.com/biz/lollicup-roseville?adjust_creative=Wu9gfEkr1Iqmmu5UKQvcJw&utm_campaign=yelp_api_v3&utm_medium=api_v3_business_search&utm_source=Wu9gfEkr1Iqmmu5UKQvcJw
chang-bros-rocklin,['chinese'],['Chinese'],38.7945509127361,-121.268937616704,(916) 771-9838,22566.000643612453,9edIO0lZqRLKDtQfH5-UCQ,https://s3-media1.fl.yelpcdn.com/bphoto/nHJU-rntQLNcHqPD5gsUUw/o.jpg,6160 Stanford Ranch Rd,Ste 100,,Rocklin,US,CA,95765,Chang Bros,+19167719838,$$,3.5,168,['pickup'],https://www.yelp.com/biz/chang-bros-rocklin?adjust_creative=Wu9gfEkr1Iqmmu5UKQvcJw&utm_campaign=yelp_api_v3&utm_medium=api_v3_business_search&utm_source=Wu9gfEkr1Iqmmu5UKQvcJw
hengs-cafe-yuba-city,['chinese'],['Chinese'],39.146217,-121.646072,(530) 821-2286,29777.28933775816,zVFECmNXm0Re2aJzZQwzmA,https://s3-media2.fl.yelpcdn.com/bphoto/euo8QK0ilTtPK2ygsigaJQ/o.jpg,1270 Stabler Ln,Ste 320,,Yuba City,US,CA,95993,Heng's Cafe,+15308212286,$,3.0,92,[],https://www.yelp.com/biz/hengs-cafe-yuba-city?adjust_creative=Wu9gfEkr1Iqmmu5UKQvcJw&utm_campaign=yelp_api_v3&utm_medium=api_v3_business_search&utm_source=Wu9gfEkr1Iqmmu5UKQvcJw
pho-king-ii-sacramento-2,"['vietnamese', 'soup']","['Vietnamese', 'Soup']",38.502909,-121.433426,(916) 395-9244,53233.72254336092,FELLnfK3M9UU244Z5C08og,https://s3-media1.fl.yelpcdn.com/bphoto/GtZdJ8L32v142smyFwmejA/o.jpg,6830 Stockton Blvd,Ste 180,,Sacramento,US,CA,95823,Pho King II,+19163959244,$,3.5,248,[],https://www.yelp.com/biz/pho-king-ii-sacramento-2?adjust_creative=Wu9gfEkr1Iqmmu5UKQvcJw&utm_campaign=yelp_api_v3&utm_medium=api_v3_business_search&utm_source=Wu9gfEkr1Iqmmu5UKQvcJw
bkb-best-karaoke-bar-and-restaurant-sacramento,"['karaoke', 'bars', 'vietnamese']","['Karaoke', 'Bars', 'Vietnamese']",38.49666,-121.44912,(916) 525-7588,54071.24227075142,MWv3OW4SJBFJfdtTtq_iKQ,https://s3-media3.fl.yelpcdn.com/bphoto/FY79MrNkfr1QGBjBArhhSw/o.jpg,7121 Governors Cir,,,Sacramento,US,CA,95823,BKB Best Karaoke Bar & Restaurant,+19165257588,,4.5,8,[],https://www.yelp.com/biz/bkb-best-karaoke-bar-and-restaurant-sacramento?adjust_creative=Wu9gfEkr1Iqmmu5UKQvcJw&utm_campaign=yelp_api_v3&utm_medium=api_v3_business_search&utm_source=Wu9gfEkr1Iqmmu5UKQvcJw
folsom-thai-cuisine-folsom,['thai'],['Thai'],38.64518,-121.12495,(916) 983-9000,43082.562979037226,Jrjs52MxougCdJg4qoCM2g,https://s3-media2.fl.yelpcdn.com/bphoto/N7S8Eh4f5GKxvjoJJCjhfQ/o.jpg,2371 Iron Point Rd,Ste 100,,Folsom,US,CA,95630,Folsom Thai Cuisine,+19169839000,$$,4.0,179,[],https://www.yelp.com/biz/folsom-thai-cuisine-folsom?adjust_creative=Wu9gfEkr1Iqmmu5UKQvcJw&utm_campaign=yelp_api_v3&utm_medium=api_v3_business_search&utm_source=Wu9gfEkr1Iqmmu5UKQvcJw
mixed-rice-and-noodle-bar-sacramento-2,"['asianfusion', 'korean']","['Asian Fusion', 'Korean']",38.45557,-121.41573,(916) 896-5311,58362.50983398682,LvMoS8K7cwwEZA6c7nuWDw,https://s3-media3.fl.yelpcdn.com/bphoto/FWRn3QZCrrwYVid0nFAIsA/o.jpg,7501 W Stockton Blvd,,,Sacramento,US,CA,95823,Mixed Rice & Noodle Bar,+19168965311,$,4.5,70,[],https://www.yelp.com/biz/mixed-rice-and-noodle-bar-sacramento-2?adjust_creative=Wu9gfEkr1Iqmmu5UKQvcJw&utm_campaign=yelp_api_v3&utm_medium=api_v3_business_search&utm_source=Wu9gfEkr1Iqmmu5UKQvcJw
leos-kitchen-roseville,['chinese'],['Chinese'],38.7711719,-121.3122933,(916) 788-1998,23820.691768889723,yoNAjXami2O-6IXiiSx9_w,https://s3-media1.fl.yelpcdn.com/bphoto/VZxprsUxesj2Znnh2wS7qA/o.jpg,7441 Foothills Blvd,Ste 180,,Roseville,US,CA,95747,Leo's Kitchen,+19167881998,$$,4.0,286,[],https://www.yelp.com/biz/leos-kitchen-roseville?adjust_creative=Wu9gfEkr1Iqmmu5UKQvcJw&utm_campaign=yelp_api_v3&utm_medium=api_v3_business_search&utm_source=Wu9gfEkr1Iqmmu5UKQvcJw
four-seasons-gourmet-chinese-restaurant-davis,['chinese'],['Chinese'],38.5402220134895,-121.731972718577,(530) 758-0058,57781.17562341399,qqti9B1QsOFEnNhplwAgug,https://s3-media4.fl.yelpcdn.com/bphoto/JXP7gXkbB6CwyCV8ue8lKg/o.jpg,1601 Research Park Dr,,,Davis,US,CA,95618,Four Seasons Gourmet Chinese Restaurant,+15307580058,$,4.5,593,[],https://www.yelp.com/biz/four-seasons-gourmet-chinese-restaurant-davis?adjust_creative=Wu9gfEkr1Iqmmu5UKQvcJw&utm_campaign=yelp_api_v3&utm_medium=api_v3_business_search&utm_source=Wu9gfEkr1Iqmmu5UKQvcJw
pho-sacto-sacramento-2,"['vietnamese', 'soup']","['Vietnamese', 'Soup']",38.5092234,-121.4354633,(916) 346-4088,52536.13010741739,3NNx8O5vfoWNNEOKyvQSxw,https://s3-media3.fl.yelpcdn.com/bphoto/websUUMPpgaubk-sALX0PQ/o.jpg,6434 Stockton Blvd,,,Sacramento,US,CA,95823,Pho Sacto,+19163464088,$,4.0,66,[],https://www.yelp.com/biz/pho-sacto-sacramento-2?adjust_creative=Wu9gfEkr1Iqmmu5UKQvcJw&utm_campaign=yelp_api_v3&utm_medium=api_v3_business_search&utm_source=Wu9gfEkr1Iqmmu5UKQvcJw
journey-to-the-dumpling-elk-grove,"['chinese', 'soup', 'noodles']","['Chinese', 'Soup', 'Noodles']",38.424725,-121.417389,(916) 509-9556,61798.62810227749,9nwwNdkH7TUJp_9LkUj-yw,https://s3-media1.fl.yelpcdn.com/bphoto/lYW3LCDJGxbge-ULKjeARA/o.jpg,7419 Laguna Blvd,Ste 180,,Elk Grove,US,CA,95758,Journey to the Dumpling,+19165099556,$$,4.0,1110,[],https://www.yelp.com/biz/journey-to-the-dumpling-elk-grove?adjust_creative=Wu9gfEkr1Iqmmu5UKQvcJw&utm_campaign=yelp_api_v3&utm_medium=api_v3_business_search&utm_source=Wu9gfEkr1Iqmmu5UKQvcJw
saigon-bay-sacramento,['vietnamese'],['Vietnamese'],38.5086191163168,-121.435067372626,(916) 594-9395,52676.80836771855,Ma_nFEM4MQ7koFI5cB_eZw,https://s3-media1.fl.yelpcdn.com/bphoto/KMPh5bF6CdW6alfYXKX-Pw/o.jpg,6458 Stockton Blvd,,,Sacramento,US,CA,95823,Saigon Bay,+19165949395,$,3.0,219,[],https://www.yelp.com/biz/saigon-bay-sacramento?adjust_creative=Wu9gfEkr1Iqmmu5UKQvcJw&utm_campaign=yelp_api_v3&utm_medium=api_v3_business_search&utm_source=Wu9gfEkr1Iqmmu5UKQvcJw
oriental-market-roseville,"['grocery', 'filipino', 'importedfood']","['Grocery', 'Filipino', 'Imported Food']",38.74842,-121.27099,(916) 771-8488,27262.543605978164,sxdtDCBs8LTdW_hQZViX5Q,https://s3-media1.fl.yelpcdn.com/bphoto/rkLY8zQgM0exuUYEJSaHJg/o.jpg,203 Harding Blvd,,,Roseville,US,CA,95678,Oriental Market,+19167718488,$,4.0,135,[],https://www.yelp.com/biz/oriental-market-roseville?adjust_creative=Wu9gfEkr1Iqmmu5UKQvcJw&utm_campaign=yelp_api_v3&utm_medium=api_v3_business_search&utm_source=Wu9gfEkr1Iqmmu5UKQvcJw
shave-monster-rocklin,"['desserts', 'shavedice', 'bubbletea']","['Desserts', 'Shaved Ice', 'Bubble Tea']",38.7968438,-121.2915639,(916) 872-1788,21526.794032996546,EAfNPR_TervKeBZzVEG3xA,https://s3-media3.fl.yelpcdn.com/bphoto/QICqFimKtTCDvsIAuZ_efQ/o.jpg,6827 Lonetree Blvd,Ste D-106,,Rocklin,US,CA,95765,Shave Monster,+19168721788,$,4.0,268,[],https://www.yelp.com/biz/shave-monster-rocklin?adjust_creative=Wu9gfEkr1Iqmmu5UKQvcJw&utm_campaign=yelp_api_v3&utm_medium=api_v3_business_search&utm_source=Wu9gfEkr1Iqmmu5UKQvcJw
hoa-viet-noodles-and-grill-sacramento,"['vietnamese', 'noodles']","['Vietnamese', 'Noodles']",38.4584922790527,-121.416679382324,(916) 897-8848,58037.51533288677,MviYiZ0J4H_72O255SFcLA,https://s3-media3.fl.yelpcdn.com/bphoto/S3yTquXl8lomjinKd6yW-w/o.jpg,8251 Bruceville Rd,Ste 120,,Sacramento,US,CA,95823,Hoa Viet Noodles & Grill,+19168978848,$,3.0,136,[],https://www.yelp.com/biz/hoa-viet-noodles-and-grill-sacramento?adjust_creative=Wu9gfEkr1Iqmmu5UKQvcJw&utm_campaign=yelp_api_v3&utm_medium=api_v3_business_search&utm_source=Wu9gfEkr1Iqmmu5UKQvcJw
fats-asia-bistro-roseville,"['chinese', 'asianfusion', 'seafood']","['Chinese', 'Asian Fusion', 'Seafood']",38.75111,-121.2514,(916) 787-3287,27594.33501135831,RurTkx3JSCWSaNHI3up2Vg,https://s3-media1.fl.yelpcdn.com/bphoto/Mwd6JT1PhKllYKCMcgugZA/o.jpg,1500 Eureka Rd,,,Roseville,US,CA,95661,Fats Asia Bistro,+19167873287,$$,3.5,582,[],https://www.yelp.com/biz/fats-asia-bistro-roseville?adjust_creative=Wu9gfEkr1Iqmmu5UKQvcJw&utm_campaign=yelp_api_v3&utm_medium=api_v3_business_search&utm_source=Wu9gfEkr1Iqmmu5UKQvcJw
pho-bac-hoa-viet-sacramento-13,"['vietnamese', 'chinese', 'soup']","['Vietnamese', 'Chinese', 'Soup']",38.5069749,-121.4334303,(916) 399-1688,52783.63085517162,lCOQXACHzTXuCo7-bdz9oA,https://s3-media3.fl.yelpcdn.com/bphoto/jyr0yT8fJ6PrRh6gbCKnIw/o.jpg,6645 Stockton Blvd,Ste 300,,Sacramento,US,CA,95823,Pho Bac Hoa Viet,+19163991688,$,2.5,267,"['pickup', 'delivery']",https://www.yelp.com/biz/pho-bac-hoa-viet-sacramento-13?adjust_creative=Wu9gfEkr1Iqmmu5UKQvcJw&utm_campaign=yelp_api_v3&utm_medium=api_v3_business_search&utm_source=Wu9gfEkr1Iqmmu5UKQvcJw
thai-hut-sacramento,['thai'],['Thai'],38.659777,-121.328537,(916) 349-8844,35795.994965813275,4p3kbZvWE3cZRpZnz4GQIw,https://s3-media2.fl.yelpcdn.com/bphoto/YqaI1tmNI1OwaFA4x9Yb4A/o.jpg,5800 Madison Ave,Ste K,,Sacramento,US,CA,95841,Thai Hut,+19163498844,$$,4.0,435,[],https://www.yelp.com/biz/thai-hut-sacramento?adjust_creative=Wu9gfEkr1Iqmmu5UKQvcJw&utm_campaign=yelp_api_v3&utm_medium=api_v3_business_search&utm_source=Wu9gfEkr1Iqmmu5UKQvcJw
asian-kitchen-brooks,['asianfusion'],['Asian Fusion'],38.7353248596191,-122.140884399414,(530) 796-3118,71781.94698084012,GLxxQvJoUjvWSkEUpUfVlg,https://s3-media1.fl.yelpcdn.com/bphoto/8yp2eGkzSfgqAqgS67gr5A/o.jpg,14455 Hwy 16,,,Brooks,US,CA,95606,Asian Kitchen,+15307963118,$,3.0,23,[],https://www.yelp.com/biz/asian-kitchen-brooks?adjust_creative=Wu9gfEkr1Iqmmu5UKQvcJw&utm_campaign=yelp_api_v3&utm_medium=api_v3_business_search&utm_source=Wu9gfEkr1Iqmmu5UKQvcJw
vegan-plate-roseville,"['vegan', 'vegetarian']","['Vegan', 'Vegetarian']",38.74517,-121.25972,(916) 953-7033,27939.499284937618,3a0xPPKg4gvHcE4Mqw-IBg,https://s3-media4.fl.yelpcdn.com/bphoto/-Sy5j1EJCtRkCMjQVQ-Q4A/o.jpg,1821 Douglas Blvd,Ste C-5,,Roseville,US,CA,95661,Vegan Plate,+19169537033,$$,4.5,122,[],https://www.yelp.com/biz/vegan-plate-roseville?adjust_creative=Wu9gfEkr1Iqmmu5UKQvcJw&utm_campaign=yelp_api_v3&utm_medium=api_v3_business_search&utm_source=Wu9gfEkr1Iqmmu5UKQvcJw
pho-kim-anh-elk-grove-3,['vietnamese'],['Vietnamese'],38.4094534,-121.3871237,(916) 647-3085,63334.36641492387,vfg6n1YLMaeyZ8eye5lycw,https://s3-media2.fl.yelpcdn.com/bphoto/mWZHVNVUTX-r2w55mYycwA/o.jpg,8527 Elk Grove Blvd,,,Elk Grove,US,CA,95624,Pho Kim Anh,+19166473085,$,3.0,108,[],https://www.yelp.com/biz/pho-kim-anh-elk-grove-3?adjust_creative=Wu9gfEkr1Iqmmu5UKQvcJw&utm_campaign=yelp_api_v3&utm_medium=api_v3_business_search&utm_source=Wu9gfEkr1Iqmmu5UKQvcJw
asian-n-cajun-sacramento-4,"['cajun', 'asianfusion']","['Cajun/Creole', 'Asian Fusion']",38.6492271,-121.5097351,(916) 514-9028,38523.48263937679,UmZau4sNlfSikDOY0TF7bQ,https://s3-media1.fl.yelpcdn.com/bphoto/CGOblMqGRnyTqJcAoCFoaw/o.jpg,4271 Truxel Rd,Ste B1,,Sacramento,US,CA,95834,Asian N' Cajun,+19165149028,$$,3.5,272,"['pickup', 'delivery']",https://www.yelp.com/biz/asian-n-cajun-sacramento-4?adjust_creative=Wu9gfEkr1Iqmmu5UKQvcJw&utm_campaign=yelp_api_v3&utm_medium=api_v3_business_search&utm_source=Wu9gfEkr1Iqmmu5UKQvcJw
tasty-thai-sacramento-2,['thai'],['Thai'],38.5994995276808,-121.402169915344,(916) 977-3534,42321.015867552334,wN4GGej4g8Xxkq2MBVQYKg,https://s3-media2.fl.yelpcdn.com/bphoto/JcZLbzhLpi-gGnvEOly0Mg/o.jpg,2598 Alta Arden Expy,,,Sacramento,US,CA,95825,Tasty Thai,+19169773534,$,4.5,440,[],https://www.yelp.com/biz/tasty-thai-sacramento-2?adjust_creative=Wu9gfEkr1Iqmmu5UKQvcJw&utm_campaign=yelp_api_v3&utm_medium=api_v3_business_search&utm_source=Wu9gfEkr1Iqmmu5UKQvcJw
bonchon-arden-sacramento-3,"['chickenshop', 'asianfusion', 'korean']","['Chicken Shop', 'Asian Fusion', 'Korean']",38.5938,-121.41965,(916) 333-2383,43060.191707624326,3zaZCG8WTPMP2iVxBImqyQ,https://s3-media3.fl.yelpcdn.com/bphoto/0y2azDEo4Km5YYJW6VtMzg/o.jpg,1600 Ethan Way,Ste 40,,Sacramento,US,CA,95825,Bonchon - Arden,+19163332383,,3.5,70,['delivery'],https://www.yelp.com/biz/bonchon-arden-sacramento-3?adjust_creative=Wu9gfEkr1Iqmmu5UKQvcJw&utm_campaign=yelp_api_v3&utm_medium=api_v3_business_search&utm_source=Wu9gfEkr1Iqmmu5UKQvcJw
32-degrees-ice-shavery-and-teas-rocklin-2,"['shavedice', 'bubbletea', 'coffee']","['Shaved Ice', 'Bubble Tea', 'Coffee & Tea']",38.80472,-121.27453,(916) 899-6688,21324.989342710054,ZOXtHSYhQQtlTdfc1Y1psA,https://s3-media3.fl.yelpcdn.com/bphoto/OVhCMRfLgGTpOW50q4OpUw/o.jpg,2164 Sunset Blvd,Ste 206,,Rocklin,US,CA,95765,32 Degrees Ice Shavery and Teas,+19168996688,$,4.0,161,[],https://www.yelp.com/biz/32-degrees-ice-shavery-and-teas-rocklin-2?adjust_creative=Wu9gfEkr1Iqmmu5UKQvcJw&utm_campaign=yelp_api_v3&utm_medium=api_v3_business_search&utm_source=Wu9gfEkr1Iqmmu5UKQvcJw
noble-vegetarian-sacramento-3,"['vegetarian', 'asianfusion', 'vegan']","['Vegetarian', 'Asian Fusion', 'Vegan']",38.6582738275486,-121.350944944138,(916) 334-6060,35791.61744366614,-Lf7jN9IpPAg531nmwbCwQ,https://s3-media1.fl.yelpcdn.com/bphoto/-f3DAtghAQ-5H01IYJIPJA/o.jpg,5049 College Oak Dr,Ste A,,Sacramento,US,CA,95841,Noble Vegetarian,+19163346060,$,4.5,576,[],https://www.yelp.com/biz/noble-vegetarian-sacramento-3?adjust_creative=Wu9gfEkr1Iqmmu5UKQvcJw&utm_campaign=yelp_api_v3&utm_medium=api_v3_business_search&utm_source=Wu9gfEkr1Iqmmu5UKQvcJw
sea-hut-elk-grove-6,"['sandwiches', 'cambodian', 'thai']","['Sandwiches', 'Cambodian', 'Thai']",38.40689,-121.37115,(916) 896-1858,63674.162113655424,drvyGqprJLLsZpNoWkoWEQ,https://s3-media2.fl.yelpcdn.com/bphoto/3BfwfkmkKAx9wZGZXPSvEg/o.jpg,9655 Elk Grove Florin Rd,Ste 3,,Elk Grove,US,CA,95624,SEA Hut,+19168961858,$,4.5,142,[],https://www.yelp.com/biz/sea-hut-elk-grove-6?adjust_creative=Wu9gfEkr1Iqmmu5UKQvcJw&utm_campaign=yelp_api_v3&utm_medium=api_v3_business_search&utm_source=Wu9gfEkr1Iqmmu5UKQvcJw
takieng-thai-cuisine-fair-oaks,"['thai', 'noodles']","['Thai', 'Noodles']",38.64383,-121.29111,(916) 966-0660,38049.01601411436,SseIPflI32jqiz1LwlhAIw,https://s3-media1.fl.yelpcdn.com/bphoto/Ux8zwd6IYgW5t9OVR1JTGQ/o.jpg,4400 San Juan Ave,,,Fair Oaks,US,CA,95628,Takieng Thai Cuisine,+19169660660,$$,4.0,268,[],https://www.yelp.com/biz/takieng-thai-cuisine-fair-oaks?adjust_creative=Wu9gfEkr1Iqmmu5UKQvcJw&utm_campaign=yelp_api_v3&utm_medium=api_v3_business_search&utm_source=Wu9gfEkr1Iqmmu5UKQvcJw
golden-dragon-restaurant-woodland,['chinese'],['Chinese'],38.6775246,-121.8007584,(530) 666-2828,49834.102265891706,vBVGgtpclNBYmHxil0QRgw,https://s3-media2.fl.yelpcdn.com/bphoto/aLWQKuMEwzX9LzUs5oJLVg/o.jpg,353 W Main St,Ste G,,Woodland,US,CA,95695,Golden Dragon Restaurant,+15306662828,$,3.5,128,[],https://www.yelp.com/biz/golden-dragon-restaurant-woodland?adjust_creative=Wu9gfEkr1Iqmmu5UKQvcJw&utm_campaign=yelp_api_v3&utm_medium=api_v3_business_search&utm_source=Wu9gfEkr1Iqmmu5UKQvcJw
thai-nakorn-davis,"['thai', 'salad', 'soup']","['Thai', 'Salad', 'Soup']",38.54669,-121.73938,(530) 758-7775,57514.9364403763,HCCy4dLNRL9_YvXlRTLwiw,https://s3-media4.fl.yelpcdn.com/bphoto/T8IhGgR333fTFyr5l6IyDA/o.jpg,424 G St,,,Davis,US,CA,95616,Thai Nakorn,+15307587775,$$,4.0,450,[],https://www.yelp.com/biz/thai-nakorn-davis?adjust_creative=Wu9gfEkr1Iqmmu5UKQvcJw&utm_campaign=yelp_api_v3&utm_medium=api_v3_business_search&utm_source=Wu9gfEkr1Iqmmu5UKQvcJw
saigon-bay-express-sacramento,['vietnamese'],['Vietnamese'],38.5601836575765,-121.424670881974,(916) 278-6490,46822.12221653654,m3yjVPfrxIC6dZPzLkIhvg,https://s3-media4.fl.yelpcdn.com/bphoto/OjVA1zPR2JlH2FRpksVyIQ/o.jpg,6000 J St,,,Sacramento,US,CA,95819,Saigon Bay Express,+19162786490,$,3.0,60,[],https://www.yelp.com/biz/saigon-bay-express-sacramento?adjust_creative=Wu9gfEkr1Iqmmu5UKQvcJw&utm_campaign=yelp_api_v3&utm_medium=api_v3_business_search&utm_source=Wu9gfEkr1Iqmmu5UKQvcJw
noodle-or-rice-vacaville,"['noodles', 'dimsum', 'bubbletea']","['Noodles', 'Dim Sum', 'Bubble Tea']",38.378135,-121.9431052,(707) 451-7966,83034.87878497173,IgiUH2NQyDn0hii0YGOfjg,https://s3-media1.fl.yelpcdn.com/bphoto/iMroGqD4a6zkCar2Pp5ZzQ/o.jpg,630 Orange Dr,Ste F,,Vacaville,US,CA,95687,Noodle Or Rice,+17074517966,$$,3.0,142,"['pickup', 'delivery']",https://www.yelp.com/biz/noodle-or-rice-vacaville?adjust_creative=Wu9gfEkr1Iqmmu5UKQvcJw&utm_campaign=yelp_api_v3&utm_medium=api_v3_business_search&utm_source=Wu9gfEkr1Iqmmu5UKQvcJw
la-bou-rocklin-rocklin,"['bakeries', 'sandwiches']","['Bakeries', 'Sandwiches']",38.7800598144531,-121.263511657715,(916) 315-0351,24216.8884598416,eB_q2H4A0PG2nOdgmWYrLw,https://s3-media2.fl.yelpcdn.com/bphoto/Tz0ze8dj2YMjOz2Gp2hzyQ/o.jpg,6801 Five Star Blvd,,,Rocklin,US,CA,95677,La Bou Rocklin,+19163150351,$,3.5,53,[],https://www.yelp.com/biz/la-bou-rocklin-rocklin?adjust_creative=Wu9gfEkr1Iqmmu5UKQvcJw&utm_campaign=yelp_api_v3&utm_medium=api_v3_business_search&utm_source=Wu9gfEkr1Iqmmu5UKQvcJw
pho-anh-dao-sacramento,['vietnamese'],['Vietnamese'],38.5025789599275,-121.433430429257,,53270.29788109416,-nxfn-O1JNSlS60brfwC8w,https://s3-media3.fl.yelpcdn.com/bphoto/BujEYUuhA818BWK056-pCA/o.jpg,6830 Stockton Blvd,Ste 165,,Sacramento,US,CA,95823,Pho Anh Dao,,$,3.0,324,[],https://www.yelp.com/biz/pho-anh-dao-sacramento?adjust_creative=Wu9gfEkr1Iqmmu5UKQvcJw&utm_campaign=yelp_api_v3&utm_medium=api_v3_business_search&utm_source=Wu9gfEkr1Iqmmu5UKQvcJw
pearl-asian-cuisine-placerville-2,['chinese'],['Chinese'],38.695497327732,-120.909039415419,(888) 573-3495,51323.59774949687,njCSTn1u-o3mzAeQkZ2dsg,https://s3-media1.fl.yelpcdn.com/bphoto/-8aemeqS15FWm0iRI7nmVQ/o.jpg,1 Red Hawk Pkwy,,Red Hawk Casino,Placerville,US,CA,95667,Pearl Asian Cuisine,+18885733495,$$,3.0,68,[],https://www.yelp.com/biz/pearl-asian-cuisine-placerville-2?adjust_creative=Wu9gfEkr1Iqmmu5UKQvcJw&utm_campaign=yelp_api_v3&utm_medium=api_v3_business_search&utm_source=Wu9gfEkr1Iqmmu5UKQvcJw
good-friends-restaurant-sacramento,"['chinese', 'japanese', 'sushi']","['Chinese', 'Japanese', 'Sushi Bars']",38.613,-121.51648,(916) 568-5100,42526.71202596098,O8Ysf7RBpIX_uECkuaMWwQ,https://s3-media4.fl.yelpcdn.com/bphoto/3TJQgZh0oVDudwa5kxEeYg/o.jpg,2600 Gateway Oaks Dr,,,Sacramento,US,CA,95833,Good Friends Restaurant,+19165685100,$,4.0,488,"['pickup', 'delivery']",https://www.yelp.com/biz/good-friends-restaurant-sacramento?adjust_creative=Wu9gfEkr1Iqmmu5UKQvcJw&utm_campaign=yelp_api_v3&utm_medium=api_v3_business_search&utm_source=Wu9gfEkr1Iqmmu5UKQvcJw
ramen-house-ryujin-sacramento,"['ramen', 'noodles']","['Ramen', 'Noodles']",38.5674,-121.4857,(916) 341-0488,46804.134583717874,eFhpQCpS_iCdZ749f31-zA,https://s3-media4.fl.yelpcdn.com/bphoto/pGMZOZ5IwSZ0EF9KmuXx-Q/o.jpg,1831 S St,,,Sacramento,US,CA,95811,Ramen House Ryujin,+19163410488,$,4.5,2600,[],https://www.yelp.com/biz/ramen-house-ryujin-sacramento?adjust_creative=Wu9gfEkr1Iqmmu5UKQvcJw&utm_campaign=yelp_api_v3&utm_medium=api_v3_business_search&utm_source=Wu9gfEkr1Iqmmu5UKQvcJw
pattaya-cafe-thai-cuisine-north-highlands,"['thai', 'noodles']","['Thai', 'Noodles']",38.667301,-121.382438,(916) 348-6556,34713.826110672184,Ajygikw-2N83-GbevkzUyQ,https://s3-media1.fl.yelpcdn.com/bphoto/2-jcQuSDPfWHnB_KE9Vu_Q/o.jpg,5514 Watt Ave,,,North Highlands,US,CA,95660,Pattaya Cafe Thai Cuisine,+19163486556,$,4.0,227,[],https://www.yelp.com/biz/pattaya-cafe-thai-cuisine-north-highlands?adjust_creative=Wu9gfEkr1Iqmmu5UKQvcJw&utm_campaign=yelp_api_v3&utm_medium=api_v3_business_search&utm_source=Wu9gfEkr1Iqmmu5UKQvcJw
bangkok-garden-sacramento-4,"['thai', 'seafood', 'vegetarian']","['Thai', 'Seafood', 'Vegetarian']",38.6476376937184,-121.510799017197,(916) 263-9600,38709.24749608336,ppMpQvQr4a4LdkGLm1DCdw,https://s3-media3.fl.yelpcdn.com/bphoto/91hlPi01aC7q4TWj9quokw/o.jpg,2069 Arena Blvd,Ste 170,,Sacramento,US,CA,95834,Bangkok Garden,+19162639600,$$,4.0,405,[],https://www.yelp.com/biz/bangkok-garden-sacramento-4?adjust_creative=Wu9gfEkr1Iqmmu5UKQvcJw&utm_campaign=yelp_api_v3&utm_medium=api_v3_business_search&utm_source=Wu9gfEkr1Iqmmu5UKQvcJw
ruen-thai-restaurant-roseville-2,['thai'],['Thai'],38.7517,-121.25257,(916) 774-1499,27467.634496362483,97hBLICTok4l8xkQHvEkhw,https://s3-media4.fl.yelpcdn.com/bphoto/_Pf03Aoi523y2S9C5HmRcw/o.jpg,1470 Eureka Rd,Ste 110,,Roseville,US,CA,95661,Ruen Thai Restaurant,+19167741499,$$,4.0,472,[],https://www.yelp.com/biz/ruen-thai-restaurant-roseville-2?adjust_creative=Wu9gfEkr1Iqmmu5UKQvcJw&utm_campaign=yelp_api_v3&utm_medium=api_v3_business_search&utm_source=Wu9gfEkr1Iqmmu5UKQvcJw
hao-bao-dumpling-house-sacramento,"['chinese', 'noodles', 'soup']","['Chinese', 'Noodles', 'Soup']",38.502882,-121.431067,(916) 661-6581,53217.992672105065,n7zObslVoBsLEgfiIo3SdA,https://s3-media2.fl.yelpcdn.com/bphoto/fyirLmlGPkmzm01ZLXBg-g/o.jpg,6821 Stockton Blvd,Ste 100,,Sacramento,US,CA,95823,Hao Bao Dumpling House,+19166616581,$,4.5,163,[],https://www.yelp.com/biz/hao-bao-dumpling-house-sacramento?adjust_creative=Wu9gfEkr1Iqmmu5UKQvcJw&utm_campaign=yelp_api_v3&utm_medium=api_v3_business_search&utm_source=Wu9gfEkr1Iqmmu5UKQvcJw
yummy-choice-sacramento,"['chinese', 'vietnamese']","['Chinese', 'Vietnamese']",38.57348,-121.49623,(916) 341-0298,46337.84972682507,qg2k9ZPQ69ZJkemFkB4gHA,https://s3-media1.fl.yelpcdn.com/bphoto/GBdxuynON_GjI5-eMLaKgg/o.jpg,1601 10th St,,,Sacramento,US,CA,95814,Yummy Choice,+19163410298,$,3.0,62,[],https://www.yelp.com/biz/yummy-choice-sacramento?adjust_creative=Wu9gfEkr1Iqmmu5UKQvcJw&utm_campaign=yelp_api_v3&utm_medium=api_v3_business_search&utm_source=Wu9gfEkr1Iqmmu5UKQvcJw
hings-chinese-cuisine-west-sacramento,['chinese'],['Chinese'],38.5784500230554,-121.549731545251,(916) 371-3322,47072.438060564586,SKB4EaTgHNyNQs7WC6VUhg,https://s3-media2.fl.yelpcdn.com/bphoto/LX3V5oDwZXIJnxib58cZwA/o.jpg,2933 W Capitol Ave,,,West Sacramento,US,CA,95605,Hings Chinese Cuisine,+19163713322,$,3.5,131,[],https://www.yelp.com/biz/hings-chinese-cuisine-west-sacramento?adjust_creative=Wu9gfEkr1Iqmmu5UKQvcJw&utm_campaign=yelp_api_v3&utm_medium=api_v3_business_search&utm_source=Wu9gfEkr1Iqmmu5UKQvcJw
bangkok-thai-sacramento,"['thai', 'salad', 'seafood']","['Thai', 'Salad', 'Seafood']",38.5020560016651,-121.429859027266,(916) 393-9445,53300.20551573089,4Owx2k0Q4XkQyNEvftdHSA,https://s3-media2.fl.yelpcdn.com/bphoto/Fyr3Qa43hmERd5Yc2bxALw/o.jpg,6840 65th St,Ste 130,,Sacramento,US,CA,95828,Bangkok Thai,+19163939445,$,4.0,71,[],https://www.yelp.com/biz/bangkok-thai-sacramento?adjust_creative=Wu9gfEkr1Iqmmu5UKQvcJw&utm_campaign=yelp_api_v3&utm_medium=api_v3_business_search&utm_source=Wu9gfEkr1Iqmmu5UKQvcJw
kung-fu-fats-asia-cafe-and-noodle-house-brooks,"['chinese', 'noodles']","['Chinese', 'Noodles']",38.73462,-122.14042,(888) 772-2243,71781.94698084012,hnAbkQWQ0KMovcKtbBKBkw,https://s3-media4.fl.yelpcdn.com/bphoto/EU3Wuhzo87BHmfDPBnt1lA/o.jpg,14455 Hwy 16,,,Brooks,US,CA,95606,Kung Fu Fat's Asia Cafe and Noodle House,+18887722243,$$,3.5,12,[],https://www.yelp.com/biz/kung-fu-fats-asia-cafe-and-noodle-house-brooks?adjust_creative=Wu9gfEkr1Iqmmu5UKQvcJw&utm_campaign=yelp_api_v3&utm_medium=api_v3_business_search&utm_source=Wu9gfEkr1Iqmmu5UKQvcJw
china-villa-rocklin,['chinese'],['Chinese'],38.798007,-121.291094,(916) 782-8868,21486.35670378037,McDN9Bzo2NkG6XPmqz43Vw,https://s3-media1.fl.yelpcdn.com/bphoto/hNnRJjQvhcXO1jEKsZGkag/o.jpg,6819 Lonetree Blvd,Ste B101,,Rocklin,US,CA,95765,China Villa,+19167828868,$$,3.5,298,[],https://www.yelp.com/biz/china-villa-rocklin?adjust_creative=Wu9gfEkr1Iqmmu5UKQvcJw&utm_campaign=yelp_api_v3&utm_medium=api_v3_business_search&utm_source=Wu9gfEkr1Iqmmu5UKQvcJw
chang-shou-brooks,['chinese'],['Chinese'],38.73462,-122.14042,(530) 796-3118,71717.06177414506,TerLx55H-WaHVxVj1kr6_Q,https://s3-media3.fl.yelpcdn.com/bphoto/it-gVgrcYTuNIYBOj0ovZA/o.jpg,Cache Creek Casino & Resort,,14455 Hwy 16,Brooks,US,CA,95606,Chang Shou,+15307963118,$$,3.5,57,[],https://www.yelp.com/biz/chang-shou-brooks?adjust_creative=Wu9gfEkr1Iqmmu5UKQvcJw&utm_campaign=yelp_api_v3&utm_medium=api_v3_business_search&utm_source=Wu9gfEkr1Iqmmu5UKQvcJw
the-spot-sacramento-2,"['bars', 'laotian', 'thai']","['Bars', 'Laotian', 'Thai']",38.5169736793454,-121.440352782464,(916) 382-4247,51738.04729420307,Av-Cl3lmI_QUjrsAEya8-A,https://s3-media1.fl.yelpcdn.com/bphoto/hp3T_3spQ5SkLZ2cGp8huQ/o.jpg,6048 Stockton Blvd,Ste 170,,Sacramento,US,CA,95824,The Spot,+19163824247,$,3.5,432,[],https://www.yelp.com/biz/the-spot-sacramento-2?adjust_creative=Wu9gfEkr1Iqmmu5UKQvcJw&utm_campaign=yelp_api_v3&utm_medium=api_v3_business_search&utm_source=Wu9gfEkr1Iqmmu5UKQvcJw
auburn-thai-garden-restaurant-auburn-3,"['thai', 'vegetarian']","['Thai', 'Vegetarian']",38.9084029,-121.077231,(530) 887-8696,27030.53970100874,ls7-7PYpUcCmxECYj6h6fw,https://s3-media2.fl.yelpcdn.com/bphoto/9uGSg4NHO-woQeX7m0aAGA/o.jpg,175 Palm Ave,,,Auburn,US,CA,95603,Auburn Thai Garden Restaurant,+15308878696,$$,4.0,350,[],https://www.yelp.com/biz/auburn-thai-garden-restaurant-auburn-3?adjust_creative=Wu9gfEkr1Iqmmu5UKQvcJw&utm_campaign=yelp_api_v3&utm_medium=api_v3_business_search&utm_source=Wu9gfEkr1Iqmmu5UKQvcJw
mendocino-farms-sacramento-2,"['salad', 'sandwiches']","['Salad', 'Sandwiches']",38.5688384,-121.4885517,(916) 368-5400,46698.89661916188,p-fml7Ev1Akl07JHZo17tQ,https://s3-media3.fl.yelpcdn.com/bphoto/UzKviBs-6oKTY44S9hLn_w/o.jpg,1610 R St,Ste 125,,Sacramento,US,CA,95811,Mendocino Farms,+19163685400,$$,4.5,202,[],https://www.yelp.com/biz/mendocino-farms-sacramento-2?adjust_creative=Wu9gfEkr1Iqmmu5UKQvcJw&utm_campaign=yelp_api_v3&utm_medium=api_v3_business_search&utm_source=Wu9gfEkr1Iqmmu5UKQvcJw
thai-basil-roseville,['thai'],['Thai'],38.745234583034,-121.26533738165,(916) 782-8424,27764.327304712624,ZYMckS3W_c-7XXvMh3086w,https://s3-media1.fl.yelpcdn.com/bphoto/qU3_U3nQRofu-3K2fujL0g/o.jpg,1613 Douglas Blvd,,,Roseville,US,CA,95661,Thai Basil,+19167828424,$$,4.0,249,[],https://www.yelp.com/biz/thai-basil-roseville?adjust_creative=Wu9gfEkr1Iqmmu5UKQvcJw&utm_campaign=yelp_api_v3&utm_medium=api_v3_business_search&utm_source=Wu9gfEkr1Iqmmu5UKQvcJw
grand-central-station-west-sacramento,"['cheesesteaks', 'asianfusion', 'chicken_wings']","['Cheesesteaks', 'Asian Fusion', 'Chicken Wings']",38.57256,-121.54954,(916) 375-1047,47639.0779547245,PSXE24FtwjFA7K2cKUi0QA,https://s3-media4.fl.yelpcdn.com/bphoto/wxLMVqeJ18Yue4-O-YkPOA/o.jpg,1250 Harbor Blvd,Ste 200,,West Sacramento,US,CA,95691,Grand Central Station,+19163751047,$,4.0,131,['pickup'],https://www.yelp.com/biz/grand-central-station-west-sacramento?adjust_creative=Wu9gfEkr1Iqmmu5UKQvcJw&utm_campaign=yelp_api_v3&utm_medium=api_v3_business_search&utm_source=Wu9gfEkr1Iqmmu5UKQvcJw
royal-thai-auburn,"['thai', 'vegan', 'gluten_free']","['Thai', 'Vegan', 'Gluten-Free']",38.8996237,-121.0692855,(530) 888-8086,27978.045610185825,FjKvaRTC5uS8E4P7GJiG0w,https://s3-media1.fl.yelpcdn.com/bphoto/6dqQfGll0QEwKRfmariAuw/o.jpg,891 Lincoln Way,,,Auburn,US,CA,95603,Royal Thai,+15308888086,$$,4.0,154,[],https://www.yelp.com/biz/royal-thai-auburn?adjust_creative=Wu9gfEkr1Iqmmu5UKQvcJw&utm_campaign=yelp_api_v3&utm_medium=api_v3_business_search&utm_source=Wu9gfEkr1Iqmmu5UKQvcJw
noodles-to-thai-for-sacramento,"['thai', 'noodles', 'soup']","['Thai', 'Noodles', 'Soup']",38.55543,-121.482909,(916) 329-8352,48047.16185377434,nF4Y9u0ARULiD6RMDgtJRw,https://s3-media2.fl.yelpcdn.com/bphoto/8tgSytGTA9rZDzX-oDh5fQ/o.jpg,2675 24th St,,,Sacramento,US,CA,95818,Noodles To Thai For,+19163298352,$,4.5,178,[],https://www.yelp.com/biz/noodles-to-thai-for-sacramento?adjust_creative=Wu9gfEkr1Iqmmu5UKQvcJw&utm_campaign=yelp_api_v3&utm_medium=api_v3_business_search&utm_source=Wu9gfEkr1Iqmmu5UKQvcJw
fats-asia-bistro-folsom,"['chinese', 'asianfusion', 'seafood']","['Chinese', 'Asian Fusion', 'Seafood']",38.6476835364545,-121.115710245942,(916) 983-1133,43252.46039167484,IW0NqjhOEIPPeAEL3X7S4w,https://s3-media1.fl.yelpcdn.com/bphoto/oLEpb0rFwHlNtQ6RLL-ZvA/o.jpg,2585 Iron Point Rd,,,Folsom,US,CA,95630,Fats Asia Bistro,+19169831133,$$,3.0,629,[],https://www.yelp.com/biz/fats-asia-bistro-folsom?adjust_creative=Wu9gfEkr1Iqmmu5UKQvcJw&utm_campaign=yelp_api_v3&utm_medium=api_v3_business_search&utm_source=Wu9gfEkr1Iqmmu5UKQvcJw
green-jade-restaurant-carmichael-2,['cantonese'],['Cantonese'],38.6092694,-121.3551051,(916) 481-8780,41213.45405253109,zmxPZYWqLpD9aOQFqdkkkQ,https://s3-media2.fl.yelpcdn.com/bphoto/Txa0-H1g_6KygUb-FY78SA/o.jpg,2436 Mission Ave,,,Carmichael,US,CA,95608,Green Jade Restaurant,+19164818780,$,4.0,178,[],https://www.yelp.com/biz/green-jade-restaurant-carmichael-2?adjust_creative=Wu9gfEkr1Iqmmu5UKQvcJw&utm_campaign=yelp_api_v3&utm_medium=api_v3_business_search&utm_source=Wu9gfEkr1Iqmmu5UKQvcJw
chang-brothers-chinese-restaurant-auburn,['chinese'],['Chinese'],38.936215,-121.092682,(530) 885-9781,24975.013887591736,jmgnGUSs6iMRcbAz-Aw6dw,https://s3-media2.fl.yelpcdn.com/bphoto/zhrGnXW-q2j7quMIEQB4tA/o.jpg,2380 Grass Valley Hwy,,,Auburn,US,CA,95603,Chang Brothers Chinese Restaurant,+15308859781,$$,3.0,107,[],https://www.yelp.com/biz/chang-brothers-chinese-restaurant-auburn?adjust_creative=Wu9gfEkr1Iqmmu5UKQvcJw&utm_campaign=yelp_api_v3&utm_medium=api_v3_business_search&utm_source=Wu9gfEkr1Iqmmu5UKQvcJw
sunny-garden-restaurant-folsom,['chinese'],['Chinese'],38.6896918140172,-121.120502050696,(916) 983-8882,39102.332934517246,WVDO3eEpzDjgg3THAHfpNQ,https://s3-media3.fl.yelpcdn.com/bphoto/NU9ANhHXsTC4g4vspAnxSQ/o.jpg,25085 Blue Ravine Rd,Ste 150,,Folsom,US,CA,95630,Sunny Garden Restaurant,+19169838882,$,3.5,192,[],https://www.yelp.com/biz/sunny-garden-restaurant-folsom?adjust_creative=Wu9gfEkr1Iqmmu5UKQvcJw&utm_campaign=yelp_api_v3&utm_medium=api_v3_business_search&utm_source=Wu9gfEkr1Iqmmu5UKQvcJw
long-sandwich-sacramento-2,['sandwiches'],['Sandwiches'],38.5087203979492,-121.434509277344,(916) 428-9999,52543.43255036002,KYVPNJgRDeVIrEGSHwfpxg,https://s3-media1.fl.yelpcdn.com/bphoto/c1eGbChmYF_MUsEbMAdiaA/o.jpg,6451 Stockton Blvd,,,Sacramento,US,CA,95823,Long Sandwich,+19164289999,$,4.0,74,[],https://www.yelp.com/biz/long-sandwich-sacramento-2?adjust_creative=Wu9gfEkr1Iqmmu5UKQvcJw&utm_campaign=yelp_api_v3&utm_medium=api_v3_business_search&utm_source=Wu9gfEkr1Iqmmu5UKQvcJw
timmys-brown-bag-placerville,"['sandwiches', 'cafes', 'newamerican']","['Sandwiches', 'Cafes', 'American (New)']",38.7295722646022,-120.800592005253,(530) 303-3203,57062.10253635711,tuCM9bVWZLVZLJ7qE6QWMg,https://s3-media2.fl.yelpcdn.com/bphoto/twE4gysEYV3UtIzpgdmZlg/o.jpg,451 Main St,Ste 10,,Placerville,US,CA,95667,Timmy's Brown Bag,+15303033203,$$,5.0,234,[],https://www.yelp.com/biz/timmys-brown-bag-placerville?adjust_creative=Wu9gfEkr1Iqmmu5UKQvcJw&utm_campaign=yelp_api_v3&utm_medium=api_v3_business_search&utm_source=Wu9gfEkr1Iqmmu5UKQvcJw
asian-cafe-sacramento,"['thai', 'asianfusion', 'laotian']","['Thai', 'Asian Fusion', 'Laotian']",38.6193348652968,-121.456987552107,(916) 641-5890,40657.37213510256,M6Bv32ebKXxPIpYMM1uNfA,https://s3-media4.fl.yelpcdn.com/bphoto/XKCy5Yh3KHHe2JxkSQceWg/o.jpg,2827 Norwood Ave,,,Sacramento,US,CA,95815,Asian Cafe,+19166415890,$,4.0,193,[],https://www.yelp.com/biz/asian-cafe-sacramento?adjust_creative=Wu9gfEkr1Iqmmu5UKQvcJw&utm_campaign=yelp_api_v3&utm_medium=api_v3_business_search&utm_source=Wu9gfEkr1Iqmmu5UKQvcJw
quickly-folsom,"['desserts', 'bubbletea', 'hotdogs']","['Desserts', 'Bubble Tea', 'Fast Food']",38.6514458811464,-121.165602971307,(916) 353-1088,40788.45680182671,C8EilhkV_Yinn78Adnhlow,https://s3-media2.fl.yelpcdn.com/bphoto/AEbuB1ykgj7vt3LCifNAQQ/o.jpg,1760 Prairie City Rd,Ste 120,,Folsom,US,CA,95630,Quickly,+19163531088,$,3.0,107,[],https://www.yelp.com/biz/quickly-folsom?adjust_creative=Wu9gfEkr1Iqmmu5UKQvcJw&utm_campaign=yelp_api_v3&utm_medium=api_v3_business_search&utm_source=Wu9gfEkr1Iqmmu5UKQvcJw
sunny-lees-rancho-cordova-2,['chinese'],['Chinese'],38.594707,-121.287026,(916) 631-7282,43484.29258822556,eJNo8AdW37A54tIJNSN98w,https://s3-media1.fl.yelpcdn.com/bphoto/0iA7SgFta59jPxm3UaojvA/o.jpg,2855 Zinfandel Dr,,,Rancho Cordova,US,CA,95670,Sunny Lee's,+19166317282,$,3.0,103,[],https://www.yelp.com/biz/sunny-lees-rancho-cordova-2?adjust_creative=Wu9gfEkr1Iqmmu5UKQvcJw&utm_campaign=yelp_api_v3&utm_medium=api_v3_business_search&utm_source=Wu9gfEkr1Iqmmu5UKQvcJw
little-buddha-thai-bistro-sacramento-6,['thai'],['Thai'],38.6618229469713,-121.345127058861,(916) 696-7862,35432.305478842754,2S0lFswkbg2PpL6W1RUCWQ,https://s3-media3.fl.yelpcdn.com/bphoto/k3IwWZHP8tsxffZP7zxtrg/o.jpg,5120 Auburn Blvd,,,Sacramento,US,CA,95841,Little Buddha Thai Bistro,+19166967862,$$,4.5,85,"['delivery', 'pickup']",https://www.yelp.com/biz/little-buddha-thai-bistro-sacramento-6?adjust_creative=Wu9gfEkr1Iqmmu5UKQvcJw&utm_campaign=yelp_api_v3&utm_medium=api_v3_business_search&utm_source=Wu9gfEkr1Iqmmu5UKQvcJw
tk-noodle-sacramento,"['vietnamese', 'chinese', 'noodles']","['Vietnamese', 'Chinese', 'Noodles']",38.5012245178223,-121.433570861816,(916) 422-6000,53366.324004290196,SWdAXlS9VjTUZ0Bd9gmC7A,https://s3-media1.fl.yelpcdn.com/bphoto/BSuaMKsE1O7rVuU5pvRadA/o.jpg,6930 65th St,Ste 131,,Sacramento,US,CA,95823,TK Noodle,+19164226000,$,3.0,439,[],https://www.yelp.com/biz/tk-noodle-sacramento?adjust_creative=Wu9gfEkr1Iqmmu5UKQvcJw&utm_campaign=yelp_api_v3&utm_medium=api_v3_business_search&utm_source=Wu9gfEkr1Iqmmu5UKQvcJw
thai-spoon-sacramento,"['thai', 'vegetarian', 'desserts']","['Thai', 'Vegetarian', 'Desserts']",38.6392525372023,-121.503344736805,(916) 575-9010,39413.906616019216,ZWAr0Zft6FTaH2M61W1Xbg,https://s3-media1.fl.yelpcdn.com/bphoto/TfUILoSo-o-yHWTtl-PmKw/o.jpg,3890 Truxel Rd,Ste 600,,Sacramento,US,CA,95834,Thai Spoon,+19165759010,$$,4.0,565,[],https://www.yelp.com/biz/thai-spoon-sacramento?adjust_creative=Wu9gfEkr1Iqmmu5UKQvcJw&utm_campaign=yelp_api_v3&utm_medium=api_v3_business_search&utm_source=Wu9gfEkr1Iqmmu5UKQvcJw
sams-cafe-sacramento-2,['vietnamese'],['Vietnamese'],38.51287,-121.43623,(916) 399-8725,52112.575329716194,7V_S1P8oliQopn4z8wpzzw,https://s3-media2.fl.yelpcdn.com/bphoto/ygtj9WDPI_qy5ooE9hvbRA/o.jpg,6171 Stockton Blvd,,,Sacramento,US,CA,95824,Sam's Cafe,+19163998725,$,2.5,6,[],https://www.yelp.com/biz/sams-cafe-sacramento-2?adjust_creative=Wu9gfEkr1Iqmmu5UKQvcJw&utm_campaign=yelp_api_v3&utm_medium=api_v3_business_search&utm_source=Wu9gfEkr1Iqmmu5UKQvcJw
a-and-a-tasty-sacramento,"['vietnamese', 'chinese']","['Vietnamese', 'Chinese']",38.49644,-121.42624,(916) 379-0309,53879.792993380805,yOcS7uIskjnGgGPuVgZjvw,https://s3-media2.fl.yelpcdn.com/bphoto/fof3ZRSS0zXTe0W67CawWg/o.jpg,6601 Florin Rd,,,Sacramento,US,CA,95828,A&A Tasty,+19163790309,$,3.0,94,[],https://www.yelp.com/biz/a-and-a-tasty-sacramento?adjust_creative=Wu9gfEkr1Iqmmu5UKQvcJw&utm_campaign=yelp_api_v3&utm_medium=api_v3_business_search&utm_source=Wu9gfEkr1Iqmmu5UKQvcJw
crab-city-restaurant-and-desserts-sacramento,"['cajun', 'asianfusion', 'seafood']","['Cajun/Creole', 'Asian Fusion', 'Seafood']",38.47319,-121.41788,(916) 647-3172,56424.862464826234,TmQbTwvLZAEjYNabnVRY0w,https://s3-media2.fl.yelpcdn.com/bphoto/OiAMKuQBpx9irYimENt9tQ/o.jpg,7837 Stockton Blvd,Ste 500,,Sacramento,US,CA,95823,Crab City Restaurant & Desserts,+19166473172,$$,4.0,930,[],https://www.yelp.com/biz/crab-city-restaurant-and-desserts-sacramento?adjust_creative=Wu9gfEkr1Iqmmu5UKQvcJw&utm_campaign=yelp_api_v3&utm_medium=api_v3_business_search&utm_source=Wu9gfEkr1Iqmmu5UKQvcJw
yangs-noodles-sacramento,"['taiwanese', 'szechuan', 'noodles']","['Taiwanese', 'Szechuan', 'Noodles']",38.520403,-121.440699,(916) 392-9988,51362.21101240453,ozB_gP4NKVvK9zCTG169Gg,https://s3-media1.fl.yelpcdn.com/bphoto/j5wc28JlrDT4vdE_ahDQkw/o.jpg,5860 Stockton Blvd,,,Sacramento,US,CA,95824,Yang's Noodles,+19163929988,$,4.0,557,[],https://www.yelp.com/biz/yangs-noodles-sacramento?adjust_creative=Wu9gfEkr1Iqmmu5UKQvcJw&utm_campaign=yelp_api_v3&utm_medium=api_v3_business_search&utm_source=Wu9gfEkr1Iqmmu5UKQvcJw
p-f-changs-roseville-2,['chinese'],['Chinese'],38.7724857143132,-121.265123784542,(916) 788-2800,24949.00355748803,wjTuVw3A1pv1077bxqHleQ,https://s3-media1.fl.yelpcdn.com/bphoto/-Cduks53cv6hhRy1FC_4TQ/o.jpg,1180 Galleria Blvd,,,Roseville,US,CA,95678,P.F. Chang's,+19167882800,$$,3.0,490,"['delivery', 'pickup']",https://www.yelp.com/biz/p-f-changs-roseville-2?adjust_creative=Wu9gfEkr1Iqmmu5UKQvcJw&utm_campaign=yelp_api_v3&utm_medium=api_v3_business_search&utm_source=Wu9gfEkr1Iqmmu5UKQvcJw
la-bou-bakery-and-cafe-folsom-3,"['sandwiches', 'bakeries', 'cafes']","['Sandwiches', 'Bakeries', 'Cafes']",38.67033,-121.15392,(916) 983-3885,39430.036562326786,IJlSirL0cJp5rMCY1Bs2nA,https://s3-media4.fl.yelpcdn.com/bphoto/N3rh37u36GiM5elftBGrzQ/o.jpg,404 Blue Ravine Rd,Ste 600,,Folsom,US,CA,95630,La Bou Bakery and Cafe,+19169833885,$,3.5,80,['delivery'],https://www.yelp.com/biz/la-bou-bakery-and-cafe-folsom-3?adjust_creative=Wu9gfEkr1Iqmmu5UKQvcJw&utm_campaign=yelp_api_v3&utm_medium=api_v3_business_search&utm_source=Wu9gfEkr1Iqmmu5UKQvcJw
south-east-asian-bbq-sacramento,"['bbq', 'asianfusion', 'laotian']","['Barbeque', 'Asian Fusion', 'Laotian']",38.6168601,-121.4532936,(916) 922-3771,40872.983374814896,OXgCVKwg15M4OwplQQRhTA,https://s3-media1.fl.yelpcdn.com/bphoto/rO-Li3wtEcEbZ6z_Ds6Y_A/o.jpg,557 Eleanor Ave,,,Sacramento,US,CA,95815,South East Asian BBQ,+19169223771,$,4.0,102,[],https://www.yelp.com/biz/south-east-asian-bbq-sacramento?adjust_creative=Wu9gfEkr1Iqmmu5UKQvcJw&utm_campaign=yelp_api_v3&utm_medium=api_v3_business_search&utm_source=Wu9gfEkr1Iqmmu5UKQvcJw
boiling-avenue-sacramento,"['hotpot', 'taiwanese', 'asianfusion']","['Hot Pot', 'Taiwanese', 'Asian Fusion']",38.58373,-121.41586,(916) 923-9888,44166.565781989346,iZov_ct2_DkNh-GE_yqD8Q,https://s3-media2.fl.yelpcdn.com/bphoto/erwqDLrXBPDSwn7kKFosLw/o.jpg,943 Howe Ave,,,Sacramento,US,CA,95825,Boiling Avenue,+19169239888,$$,4.0,533,[],https://www.yelp.com/biz/boiling-avenue-sacramento?adjust_creative=Wu9gfEkr1Iqmmu5UKQvcJw&utm_campaign=yelp_api_v3&utm_medium=api_v3_business_search&utm_source=Wu9gfEkr1Iqmmu5UKQvcJw
teriyaki-station-atbp-folsom-3,"['filipino', 'bubbletea', 'asianfusion']","['Filipino', 'Bubble Tea', 'Asian Fusion']",38.6429443359375,-121.191589355469,(916) 608-4567,40700.769742527744,Sy_8py_MDLR0TrnjmqPHYQ,https://s3-media2.fl.yelpcdn.com/bphoto/PSPfPXJ5ZBhERcGUbpKzLg/o.jpg,141 Iron Point Rd,,,Folsom,US,CA,95630,Teriyaki Station Atbp,+19166084567,$$,4.0,192,[],https://www.yelp.com/biz/teriyaki-station-atbp-folsom-3?adjust_creative=Wu9gfEkr1Iqmmu5UKQvcJw&utm_campaign=yelp_api_v3&utm_medium=api_v3_business_search&utm_source=Wu9gfEkr1Iqmmu5UKQvcJw
taste-of-angkor-sacramento,['cambodian'],['Cambodian'],38.4727826753048,-121.448355102377,(916) 917-5630,56698.457724292224,sNl7c9hP4_iZbM86gw8QwA,https://s3-media2.fl.yelpcdn.com/bphoto/Cna3_kdPDy3bLyXPiKXMIw/o.jpg,4566 Mack Rd,,,Sacramento,US,CA,95823,Taste of Angkor,+19169175630,$$,4.0,392,['pickup'],https://www.yelp.com/biz/taste-of-angkor-sacramento?adjust_creative=Wu9gfEkr1Iqmmu5UKQvcJw&utm_campaign=yelp_api_v3&utm_medium=api_v3_business_search&utm_source=Wu9gfEkr1Iqmmu5UKQvcJw
noodles-and-company-folsom,"['salad', 'noodles', 'pastashops']","['Salad', 'Noodles', 'Pasta Shops']",38.6541834136747,-121.122203701778,(916) 983-7815,42341.968863626666,zcLS0QZ9L1qIYhOCbQ_Ikg,https://s3-media1.fl.yelpcdn.com/bphoto/bvzI8Mhm5WjjGVIEO68ycw/o.jpg,2770 E Bidwell St,,,Folsom,US,CA,95630,Noodles & Company,+19169837815,$,3.0,55,[],https://www.yelp.com/biz/noodles-and-company-folsom?adjust_creative=Wu9gfEkr1Iqmmu5UKQvcJw&utm_campaign=yelp_api_v3&utm_medium=api_v3_business_search&utm_source=Wu9gfEkr1Iqmmu5UKQvcJw
bangkok-12-thai-restaurant-sacramento,['thai'],['Thai'],38.5805951,-121.490542,(916) 443-5588,45455.09445273093,weLaEqPJQisC7KQOtYX7hQ,https://s3-media1.fl.yelpcdn.com/bphoto/pdIyYcS8ziclegVPeZRQWA/o.jpg,900 12th St,,,Sacramento,US,CA,95814,Bangkok @12 Thai Restaurant,+19164435588,$$,4.0,701,['pickup'],https://www.yelp.com/biz/bangkok-12-thai-restaurant-sacramento?adjust_creative=Wu9gfEkr1Iqmmu5UKQvcJw&utm_campaign=yelp_api_v3&utm_medium=api_v3_business_search&utm_source=Wu9gfEkr1Iqmmu5UKQvcJw
sf-hot-food-sacramento,"['vietnamese', 'chinese']","['Vietnamese', 'Chinese']",38.47262,-121.44891,(916) 399-1807,56738.49199979518,Jx4RHg4Edt5acT8oQsDsgA,https://s3-media2.fl.yelpcdn.com/bphoto/RuadzY29DrL9fqDvr6PXlw/o.jpg,4562 Mack Rd,,,Sacramento,US,CA,95823,SF Hot Food,+19163991807,$,3.0,26,[],https://www.yelp.com/biz/sf-hot-food-sacramento?adjust_creative=Wu9gfEkr1Iqmmu5UKQvcJw&utm_campaign=yelp_api_v3&utm_medium=api_v3_business_search&utm_source=Wu9gfEkr1Iqmmu5UKQvcJw
siam-restaurant-sacramento,['thai'],['Thai'],38.52854,-121.47292,(916) 452-8382,50851.28257682144,POvAGi2EsZ6F592BK5F6eg,https://s3-media1.fl.yelpcdn.com/bphoto/LMH34JpTdaNhQMmzzQJTBA/o.jpg,5100 Franklin Blvd,,,Sacramento,US,CA,95820,Siam Restaurant,+19164528382,$,4.0,331,[],https://www.yelp.com/biz/siam-restaurant-sacramento?adjust_creative=Wu9gfEkr1Iqmmu5UKQvcJw&utm_campaign=yelp_api_v3&utm_medium=api_v3_business_search&utm_source=Wu9gfEkr1Iqmmu5UKQvcJw
thai-canteen-davis,"['thai', 'salad', 'noodles']","['Thai', 'Salad', 'Noodles']",38.542374,-121.7410179,(530) 231-5465,57993.67999814901,1g8fx1DXNpf7RTBuzcd-lA,https://s3-media1.fl.yelpcdn.com/bphoto/1jQ4gfc1UMa039EpJpf71Q/o.jpg,117 E St,,,Davis,US,CA,95616,Thai Canteen,+15302315465,$$,3.5,901,[],https://www.yelp.com/biz/thai-canteen-davis?adjust_creative=Wu9gfEkr1Iqmmu5UKQvcJw&utm_campaign=yelp_api_v3&utm_medium=api_v3_business_search&utm_source=Wu9gfEkr1Iqmmu5UKQvcJw
davis-noodle-city-davis,"['taiwanese', 'chinese', 'noodles']","['Taiwanese', 'Chinese', 'Noodles']",38.54267,-121.74127,(530) 757-2618,57983.16211194062,gHlJcEZPBuEBHN88eDMd9g,https://s3-media3.fl.yelpcdn.com/bphoto/HBqEfmambmFpT8SZF5LJrA/o.jpg,129 E St D1,,,Davis,US,CA,95616,Davis Noodle City,+15307572618,$,3.5,463,[],https://www.yelp.com/biz/davis-noodle-city-davis?adjust_creative=Wu9gfEkr1Iqmmu5UKQvcJw&utm_campaign=yelp_api_v3&utm_medium=api_v3_business_search&utm_source=Wu9gfEkr1Iqmmu5UKQvcJw
sai-varee-sacramento,['thai'],['Thai'],38.4858095961709,-121.53378027495,(916) 422-7701,56580.42243034399,Ntz67iHOIQzUqMK0EIAP_Q,https://s3-media1.fl.yelpcdn.com/bphoto/7f2UM1GDTR65qsKPyFiaaw/o.jpg,7485 Rush River Dr,Ste 770,,Sacramento,US,CA,95831,Sai Varee,+19164227701,$$,4.0,288,[],https://www.yelp.com/biz/sai-varee-sacramento?adjust_creative=Wu9gfEkr1Iqmmu5UKQvcJw&utm_campaign=yelp_api_v3&utm_medium=api_v3_business_search&utm_source=Wu9gfEkr1Iqmmu5UKQvcJw
heat-shabu-baru-sacramento-2,"['japanese', 'hotpot', 'asianfusion']","['Japanese', 'Hot Pot', 'Asian Fusion']",38.5614166259766,-121.489898681641,(916) 930-9888,47536.243242844444,vY4xVEzF1CyDg-hWbVhoww,https://s3-media3.fl.yelpcdn.com/bphoto/QdFdj54EbCsBZN2OEJeXwg/o.jpg,2416 18th St,Ste E,,Sacramento,US,CA,95818,Heat Shabu Baru,+19169309888,$$,4.5,1026,[],https://www.yelp.com/biz/heat-shabu-baru-sacramento-2?adjust_creative=Wu9gfEkr1Iqmmu5UKQvcJw&utm_campaign=yelp_api_v3&utm_medium=api_v3_business_search&utm_source=Wu9gfEkr1Iqmmu5UKQvcJw
hea-tea-elk-grove-2,"['desserts', 'bubbletea', 'waffles']","['Desserts', 'Bubble Tea', 'Waffles']",38.4074,-121.47784,(916) 681-2556,64250.03246430639,3qjx-desv2aarePZ19m5KA,https://s3-media4.fl.yelpcdn.com/bphoto/CB1N-JF_ZeoDuChO6r0zvg/o.jpg,2619 W Taron Ct,Ste 150,,Elk Grove,US,CA,95757,Hea Tea,+19166812556,$,4.0,187,[],https://www.yelp.com/biz/hea-tea-elk-grove-2?adjust_creative=Wu9gfEkr1Iqmmu5UKQvcJw&utm_campaign=yelp_api_v3&utm_medium=api_v3_business_search&utm_source=Wu9gfEkr1Iqmmu5UKQvcJw
posh-bagel-folsom,"['bagels', 'sandwiches', 'bubbletea']","['Bagels', 'Sandwiches', 'Bubble Tea']",38.6901664733887,-121.122352600098,(916) 817-8800,38965.75992375333,lxmaqE4BUIZd1l6KWhmk5w,https://s3-media2.fl.yelpcdn.com/bphoto/kal19gpylED_M_TPyeulmw/o.jpg,25055 Blue Ravine Rd,Ste 110,,Folsom,US,CA,95630,Posh Bagel,+19168178800,$,4.0,133,[],https://www.yelp.com/biz/posh-bagel-folsom?adjust_creative=Wu9gfEkr1Iqmmu5UKQvcJw&utm_campaign=yelp_api_v3&utm_medium=api_v3_business_search&utm_source=Wu9gfEkr1Iqmmu5UKQvcJw
teriyaki-chicken-express-sacramento,"['japanese', 'chinese']","['Japanese', 'Chinese']",38.5468940734863,-121.361114501953,(916) 362-4951,48129.33510648371,_y3HOFzbs1QyBzgcVOb9Rw,https://s3-media2.fl.yelpcdn.com/bphoto/OuS1M_IQjWZ2VtNt2KmB-g/o.jpg,9110 Kiefer Blvd,,,Sacramento,US,CA,95826,Teriyaki Chicken Express,+19163624951,$,4.5,185,[],https://www.yelp.com/biz/teriyaki-chicken-express-sacramento?adjust_creative=Wu9gfEkr1Iqmmu5UKQvcJw&utm_campaign=yelp_api_v3&utm_medium=api_v3_business_search&utm_source=Wu9gfEkr1Iqmmu5UKQvcJw
sawasdee-thai-cuisine-sacramento,['thai'],['Thai'],38.576894,-121.481515,(916) 329-8678,45697.28030691604,T6RjG6q3Mpvls6Mt5ZqRHg,https://s3-media4.fl.yelpcdn.com/bphoto/3u8a6D5j7zi96UrJY_YiNA/o.jpg,1830 J St,,,Sacramento,US,CA,95811,Sawasdee Thai Cuisine,+19163298678,$$,4.5,1880,['delivery'],https://www.yelp.com/biz/sawasdee-thai-cuisine-sacramento?adjust_creative=Wu9gfEkr1Iqmmu5UKQvcJw&utm_campaign=yelp_api_v3&utm_medium=api_v3_business_search&utm_source=Wu9gfEkr1Iqmmu5UKQvcJw
vs-asian-bistro-sacramento,['chinese'],['Chinese'],38.55511,-121.33491,(916) 970-5689,47320.385151359565,A7BMZxP9KgVVbiyM28sBBg,https://s3-media3.fl.yelpcdn.com/bphoto/S-lihABlUfUG3qovSwEaFg/o.jpg,3643 Bradshaw Rd,,,Sacramento,US,CA,95827,V's asian bistro,+19169705689,$,4.0,65,[],https://www.yelp.com/biz/vs-asian-bistro-sacramento?adjust_creative=Wu9gfEkr1Iqmmu5UKQvcJw&utm_campaign=yelp_api_v3&utm_medium=api_v3_business_search&utm_source=Wu9gfEkr1Iqmmu5UKQvcJw
