alias,categories_alias,categories_title,coordinates_latitude,coordinates_longitude,display_phone,distance,id,image_url,location_address1,location_address2,location_address3,location_city,location_country,location_state,location_zip_code,name,phone,price,rating,review_count,transactions,url
pho-t-and-t-vietnamese-restaurant-highland-2,"['vietnamese', 'vegetarian']","['Vietnamese', 'Vegetarian']",34.1120407844389,-117.209560386837,(909) 864-4290,15998.776861708613,EFNutlf4EZbrvUaRMofCnA,https://s3-media1.fl.yelpcdn.com/bphoto/HjrgBvV7O-QnIxE9ib62pQ/o.jpg,7750 Palm Ave,Unit O,,Highland,US,CA,92346,Pho T & T Vietnamese Restaurant,+19098644290,$,4.0,321,[],https://www.yelp.com/biz/pho-t-and-t-vietnamese-restaurant-highland-2?adjust_creative=Wu9gfEkr1Iqmmu5UKQvcJw&utm_campaign=yelp_api_v3&utm_medium=api_v3_business_search&utm_source=Wu9gfEkr1Iqmmu5UKQvcJw
pho-ngon-vietnamese-restaurant-san-bernardino,['vietnamese'],['Vietnamese'],34.1339369115628,-117.241399232124,,12643.06367892433,SWYy-J-DW8xiBkr7MzDvkg,https://s3-media2.fl.yelpcdn.com/bphoto/2_WXXRYfeKqMRNrsQnBDFQ/o.jpg,2055 E Highland Ave,,,San Bernardino,US,CA,92404,Pho Ngon Vietnamese Restaurant,,$,4.0,35,[],https://www.yelp.com/biz/pho-ngon-vietnamese-restaurant-san-bernardino?adjust_creative=Wu9gfEkr1Iqmmu5UKQvcJw&utm_campaign=yelp_api_v3&utm_medium=api_v3_business_search&utm_source=Wu9gfEkr1Iqmmu5UKQvcJw
lotus-restaurant-san-bernardino,"['vietnamese', 'chinese']","['Vietnamese', 'Chinese']",34.12166,-117.2803,(909) 383-1526,13377.543427067525,S3K9Kaq3ywhojEygO1QApA,https://s3-media3.fl.yelpcdn.com/bphoto/qOHphOsCsucnEvjE2xb6FQ/o.jpg,258 E Baseline St,,,San Bernardino,US,CA,92404,Lotus Restaurant,+19093831526,$,4.5,171,[],https://www.yelp.com/biz/lotus-restaurant-san-bernardino?adjust_creative=Wu9gfEkr1Iqmmu5UKQvcJw&utm_campaign=yelp_api_v3&utm_medium=api_v3_business_search&utm_source=Wu9gfEkr1Iqmmu5UKQvcJw
baguette-express-san-bernardino,"['vietnamese', 'sandwiches', 'coffee']","['Vietnamese', 'Sandwiches', 'Coffee & Tea']",34.1757392883301,-117.330993652344,(909) 887-2562,8524.626340484112,LI2r9n8vqCWQE6lx2TwUKw,https://s3-media1.fl.yelpcdn.com/bphoto/zaDKlNWTbbDMZJTBYvEJHg/o.jpg,1689 Kendall Dr,Ste D,,San Bernardino,US,CA,92407,Baguette Express,+19098872562,$,4.0,247,[],https://www.yelp.com/biz/baguette-express-san-bernardino?adjust_creative=Wu9gfEkr1Iqmmu5UKQvcJw&utm_campaign=yelp_api_v3&utm_medium=api_v3_business_search&utm_source=Wu9gfEkr1Iqmmu5UKQvcJw
pho-ha-vietnamese-restaurant-san-bernardino,['vietnamese'],['Vietnamese'],34.0917892456055,-117.276741027832,(909) 383-3138,16728.20563288741,Ass6fu_-jbkpHc9Z7xU16A,https://s3-media1.fl.yelpcdn.com/bphoto/IDaKXualgHNpbxqIfHSQHg/o.jpg,385 E Mill St,Ste 5,,San Bernardino,US,CA,92408,Pho Ha Vietnamese Restaurant,+19093833138,$,3.5,217,[],https://www.yelp.com/biz/pho-ha-vietnamese-restaurant-san-bernardino?adjust_creative=Wu9gfEkr1Iqmmu5UKQvcJw&utm_campaign=yelp_api_v3&utm_medium=api_v3_business_search&utm_source=Wu9gfEkr1Iqmmu5UKQvcJw
sierra-noodle-house-fontana-2,"['vietnamese', 'asianfusion', 'thai']","['Vietnamese', 'Asian Fusion', 'Thai']",34.1388,-117.43554,(909) 356-1688,18042.743616935884,YrDm1aDtUMgvSkLRxmfzxw,https://s3-media1.fl.yelpcdn.com/bphoto/LDeHWMuoffbciBspO2LxGQ/o.jpg,16923 Sierra Lakes Pkwy,Ste 108,,Fontana,US,CA,92336,Sierra Noodle House,+19093561688,$$,4.0,832,"['pickup', 'delivery']",https://www.yelp.com/biz/sierra-noodle-house-fontana-2?adjust_creative=Wu9gfEkr1Iqmmu5UKQvcJw&utm_campaign=yelp_api_v3&utm_medium=api_v3_business_search&utm_source=Wu9gfEkr1Iqmmu5UKQvcJw
pho-72-san-bernardino,"['vietnamese', 'asianfusion']","['Vietnamese', 'Asian Fusion']",34.0869799,-117.27937,(909) 890-4000,17249.393791299084,h7QdgQrnDXyGUvvkIa3Lvg,https://s3-media3.fl.yelpcdn.com/bphoto/Wl_4UbhUBRMKFA53vRItvg/o.jpg,738 S Waterman Ave,,,San Bernardino,US,CA,92408,Pho 72,+19098904000,$,4.5,105,[],https://www.yelp.com/biz/pho-72-san-bernardino?adjust_creative=Wu9gfEkr1Iqmmu5UKQvcJw&utm_campaign=yelp_api_v3&utm_medium=api_v3_business_search&utm_source=Wu9gfEkr1Iqmmu5UKQvcJw
pho-saigon-le-victorville-2,"['vietnamese', 'asianfusion']","['Vietnamese', 'Asian Fusion']",34.476524,-117.339427,(760) 951-0869,26568.607125958435,f8FOFN-OV576SYPlGxjqfA,https://s3-media2.fl.yelpcdn.com/bphoto/SkqMT7K6maX02zJRr9Osqw/o.jpg,12353 Mariposa Rd,Ste F12,,Victorville,US,CA,92395,Pho Saigon Le,+17609510869,$,3.5,167,[],https://www.yelp.com/biz/pho-saigon-le-victorville-2?adjust_creative=Wu9gfEkr1Iqmmu5UKQvcJw&utm_campaign=yelp_api_v3&utm_medium=api_v3_business_search&utm_source=Wu9gfEkr1Iqmmu5UKQvcJw
pho-77-rialto,['vietnamese'],['Vietnamese'],34.133684,-117.39775,(909) 346-0007,15933.478441041363,YCDLHco0QM9qrRtyq8z-xA,https://s3-media2.fl.yelpcdn.com/bphoto/Odh80kCvZ3G5RLrY7zHxhg/o.jpg,1309 W Renaissance Pkwy,Ste 830,Renaissance Marketplace,Rialto,US,CA,92376,Pho 77,+19093460007,,4.0,8,[],https://www.yelp.com/biz/pho-77-rialto?adjust_creative=Wu9gfEkr1Iqmmu5UKQvcJw&utm_campaign=yelp_api_v3&utm_medium=api_v3_business_search&utm_source=Wu9gfEkr1Iqmmu5UKQvcJw
pho-noon-san-bernardino,['vietnamese'],['Vietnamese'],34.0914447564522,-117.316083312035,(909) 453-0882,16990.463255320687,MDu7LGAEvbdVc2lO5ZiL4w,https://s3-media3.fl.yelpcdn.com/bphoto/0Wy895SHFVFytSdxzUhJfw/o.jpg,1353 W Mill St,Ste 110,,San Bernardino,US,CA,92410,Pho Noon,+19094530882,$,4.5,51,"['pickup', 'delivery']",https://www.yelp.com/biz/pho-noon-san-bernardino?adjust_creative=Wu9gfEkr1Iqmmu5UKQvcJw&utm_campaign=yelp_api_v3&utm_medium=api_v3_business_search&utm_source=Wu9gfEkr1Iqmmu5UKQvcJw
pho-mai-san-bernardino,['vietnamese'],['Vietnamese'],34.09325,-117.27801,(909) 383-5038,16539.877443131052,c2obZslvN9p0K77fki7SeQ,https://s3-media2.fl.yelpcdn.com/bphoto/xv-shxZmdLREUsvlN6XigQ/o.jpg,433 S Waterman Ave,,,San Bernardino,US,CA,92408,Pho Mai,+19093835038,$,3.5,321,[],https://www.yelp.com/biz/pho-mai-san-bernardino?adjust_creative=Wu9gfEkr1Iqmmu5UKQvcJw&utm_campaign=yelp_api_v3&utm_medium=api_v3_business_search&utm_source=Wu9gfEkr1Iqmmu5UKQvcJw
pho-lucky-san-bernardino-2,"['vietnamese', 'noodles']","['Vietnamese', 'Noodles']",34.1149497,-117.2793158,(909) 381-0235,14130.529347551163,6oOdecIZktRO7S_EF6tgqQ,https://s3-media1.fl.yelpcdn.com/bphoto/AKjGVHihGlqA8XS3G8L8aw/o.jpg,275 E 9th St,,,San Bernardino,US,CA,92410,Pho lucky,+19093810235,$,4.5,66,[],https://www.yelp.com/biz/pho-lucky-san-bernardino-2?adjust_creative=Wu9gfEkr1Iqmmu5UKQvcJw&utm_campaign=yelp_api_v3&utm_medium=api_v3_business_search&utm_source=Wu9gfEkr1Iqmmu5UKQvcJw
pho-ha-rancho-cucamonga,"['vietnamese', 'noodles', 'vegetarian']","['Vietnamese', 'Noodles', 'Vegetarian']",34.1063851,-117.601002,(909) 980-7703,32923.97088093455,lFTU3HNb5sMOGIM_CoxAsg,https://s3-media2.fl.yelpcdn.com/bphoto/kRPdIH80JHVexns5lcdo-g/o.jpg,9319 Foothill Blvd,Ste C,,Rancho Cucamonga,US,CA,91730,Pho Ha,+19099807703,$,4.0,867,[],https://www.yelp.com/biz/pho-ha-rancho-cucamonga?adjust_creative=Wu9gfEkr1Iqmmu5UKQvcJw&utm_campaign=yelp_api_v3&utm_medium=api_v3_business_search&utm_source=Wu9gfEkr1Iqmmu5UKQvcJw
pho-viet-restaurant-rancho-cucamonga,['vietnamese'],['Vietnamese'],34.1077247500344,-117.543574948399,(909) 493-7788,28138.265161245068,Ob8D8hCwQYHd29E0aSU6sA,https://s3-media1.fl.yelpcdn.com/bphoto/RnpXaHyISrP5QMgVd8Z0Yw/o.jpg,11940 Foothill Blvd,Ste 118,,Rancho Cucamonga,US,CA,91739,Pho Viet Restaurant,+19094937788,$,3.5,240,[],https://www.yelp.com/biz/pho-viet-restaurant-rancho-cucamonga?adjust_creative=Wu9gfEkr1Iqmmu5UKQvcJw&utm_campaign=yelp_api_v3&utm_medium=api_v3_business_search&utm_source=Wu9gfEkr1Iqmmu5UKQvcJw
pho-kobe-victorville,['asianfusion'],['Asian Fusion'],34.4710612421939,-117.331952266395,(760) 955-1901,25847.637865672008,9zuXjj5FP1L4WFKTXiLN9g,https://s3-media3.fl.yelpcdn.com/bphoto/fowOOMTOSMizPwYREzrXqQ/o.jpg,15180 Bear Valley Rd,,,Victorville,US,CA,92395,Pho Kobe,+17609551901,$,3.5,163,[],https://www.yelp.com/biz/pho-kobe-victorville?adjust_creative=Wu9gfEkr1Iqmmu5UKQvcJw&utm_campaign=yelp_api_v3&utm_medium=api_v3_business_search&utm_source=Wu9gfEkr1Iqmmu5UKQvcJw
cup-bowl-pho-hot-pot-and-tea-ontario-2,"['bubbletea', 'noodles', 'hotpot']","['Bubble Tea', 'Noodles', 'Hot Pot']",34.0273657692028,-117.595605439371,(909) 930-1440,37287.95127105469,eLyLmUKvDDaJB2snqZqZ8Q,https://s3-media1.fl.yelpcdn.com/bphoto/CEe6_jafjiw78DPwEUJe9A/o.jpg,2550 S Archibald Ave,Ste A,,Ontario,US,CA,91761,Cup Bowl Pho - Hot Pot & Tea,+19099301440,$,4.5,536,"['pickup', 'delivery']",https://www.yelp.com/biz/cup-bowl-pho-hot-pot-and-tea-ontario-2?adjust_creative=Wu9gfEkr1Iqmmu5UKQvcJw&utm_campaign=yelp_api_v3&utm_medium=api_v3_business_search&utm_source=Wu9gfEkr1Iqmmu5UKQvcJw
a-dong-restaurant-ii-loma-linda,['vietnamese'],['Vietnamese'],34.062927,-117.244083,(909) 796-8840,20248.630481732525,5WP5dwiaONqqbXaQanvrng,https://s3-media4.fl.yelpcdn.com/bphoto/hH4OxT3J0Kbj1UoJkHHDDA/o.jpg,25685 Redlands Blvd,,,Loma Linda,US,CA,92354,A Dong Restaurant II,+19097968840,$$,3.5,223,[],https://www.yelp.com/biz/a-dong-restaurant-ii-loma-linda?adjust_creative=Wu9gfEkr1Iqmmu5UKQvcJw&utm_campaign=yelp_api_v3&utm_medium=api_v3_business_search&utm_source=Wu9gfEkr1Iqmmu5UKQvcJw
fontana-pho-fontana,['vietnamese'],['Vietnamese'],34.0755018608292,-117.437068037689,(909) 829-1571,23242.570999874773,v73-xzeLa8ibynQBE9DZEw,https://s3-media1.fl.yelpcdn.com/bphoto/z8IjVkl0b3qV0aUUVBac3g/o.jpg,9820 Sierra Ave,,,Fontana,US,CA,92335,Fontana Pho,+19098291571,$,4.0,484,[],https://www.yelp.com/biz/fontana-pho-fontana?adjust_creative=Wu9gfEkr1Iqmmu5UKQvcJw&utm_campaign=yelp_api_v3&utm_medium=api_v3_business_search&utm_source=Wu9gfEkr1Iqmmu5UKQvcJw
pho-la-vie-upland-7,['vietnamese'],['Vietnamese'],34.10636,-117.63068,(909) 931-0115,35249.47809946029,9T924pCbLRN4OC3ePU7ljA,https://s3-media2.fl.yelpcdn.com/bphoto/56sreq_ufb2L8EwXwDjlcA/o.jpg,1398 E Foothill Blvd,,,Upland,US,CA,91786,Pho La Vie,+19099310115,,5.0,1,[],https://www.yelp.com/biz/pho-la-vie-upland-7?adjust_creative=Wu9gfEkr1Iqmmu5UKQvcJw&utm_campaign=yelp_api_v3&utm_medium=api_v3_business_search&utm_source=Wu9gfEkr1Iqmmu5UKQvcJw
pho-ha-vietnamese-restaurant-fontana,['vietnamese'],['Vietnamese'],34.0729433369128,-117.435921636782,(909) 681-3193,23406.86050460057,PfpZzrHQPRSoF5cpzkHbWg,https://s3-media4.fl.yelpcdn.com/bphoto/0bwA9elQbLsdTD7y7xcB7g/o.jpg,9938 Sierra Ave,,,Fontana,US,CA,92335,Pho Ha Vietnamese Restaurant,+19096813193,$$,4.5,60,[],https://www.yelp.com/biz/pho-ha-vietnamese-restaurant-fontana?adjust_creative=Wu9gfEkr1Iqmmu5UKQvcJw&utm_campaign=yelp_api_v3&utm_medium=api_v3_business_search&utm_source=Wu9gfEkr1Iqmmu5UKQvcJw
hiep-thanh-supermarket-san-bernardino-4,"['sandwiches', 'meats', 'noodles']","['Sandwiches', 'Meat Shops', 'Noodles']",34.11427,-117.27926,(909) 884-4800,14192.294526657686,eg0xKz3OeL1YaWc71RjpYw,https://s3-media1.fl.yelpcdn.com/bphoto/wKCzoBcJ1wIKx51JDwLt-w/o.jpg,822 N Waterman Ave,,,San Bernardino,US,CA,92410,Hiep Thanh Supermarket,+19098844800,$,4.0,65,[],https://www.yelp.com/biz/hiep-thanh-supermarket-san-bernardino-4?adjust_creative=Wu9gfEkr1Iqmmu5UKQvcJw&utm_campaign=yelp_api_v3&utm_medium=api_v3_business_search&utm_source=Wu9gfEkr1Iqmmu5UKQvcJw
pho-huynh-riverside,['vietnamese'],['Vietnamese'],33.9449917547207,-117.415257823375,(951) 354-2799,35154.91676093689,C7VheQF-xzdnBI_V1t4g-w,https://s3-media1.fl.yelpcdn.com/bphoto/zH18ni3sIth2NoWiRHflyg/o.jpg,5180 Arlington Ave,,,Riverside,US,CA,92504,Pho Huynh,+19513542799,$,4.0,284,[],https://www.yelp.com/biz/pho-huynh-riverside?adjust_creative=Wu9gfEkr1Iqmmu5UKQvcJw&utm_campaign=yelp_api_v3&utm_medium=api_v3_business_search&utm_source=Wu9gfEkr1Iqmmu5UKQvcJw
ocean-pho-riverside-2,['vietnamese'],['Vietnamese'],33.973105,-117.348653,(951) 742-5272,30483.57972687097,x4e_t11DRbwGGqWTAVwPqQ,https://s3-media1.fl.yelpcdn.com/bphoto/0eBn9HTbIB5OX-5XsaZ8pg/o.jpg,4069 Chicago Ave,,,Riverside,US,CA,92507,Ocean Pho,+19517425272,$$,4.5,24,[],https://www.yelp.com/biz/ocean-pho-riverside-2?adjust_creative=Wu9gfEkr1Iqmmu5UKQvcJw&utm_campaign=yelp_api_v3&utm_medium=api_v3_business_search&utm_source=Wu9gfEkr1Iqmmu5UKQvcJw
fusion-restaurant-and-bar-riverside,"['vietnamese', 'asianfusion', 'italian']","['Vietnamese', 'Asian Fusion', 'Italian']",33.95083,-117.39691,(951) 530-8272,33994.71964705628,Fv-gmnmnOiMjE6ZE45X4uw,https://s3-media2.fl.yelpcdn.com/bphoto/3yUXUEBqKF3RAwh9aHi0QA/o.jpg,6749 Brockton Ave,,,Riverside,US,CA,92506,Fusion Restaurant & Bar,+19515308272,$$,4.5,93,[],https://www.yelp.com/biz/fusion-restaurant-and-bar-riverside?adjust_creative=Wu9gfEkr1Iqmmu5UKQvcJw&utm_campaign=yelp_api_v3&utm_medium=api_v3_business_search&utm_source=Wu9gfEkr1Iqmmu5UKQvcJw
pho-77-san-bernardino,['vietnamese'],['Vietnamese'],34.0689974613939,-117.262160805387,(909) 796-2277,19340.248468881982,u7rc3oZD8baGv0SIpSCI2A,https://s3-media1.fl.yelpcdn.com/bphoto/8MCfGhSJuuFFYfKWfd7WFg/o.jpg,1760 S Tippecanoe Ave,,,San Bernardino,US,CA,92408,Pho 77,+19097962277,$,3.5,224,[],https://www.yelp.com/biz/pho-77-san-bernardino?adjust_creative=Wu9gfEkr1Iqmmu5UKQvcJw&utm_campaign=yelp_api_v3&utm_medium=api_v3_business_search&utm_source=Wu9gfEkr1Iqmmu5UKQvcJw
kung-fu-pho-highland-4,['vietnamese'],['Vietnamese'],34.122187,-117.194247,(909) 907-5499,15683.766407777941,DY0ErabX9oBzsctoYDKlLA,https://s3-media4.fl.yelpcdn.com/bphoto/y9DDjHESYy92wBVaK0dhIQ/o.jpg,7243 Boulder Ave,,,Highland,US,CA,92346,Kung Fu Pho,+19099075499,$,4.5,90,[],https://www.yelp.com/biz/kung-fu-pho-highland-4?adjust_creative=Wu9gfEkr1Iqmmu5UKQvcJw&utm_campaign=yelp_api_v3&utm_medium=api_v3_business_search&utm_source=Wu9gfEkr1Iqmmu5UKQvcJw
pho-ha-moreno-valley,['vietnamese'],['Vietnamese'],33.9167760313033,-117.228916858949,(951) 488-9898,36516.84237392911,wC3iRNoY3wdQ-0NfI4UIsw,https://s3-media4.fl.yelpcdn.com/bphoto/yv8Tli4VfXwRmtRz9NLCFg/o.jpg,24853 Alessandro Blvd,Ste 3,,Moreno Valley,US,CA,92553,Pho Ha,+19514889898,$,3.5,401,[],https://www.yelp.com/biz/pho-ha-moreno-valley?adjust_creative=Wu9gfEkr1Iqmmu5UKQvcJw&utm_campaign=yelp_api_v3&utm_medium=api_v3_business_search&utm_source=Wu9gfEkr1Iqmmu5UKQvcJw
t-pho-noodle-and-grill-fontana,"['vietnamese', 'noodles', 'beerbar']","['Vietnamese', 'Noodles', 'Beer Bar']",34.06051,-117.43604,(909) 355-3239,24560.697675926385,TwgK7MPlZGda9RHEFhSosw,https://s3-media1.fl.yelpcdn.com/bphoto/-6i_S7EATNo4VjMiaYrpKA/o.jpg,10664 Sierra Ave,,,Fontana,US,CA,92337,T-Pho Noodle and Grill,+19093553239,$,4.5,230,[],https://www.yelp.com/biz/t-pho-noodle-and-grill-fontana?adjust_creative=Wu9gfEkr1Iqmmu5UKQvcJw&utm_campaign=yelp_api_v3&utm_medium=api_v3_business_search&utm_source=Wu9gfEkr1Iqmmu5UKQvcJw
pho-spot-rancho-cucamonga-18,"['vietnamese', 'diners', 'noodles']","['Vietnamese', 'Diners', 'Noodles']",34.1219926355297,-117.613785960427,(909) 989-1382,33115.15122616345,T7Ig8zKuKbdnS-QtUJyeKQ,https://s3-media4.fl.yelpcdn.com/bphoto/jSNCigv8Mc4_tGE8AWrmuQ/o.jpg,8802 Base Line Rd,,,Rancho Cucamonga,US,CA,91701,Pho Spot,+19099891382,$,4.5,308,"['pickup', 'delivery']",https://www.yelp.com/biz/pho-spot-rancho-cucamonga-18?adjust_creative=Wu9gfEkr1Iqmmu5UKQvcJw&utm_campaign=yelp_api_v3&utm_medium=api_v3_business_search&utm_source=Wu9gfEkr1Iqmmu5UKQvcJw
pho-century-upland,['vietnamese'],['Vietnamese'],34.1068832946163,-117.671792507172,(909) 985-2881,38683.4514420901,P3PpvshIyEjM6Vm47VovIQ,https://s3-media3.fl.yelpcdn.com/bphoto/Ts-B--O04_1aWMtI5yVqqA/o.jpg,1244 W Foothill Blvd,,,Upland,US,CA,91786,Pho Century,+19099852881,$,4.0,421,['pickup'],https://www.yelp.com/biz/pho-century-upland?adjust_creative=Wu9gfEkr1Iqmmu5UKQvcJw&utm_campaign=yelp_api_v3&utm_medium=api_v3_business_search&utm_source=Wu9gfEkr1Iqmmu5UKQvcJw
yang-noodle-house-san-bernardino,"['noodles', 'cantonese', 'soup']","['Noodles', 'Cantonese', 'Soup']",34.188532,-117.356811,(909) 683-6160,8931.179803539362,oagIREcZKztHsyWgKAmiDg,https://s3-media1.fl.yelpcdn.com/bphoto/VN0Zo6IKiRmJROe9_Q3HQA/o.jpg,2999 Kendall Dr,Ste 216,,San Bernardino,US,CA,92407,Yang Noodle House,+19096836160,$$,4.5,295,[],https://www.yelp.com/biz/yang-noodle-house-san-bernardino?adjust_creative=Wu9gfEkr1Iqmmu5UKQvcJw&utm_campaign=yelp_api_v3&utm_medium=api_v3_business_search&utm_source=Wu9gfEkr1Iqmmu5UKQvcJw
pho-belwood-apple-valley-2,['vietnamese'],['Vietnamese'],34.47244,-117.19428,(760) 503-7009,26958.185329450615,eKBYwmz7QCiqxWLElGczFQ,https://s3-media1.fl.yelpcdn.com/bphoto/rK7iOkdQlUVMQBhpCGH7Bg/o.jpg,21520 Bear Valley Rd,Ste E,,Apple Valley,US,CA,92308,Pho Belwood,+17605037009,$,4.5,91,[],https://www.yelp.com/biz/pho-belwood-apple-valley-2?adjust_creative=Wu9gfEkr1Iqmmu5UKQvcJw&utm_campaign=yelp_api_v3&utm_medium=api_v3_business_search&utm_source=Wu9gfEkr1Iqmmu5UKQvcJw
pho-le-vietnamese-restaurant-moreno-valley,['vietnamese'],['Vietnamese'],33.9362763,-117.264601,(951) 472-0430,34038.9918576593,Mw9vjVPgp5_YpFveslrQiA,https://s3-media2.fl.yelpcdn.com/bphoto/6gzAuxtBUZPiX8aZaUA5HA/o.jpg,12625 Frederick St,Ste K6,,Moreno Valley,US,CA,92553,Pho Le Vietnamese Restaurant,+19514720430,,4.5,103,[],https://www.yelp.com/biz/pho-le-vietnamese-restaurant-moreno-valley?adjust_creative=Wu9gfEkr1Iqmmu5UKQvcJw&utm_campaign=yelp_api_v3&utm_medium=api_v3_business_search&utm_source=Wu9gfEkr1Iqmmu5UKQvcJw
pho-bambu-rancho-cucamonga,['vietnamese'],['Vietnamese'],34.077713,-117.5585881,(909) 481-4746,31153.55242640908,TZKc-RmHnxPuxECzx5m_cg,https://s3-media3.fl.yelpcdn.com/bphoto/jsaRmtoIubYKr9cNKYRptg/o.jpg,9668 Milliken Ave,Ste 101,,Rancho Cucamonga,US,CA,91730,Pho BamBu,+19094814746,$,3.5,398,[],https://www.yelp.com/biz/pho-bambu-rancho-cucamonga?adjust_creative=Wu9gfEkr1Iqmmu5UKQvcJw&utm_campaign=yelp_api_v3&utm_medium=api_v3_business_search&utm_source=Wu9gfEkr1Iqmmu5UKQvcJw
ocean-pho-yucaipa-2,['vietnamese'],['Vietnamese'],34.032992250516,-117.072625905275,(909) 797-3070,30321.83455858759,eHYvrmxwhyhqyI8StonKJw,https://s3-media2.fl.yelpcdn.com/bphoto/6UwOht9nK9GnD30YUUVh3A/o.jpg,33527 Yucaipa Blvd,Ste C3,,Yucaipa,US,CA,92399,Ocean Pho,+19097973070,$,4.0,215,[],https://www.yelp.com/biz/ocean-pho-yucaipa-2?adjust_creative=Wu9gfEkr1Iqmmu5UKQvcJw&utm_campaign=yelp_api_v3&utm_medium=api_v3_business_search&utm_source=Wu9gfEkr1Iqmmu5UKQvcJw
lux-vietnamese-kitchen-norco-2,['vietnamese'],['Vietnamese'],33.92006,-117.55965,(951) 407-1212,43839.51652728609,d2yAU-KJJWEt5UglyaTwzQ,https://s3-media4.fl.yelpcdn.com/bphoto/rHyDSVSgj108YD3aHywdHQ/o.jpg,2650 Hamner Ave,,,Norco,US,CA,92860,Lux Vietnamese Kitchen,+19514071212,$,4.5,8,[],https://www.yelp.com/biz/lux-vietnamese-kitchen-norco-2?adjust_creative=Wu9gfEkr1Iqmmu5UKQvcJw&utm_campaign=yelp_api_v3&utm_medium=api_v3_business_search&utm_source=Wu9gfEkr1Iqmmu5UKQvcJw
pho-amor-norco,"['vietnamese', 'juicebars', 'noodles']","['Vietnamese', 'Juice Bars & Smoothies', 'Noodles']",33.9231536135984,-117.559971548617,(951) 279-3458,43603.791681089235,T3S5LWyelagp6w60PdO63w,https://s3-media2.fl.yelpcdn.com/bphoto/i4gxVwKWhpyUxBlK7tDorg/o.jpg,2822 Hamner Ave,,,Norco,US,CA,92860,Pho Amor,+19512793458,$$,4.5,535,[],https://www.yelp.com/biz/pho-amor-norco?adjust_creative=Wu9gfEkr1Iqmmu5UKQvcJw&utm_campaign=yelp_api_v3&utm_medium=api_v3_business_search&utm_source=Wu9gfEkr1Iqmmu5UKQvcJw
pho-king-noodles-and-grill-ontario,['vietnamese'],['Vietnamese'],34.0777949,-117.6266443,(909) 687-7117,36390.05277851174,emcUneWKChv7wx8pJVOjPw,https://s3-media4.fl.yelpcdn.com/bphoto/zOw2Z0ZUSWwuMe8Fz837MQ/o.jpg,1359 E 4th St,,,Ontario,US,CA,91764,Pho King Noodles & Grill,+19096877117,$,4.5,91,[],https://www.yelp.com/biz/pho-king-noodles-and-grill-ontario?adjust_creative=Wu9gfEkr1Iqmmu5UKQvcJw&utm_campaign=yelp_api_v3&utm_medium=api_v3_business_search&utm_source=Wu9gfEkr1Iqmmu5UKQvcJw
ocean-pho-redlands-3,['vietnamese'],['Vietnamese'],34.0485218082392,-117.208396380456,(909) 793-6181,22615.009517749815,rrcWqPRVj8UrLTncHNkORw,https://s3-media4.fl.yelpcdn.com/bphoto/u0-joalTkz8bvsAbVkKZgw/o.jpg,1574 Barton Rd,,,Redlands,US,CA,92373,Ocean Pho,+19097936181,$,3.5,118,[],https://www.yelp.com/biz/ocean-pho-redlands-3?adjust_creative=Wu9gfEkr1Iqmmu5UKQvcJw&utm_campaign=yelp_api_v3&utm_medium=api_v3_business_search&utm_source=Wu9gfEkr1Iqmmu5UKQvcJw
pho-99-vietnamese-restaurant-riverside,['vietnamese'],['Vietnamese'],33.9147406071424,-117.485266327858,(951) 688-2671,40789.80081083074,UcZVtK4ozYTb7j-71VGjQw,https://s3-media4.fl.yelpcdn.com/bphoto/15mBxa0g-1hR_C1PQF_YiA/o.jpg,4557 La Sierra Ave,,,Riverside,US,CA,92505,Pho 99 Vietnamese Restaurant,+19516882671,$,4.0,154,[],https://www.yelp.com/biz/pho-99-vietnamese-restaurant-riverside?adjust_creative=Wu9gfEkr1Iqmmu5UKQvcJw&utm_campaign=yelp_api_v3&utm_medium=api_v3_business_search&utm_source=Wu9gfEkr1Iqmmu5UKQvcJw
ocean-pho-redlands,"['vietnamese', 'noodles']","['Vietnamese', 'Noodles']",34.074359,-117.206333,(909) 307-0998,19969.30133753382,cM3pD4GPFZGKtHBQdjE6LQ,https://s3-media1.fl.yelpcdn.com/bphoto/IjVQ7F-GYFhD4cLVo5-YSw/o.jpg,27471 San Bernardino Ave,Ste 200,,Redlands,US,CA,92374,Ocean Pho,+19093070998,$$,3.0,194,[],https://www.yelp.com/biz/ocean-pho-redlands?adjust_creative=Wu9gfEkr1Iqmmu5UKQvcJw&utm_campaign=yelp_api_v3&utm_medium=api_v3_business_search&utm_source=Wu9gfEkr1Iqmmu5UKQvcJw
pho-star-bowl-riverside,"['vietnamese', 'salad', 'sandwiches']","['Vietnamese', 'Salad', 'Sandwiches']",33.9151992797852,-117.457183837891,(951) 352-9548,39654.528677336166,DdVXvOdIzECfZF8KqvCkMg,https://s3-media1.fl.yelpcdn.com/bphoto/dZN7igUHXWzQ51JXKzb6sA/o.jpg,10051 Magnolia Ave,Ste B1,,Riverside,US,CA,92503,Pho Star Bowl,+19513529548,$,4.5,648,[],https://www.yelp.com/biz/pho-star-bowl-riverside?adjust_creative=Wu9gfEkr1Iqmmu5UKQvcJw&utm_campaign=yelp_api_v3&utm_medium=api_v3_business_search&utm_source=Wu9gfEkr1Iqmmu5UKQvcJw
pho-anh-riverside,['vietnamese'],['Vietnamese'],33.939507,-117.455035,(951) 977-9889,37055.551841431305,ipya1yx476WwwYm1BQ0DUQ,https://s3-media3.fl.yelpcdn.com/bphoto/kBG5o9Q_JGdgW71drBQFKw/o.jpg,5644 Van Buren Blvd,,,Riverside,US,CA,92503,Pho Anh,+19519779889,$,4.0,74,[],https://www.yelp.com/biz/pho-anh-riverside?adjust_creative=Wu9gfEkr1Iqmmu5UKQvcJw&utm_campaign=yelp_api_v3&utm_medium=api_v3_business_search&utm_source=Wu9gfEkr1Iqmmu5UKQvcJw
pho-shack-noodles-and-grill-moreno-valley,"['vietnamese', 'soup']","['Vietnamese', 'Soup']",33.938002,-117.248156,(951) 243-6837,33917.27978359242,yBGs8XfgCOLx25JLaK7EKA,https://s3-media1.fl.yelpcdn.com/bphoto/fRzjN90mZPa1jKnvowbDBg/o.jpg,23715 Sunnymead Blvd,Ste B,,Moreno Valley,US,CA,92553,Pho Shack Noodles & Grill,+19512436837,$,4.0,216,[],https://www.yelp.com/biz/pho-shack-noodles-and-grill-moreno-valley?adjust_creative=Wu9gfEkr1Iqmmu5UKQvcJw&utm_campaign=yelp_api_v3&utm_medium=api_v3_business_search&utm_source=Wu9gfEkr1Iqmmu5UKQvcJw
pho-island-restaurant-ontario,"['vietnamese', 'chinese']","['Vietnamese', 'Chinese']",34.0178871154785,-117.591423034668,(909) 930-2300,37687.79178694186,5pRcjX4U96hIK-OeNOPgag,https://s3-media1.fl.yelpcdn.com/bphoto/-ZMyOz_UYTSin36pgx0MSQ/o.jpg,3055 S Archibald Ave,,,Ontario,US,CA,91761,Pho Island Restaurant,+19099302300,$,4.0,345,[],https://www.yelp.com/biz/pho-island-restaurant-ontario?adjust_creative=Wu9gfEkr1Iqmmu5UKQvcJw&utm_campaign=yelp_api_v3&utm_medium=api_v3_business_search&utm_source=Wu9gfEkr1Iqmmu5UKQvcJw
5-star-pho-restaurant-riverside,"['vietnamese', 'noodles', 'soup']","['Vietnamese', 'Noodles', 'Soup']",33.9203199,-117.48986,(951) 772-0700,40494.666557349905,1CkoIxIuvsiYm2YdboS7Aw,https://s3-media2.fl.yelpcdn.com/bphoto/iLKJ0V2PzNDfAmlFmtA5vg/o.jpg,4950 La Sierra Ave,Ste 2,,Riverside,US,CA,92505,5 Star Pho Restaurant,+19517720700,$,4.5,217,[],https://www.yelp.com/biz/5-star-pho-restaurant-riverside?adjust_creative=Wu9gfEkr1Iqmmu5UKQvcJw&utm_campaign=yelp_api_v3&utm_medium=api_v3_business_search&utm_source=Wu9gfEkr1Iqmmu5UKQvcJw
pho-ha-7-riverside,"['vietnamese', 'noodles']","['Vietnamese', 'Noodles']",33.97515,-117.35112,(951) 680-0790,30274.15816069961,LHXtRkqjVzntX-sBZZEkzQ,https://s3-media2.fl.yelpcdn.com/bphoto/n_Sz4WquT042t-M-H3eDCg/o.jpg,1820 University Ave,Ste 101,,Riverside,US,CA,92507,Pho Ha #7,+19516800790,$,4.0,301,[],https://www.yelp.com/biz/pho-ha-7-riverside?adjust_creative=Wu9gfEkr1Iqmmu5UKQvcJw&utm_campaign=yelp_api_v3&utm_medium=api_v3_business_search&utm_source=Wu9gfEkr1Iqmmu5UKQvcJw
pho-mai-upland,"['vietnamese', 'noodles', 'sandwiches']","['Vietnamese', 'Noodles', 'Sandwiches']",34.091131,-117.672009,(909) 920-4005,39417.66599996425,PtbpHEJGyYqw7vUp00Ddow,https://s3-media1.fl.yelpcdn.com/bphoto/Sa71nMC_qDJJjBz0A3pNHQ/o.jpg,271 S Mountain Ave,,,Upland,US,CA,91786,Pho Mai,+19099204005,$,4.0,431,[],https://www.yelp.com/biz/pho-mai-upland?adjust_creative=Wu9gfEkr1Iqmmu5UKQvcJw&utm_campaign=yelp_api_v3&utm_medium=api_v3_business_search&utm_source=Wu9gfEkr1Iqmmu5UKQvcJw
noodle-21-redlands,"['vietnamese', 'noodles']","['Vietnamese', 'Noodles']",34.07088,-117.20918,(909) 798-1888,20234.452374982764,UFfbac1iaSAwb9J9O5VVqw,https://s3-media2.fl.yelpcdn.com/bphoto/qc8qx2cLFiDyfmPcvoRGDw/o.jpg,10040 Alabama St,Ste B,,Redlands,US,CA,92374,Noodle 21,+19097981888,$,3.0,445,[],https://www.yelp.com/biz/noodle-21-redlands?adjust_creative=Wu9gfEkr1Iqmmu5UKQvcJw&utm_campaign=yelp_api_v3&utm_medium=api_v3_business_search&utm_source=Wu9gfEkr1Iqmmu5UKQvcJw
pho-island-chino,['vietnamese'],['Vietnamese'],34.02780438252,-117.689978554845,(909) 465-5499,44286.1091033381,2yEC8srVuLub3Myi9_Mw3g,https://s3-media3.fl.yelpcdn.com/bphoto/62CK6GZ-HDzdARw3a-dMPg/o.jpg,12412 Central Ave,,,Chino,US,CA,91710,Pho Island,+19094655499,$,4.0,298,[],https://www.yelp.com/biz/pho-island-chino?adjust_creative=Wu9gfEkr1Iqmmu5UKQvcJw&utm_campaign=yelp_api_v3&utm_medium=api_v3_business_search&utm_source=Wu9gfEkr1Iqmmu5UKQvcJw
pho-viet-ontario,['vietnamese'],['Vietnamese'],34.0295894443989,-117.610945925117,(909) 673-0675,38095.198529445224,uNYfvzpn27gbo4JOfdhZAQ,https://s3-media3.fl.yelpcdn.com/bphoto/gzQnDlv7yboj4-YjFoOxvw/o.jpg,2411 S Vineyard Ave,Ste D,,Ontario,US,CA,91761,Pho Viet,+19096730675,$,4.0,149,[],https://www.yelp.com/biz/pho-viet-ontario?adjust_creative=Wu9gfEkr1Iqmmu5UKQvcJw&utm_campaign=yelp_api_v3&utm_medium=api_v3_business_search&utm_source=Wu9gfEkr1Iqmmu5UKQvcJw
pho-licious-victorville,['vietnamese'],['Vietnamese'],34.4749320636624,-117.344560294076,(760) 951-0786,26489.257989476242,XcxL0gsEFJT5PK74m2nwCA,https://s3-media1.fl.yelpcdn.com/bphoto/kH9VnKAWzMElhcu48s_6lw/o.jpg,14400 Bear Valley Rd,,,Victorville,US,CA,92392,Pho-licious,+17609510786,$,3.0,43,[],https://www.yelp.com/biz/pho-licious-victorville?adjust_creative=Wu9gfEkr1Iqmmu5UKQvcJw&utm_campaign=yelp_api_v3&utm_medium=api_v3_business_search&utm_source=Wu9gfEkr1Iqmmu5UKQvcJw
pho-vinam-riverside,['vietnamese'],['Vietnamese'],33.9763170939295,-117.337702150179,(951) 784-4290,29944.89382143033,l_dAHpFwN_1oZy_w_1jXpQ,https://s3-media2.fl.yelpcdn.com/bphoto/xwiTjy2EAvgkRqbIkVk3OA/o.jpg,1201 University Ave,Ste 107,,Riverside,US,CA,92507,Pho Vinam,+19517844290,$,3.0,532,[],https://www.yelp.com/biz/pho-vinam-riverside?adjust_creative=Wu9gfEkr1Iqmmu5UKQvcJw&utm_campaign=yelp_api_v3&utm_medium=api_v3_business_search&utm_source=Wu9gfEkr1Iqmmu5UKQvcJw
pho-viet-eastvale,['vietnamese'],['Vietnamese'],33.975781,-117.551525,(951) 233-7090,38493.13627332011,_yQHXoTmq1JYnDpiy-8WqA,https://s3-media3.fl.yelpcdn.com/bphoto/odzQ6l7Is1cbqU_rFqRDog/o.jpg,12257 Limonite Ave,Ste 830,,Eastvale,US,CA,91752,Pho Viet,+19512337090,$,3.0,212,[],https://www.yelp.com/biz/pho-viet-eastvale?adjust_creative=Wu9gfEkr1Iqmmu5UKQvcJw&utm_campaign=yelp_api_v3&utm_medium=api_v3_business_search&utm_source=Wu9gfEkr1Iqmmu5UKQvcJw
pho-62-rialto-3,['vietnamese'],['Vietnamese'],34.0755140800334,-117.370966002345,(909) 421-4887,20153.37666753105,Km31ezP--tAd2juVPvtHlg,https://s3-media1.fl.yelpcdn.com/bphoto/h6Sz82sR108k14dzqDATaA/o.jpg,1420 S Riverside Ave,Ste 8D,,Rialto,US,CA,92376,Pho 62,+19094214887,$,4.0,61,[],https://www.yelp.com/biz/pho-62-rialto-3?adjust_creative=Wu9gfEkr1Iqmmu5UKQvcJw&utm_campaign=yelp_api_v3&utm_medium=api_v3_business_search&utm_source=Wu9gfEkr1Iqmmu5UKQvcJw
pho-amour-fontana-3,['vietnamese'],['Vietnamese'],34.1377897,-117.4463391,(909) 320-8880,18974.54798216618,-Vq6zky0M66m-lqWZfSu-w,https://s3-media4.fl.yelpcdn.com/bphoto/uDpZDb1UHGWPquxpf6YJdQ/o.jpg,16421 Sierra Lakes Pkwy,Ste 300,,Fontana,US,CA,92336,Pho Amour,+19093208880,$$,3.5,126,[],https://www.yelp.com/biz/pho-amour-fontana-3?adjust_creative=Wu9gfEkr1Iqmmu5UKQvcJw&utm_campaign=yelp_api_v3&utm_medium=api_v3_business_search&utm_source=Wu9gfEkr1Iqmmu5UKQvcJw
pho-92-vietnamese-restaurant-beaumont,['vietnamese'],['Vietnamese'],33.92841,-116.94965,(951) 845-8133,46521.76212137502,QzuQfxFPKzHiQbatCJiD2w,https://s3-media3.fl.yelpcdn.com/bphoto/dw_VFMoiIJ37ehMicbyTXQ/o.jpg,1661 E 6th St,Unit B,,Beaumont,US,CA,92223,Pho 92 Vietnamese Restaurant,+19518458133,$,3.0,222,[],https://www.yelp.com/biz/pho-92-vietnamese-restaurant-beaumont?adjust_creative=Wu9gfEkr1Iqmmu5UKQvcJw&utm_campaign=yelp_api_v3&utm_medium=api_v3_business_search&utm_source=Wu9gfEkr1Iqmmu5UKQvcJw
lees-sandwiches-riverside-7,"['vietnamese', 'coffee', 'sandwiches']","['Vietnamese', 'Coffee & Tea', 'Sandwiches']",33.9759789,-117.3525238,(951) 248-0108,30240.36950157117,PcD4HzI6eqmnekgeObI5Og,https://s3-media3.fl.yelpcdn.com/bphoto/GgDK6bcv4VUsjWnPBOmlog/o.jpg,1889 University Ave,,,Riverside,US,CA,92507,Lee's Sandwiches,+19512480108,$,4.0,361,"['delivery', 'pickup']",https://www.yelp.com/biz/lees-sandwiches-riverside-7?adjust_creative=Wu9gfEkr1Iqmmu5UKQvcJw&utm_campaign=yelp_api_v3&utm_medium=api_v3_business_search&utm_source=Wu9gfEkr1Iqmmu5UKQvcJw
1-pho-noodle-and-grill-rancho-cucamonga,"['vietnamese', 'noodles']","['Vietnamese', 'Noodles']",34.105643,-117.545914,(909) 483-1688,28443.836031201783,CZty7joKMhEmcBXzewsfLQ,https://s3-media1.fl.yelpcdn.com/bphoto/JK35ZlNdPZbx1SnbNpppDA/o.jpg,11897 Foothill Blvd,,,Rancho Cucamonga,US,CA,91730,1 Pho Noodle & Grill,+19094831688,$,3.5,322,[],https://www.yelp.com/biz/1-pho-noodle-and-grill-rancho-cucamonga?adjust_creative=Wu9gfEkr1Iqmmu5UKQvcJw&utm_campaign=yelp_api_v3&utm_medium=api_v3_business_search&utm_source=Wu9gfEkr1Iqmmu5UKQvcJw
pho-trans-chino-7,"['vietnamese', 'thai']","['Vietnamese', 'Thai']",34.0363845995568,-117.688918384905,(909) 464-8008,43695.68364404475,GNna1PE-R1P3eg_INoUU0w,https://s3-media1.fl.yelpcdn.com/bphoto/QErPb57Fu3PNimo022fePw/o.jpg,11971 Central Ave,,,Chino,US,CA,91710,Pho Trans,+19094648008,$$,4.5,68,[],https://www.yelp.com/biz/pho-trans-chino-7?adjust_creative=Wu9gfEkr1Iqmmu5UKQvcJw&utm_campaign=yelp_api_v3&utm_medium=api_v3_business_search&utm_source=Wu9gfEkr1Iqmmu5UKQvcJw
ha-long-vietnamese-restaurant-irvine,"['thai', 'desserts', 'vietnamese']","['Thai', 'Desserts', 'Vietnamese']",34.1551857573081,-117.239066362381,(949) 645-3736,10507.242648662916,5EIV28d_dj3D7LnMn4bPjQ,,3850 Barranca Pkwy,#D,,Irvine,US,CA,92606,Ha Long  Vietnamese Restaurant,+19496453736,,1.0,1,[],https://www.yelp.com/biz/ha-long-vietnamese-restaurant-irvine?adjust_creative=Wu9gfEkr1Iqmmu5UKQvcJw&utm_campaign=yelp_api_v3&utm_medium=api_v3_business_search&utm_source=Wu9gfEkr1Iqmmu5UKQvcJw
pho-lotus-chino-2,"['vietnamese', 'coffee']","['Vietnamese', 'Coffee & Tea']",34.0337949,-117.6858071,(909) 613-0705,43604.56634857728,12v5Heop_o6O7GvV3WBMjQ,https://s3-media3.fl.yelpcdn.com/bphoto/nrxrHlLANFPf7ZtfdmsQ7w/o.jpg,5460 Philadelphia St,Ste E,,Chino,US,CA,91710,Pho Lotus,+19096130705,$,4.0,197,['pickup'],https://www.yelp.com/biz/pho-lotus-chino-2?adjust_creative=Wu9gfEkr1Iqmmu5UKQvcJw&utm_campaign=yelp_api_v3&utm_medium=api_v3_business_search&utm_source=Wu9gfEkr1Iqmmu5UKQvcJw
rialto-thai-kitchen-rialto,['thai'],['Thai'],34.1073,-117.39941,(909) 640-7055,18340.606875127934,oBwdbxV_FrpMLrsfk6XFaA,https://s3-media4.fl.yelpcdn.com/bphoto/gSDVsPmc-wyJO91kN5x88w/o.jpg,1424 W Foothill Blvd,Ste A,,Rialto,US,CA,92376,Rialto Thai Kitchen,+19096407055,$$,4.0,108,"['delivery', 'pickup']",https://www.yelp.com/biz/rialto-thai-kitchen-rialto?adjust_creative=Wu9gfEkr1Iqmmu5UKQvcJw&utm_campaign=yelp_api_v3&utm_medium=api_v3_business_search&utm_source=Wu9gfEkr1Iqmmu5UKQvcJw
pho-golden-star-chino-3,"['vietnamese', 'noodles', 'soup']","['Vietnamese', 'Noodles', 'Soup']",34.0328323,-117.6896849,(909) 464-2789,44039.59729919659,J_QGdQ-8pMP3VSEjcOCUAA,https://s3-media3.fl.yelpcdn.com/bphoto/J3knvaFnlbGAM965514PiA/o.jpg,12136 Central Ave,,,Chino,US,CA,91710,Pho Golden Star,+19094642789,$,4.0,103,[],https://www.yelp.com/biz/pho-golden-star-chino-3?adjust_creative=Wu9gfEkr1Iqmmu5UKQvcJw&utm_campaign=yelp_api_v3&utm_medium=api_v3_business_search&utm_source=Wu9gfEkr1Iqmmu5UKQvcJw
pho-ha-7-riverside-4,['vietnamese'],['Vietnamese'],33.93948,-117.28058,(951) 235-3377,33617.3621295862,lBrCVdc48dDxrSnr1B9CpA,https://s3-media2.fl.yelpcdn.com/bphoto/KqSJKpoTtPhutrev14Fk8A/o.jpg,2851 Canyon Springs Pkwy,Ste C1,,Riverside,US,CA,92507,Pho Ha #7,+19512353377,$,4.0,78,[],https://www.yelp.com/biz/pho-ha-7-riverside-4?adjust_creative=Wu9gfEkr1Iqmmu5UKQvcJw&utm_campaign=yelp_api_v3&utm_medium=api_v3_business_search&utm_source=Wu9gfEkr1Iqmmu5UKQvcJw
pho-ha-riverside,['vietnamese'],['Vietnamese'],33.9136422863314,-117.459528000257,(951) 354-8918,39915.90496358407,jfKZpvKx3-dHkBnN0zJkCg,https://s3-media3.fl.yelpcdn.com/bphoto/hDvWrJ35axjO1t8ZxeLTFw/o.jpg,10185 Magnolia Ave,,,Riverside,US,CA,92503,Pho Ha,+19513548918,$,3.0,498,[],https://www.yelp.com/biz/pho-ha-riverside?adjust_creative=Wu9gfEkr1Iqmmu5UKQvcJw&utm_campaign=yelp_api_v3&utm_medium=api_v3_business_search&utm_source=Wu9gfEkr1Iqmmu5UKQvcJw
dynasty-big-bear-lake,"['chinese', 'asianfusion', 'mongolian']","['Chinese', 'Asian Fusion', 'Mongolian']",34.2435188293457,-116.907836914062,(909) 866-7887,34603.98986993769,JALXi9oBZHdwWliOaw_Jug,https://s3-media2.fl.yelpcdn.com/bphoto/sXvBSlL61wq4n0x59bicXA/o.jpg,40989 Big Bear Blvd,,,Big Bear Lake,US,CA,92315,Dynasty,+19098667887,$$,3.5,325,[],https://www.yelp.com/biz/dynasty-big-bear-lake?adjust_creative=Wu9gfEkr1Iqmmu5UKQvcJw&utm_campaign=yelp_api_v3&utm_medium=api_v3_business_search&utm_source=Wu9gfEkr1Iqmmu5UKQvcJw
lee-s-sandwhiches-rancho-cucamonga,"['sandwiches', 'vietnamese', 'breakfast_brunch']","['Sandwiches', 'Vietnamese', 'Breakfast & Brunch']",34.10541,-117.55813,,29414.274869677974,CNOUHKGvEDYAlXFiw25MMw,https://s3-media4.fl.yelpcdn.com/bphoto/h8JHBNjSOv1JCKao7oBh7A/o.jpg,8110 Milliken Ave,Ste 101,,Rancho Cucamonga,US,CA,91730,Leeâ€™s Sandwhiches,,,3.5,11,[],https://www.yelp.com/biz/lee-s-sandwhiches-rancho-cucamonga?adjust_creative=Wu9gfEkr1Iqmmu5UKQvcJw&utm_campaign=yelp_api_v3&utm_medium=api_v3_business_search&utm_source=Wu9gfEkr1Iqmmu5UKQvcJw
orchid-thai-restaurant-highland,['thai'],['Thai'],34.121868,-117.20965,(909) 862-8060,15015.445371936523,q5aujAsM5hB5Ye6MMC9nlQ,https://s3-media2.fl.yelpcdn.com/bphoto/m0JG0BHdh1l4ohQU_SmgFQ/o.jpg,27266 Baseline St,,,Highland,US,CA,92346,Orchid Thai Restaurant,+19098628060,$,4.0,356,[],https://www.yelp.com/biz/orchid-thai-restaurant-highland?adjust_creative=Wu9gfEkr1Iqmmu5UKQvcJw&utm_campaign=yelp_api_v3&utm_medium=api_v3_business_search&utm_source=Wu9gfEkr1Iqmmu5UKQvcJw
vivi-eatery-riverside-4,"['panasian', 'sportsbars', 'comfortfood']","['Pan Asian', 'Sports Bars', 'Comfort Food']",33.974919,-117.341565,(951) 530-8875,30158.408839730786,3aZ8bD9oYX6zjjcPR5gI4w,https://s3-media2.fl.yelpcdn.com/bphoto/Jv2fGSpBTq2hHRO6zqjriA/o.jpg,1400 University Ave,Ste A101,,Riverside,US,CA,92507,VIVI EATERY,+19515308875,,4.5,38,[],https://www.yelp.com/biz/vivi-eatery-riverside-4?adjust_creative=Wu9gfEkr1Iqmmu5UKQvcJw&utm_campaign=yelp_api_v3&utm_medium=api_v3_business_search&utm_source=Wu9gfEkr1Iqmmu5UKQvcJw
yang-noodle-house-rialto,"['asianfusion', 'noodles', 'chinese']","['Asian Fusion', 'Noodles', 'Chinese']",34.10677,-117.35945,(909) 990-5929,18206.88929534138,jsiwcat_slljwho_2mtxWw,https://s3-media4.fl.yelpcdn.com/bphoto/u_xOAhU-OyM1MP1VqRDf3Q/o.jpg,1374 E Foothill Blvd,Ste C,,Rialto,US,CA,92376,Yang Noodle House,+19099905929,$$,4.5,63,[],https://www.yelp.com/biz/yang-noodle-house-rialto?adjust_creative=Wu9gfEkr1Iqmmu5UKQvcJw&utm_campaign=yelp_api_v3&utm_medium=api_v3_business_search&utm_source=Wu9gfEkr1Iqmmu5UKQvcJw
top-grill-riverside,"['asianfusion', 'lounges']","['Asian Fusion', 'Lounges']",33.9572874716443,-117.330744267302,(951) 530-8668,31942.04612023241,78JHPmmemAKAynduy5OpBw,https://s3-media2.fl.yelpcdn.com/bphoto/piGO0V9NlItN9SReFEFtfA/o.jpg,5225 Canyon Crest Dr,Ste 94,,Riverside,US,CA,92507,Top Grill,+19515308668,$,4.5,173,[],https://www.yelp.com/biz/top-grill-riverside?adjust_creative=Wu9gfEkr1Iqmmu5UKQvcJw&utm_campaign=yelp_api_v3&utm_medium=api_v3_business_search&utm_source=Wu9gfEkr1Iqmmu5UKQvcJw
zero-degrees-loma-linda,"['coffee', 'chicken_wings', 'bubbletea']","['Coffee & Tea', 'Chicken Wings', 'Bubble Tea']",34.06365,-117.26024,(909) 478-7868,19931.150668474544,IyRIuQ32Z9IhHmEAdsbIUQ,https://s3-media1.fl.yelpcdn.com/bphoto/34m1k3WJkgoYU6EDPA5UrQ/o.jpg,24950 Redlands Blvd,Unit A,,Loma Linda,US,CA,92354,Zero Degrees,+19094787868,$,3.5,181,"['delivery', 'pickup']",https://www.yelp.com/biz/zero-degrees-loma-linda?adjust_creative=Wu9gfEkr1Iqmmu5UKQvcJw&utm_campaign=yelp_api_v3&utm_medium=api_v3_business_search&utm_source=Wu9gfEkr1Iqmmu5UKQvcJw
phillys-steak-and-sub-hesperia,"['sandwiches', 'burgers', 'hotdogs']","['Sandwiches', 'Burgers', 'Fast Food']",34.4244719819767,-117.318758555671,(760) 949-5122,20539.47899233824,2nDbIzliaCNOTVjFAP8d9g,https://s3-media2.fl.yelpcdn.com/bphoto/dIcmOyZPdEwqFVitgLw2SQ/o.jpg,15776 Main St,Ste 22,,Hesperia,US,CA,92345,Philly's Steak & Sub,+17609495122,$,4.5,105,[],https://www.yelp.com/biz/phillys-steak-and-sub-hesperia?adjust_creative=Wu9gfEkr1Iqmmu5UKQvcJw&utm_campaign=yelp_api_v3&utm_medium=api_v3_business_search&utm_source=Wu9gfEkr1Iqmmu5UKQvcJw
nokki-thai-kitchen-fontana,['thai'],['Thai'],34.12312,-117.48748,(909) 429-3828,22879.114682749536,rhYIb5UYxeELydlYduOUbQ,https://s3-media3.fl.yelpcdn.com/bphoto/SldNMGmNakutsNIvpECUZA/o.jpg,14548 Baseline Ave,Ste 260,,Fontana,US,CA,92336,Nokki Thai Kitchen,+19094293828,$$,4.5,427,[],https://www.yelp.com/biz/nokki-thai-kitchen-fontana?adjust_creative=Wu9gfEkr1Iqmmu5UKQvcJw&utm_campaign=yelp_api_v3&utm_medium=api_v3_business_search&utm_source=Wu9gfEkr1Iqmmu5UKQvcJw
jasmine-thai-cusine-colton,['thai'],['Thai'],34.0501146032612,-117.309761680663,(909) 533-4456,21460.863335338774,7WFtUiOFdI0zAbBO9qJqzQ,https://s3-media3.fl.yelpcdn.com/bphoto/akliEvaW_LonTQKxngBAdw/o.jpg,1091 S Mt Vernon Ave,Unit K,,Colton,US,CA,92324,Jasmine Thai Cusine,+19095334456,,4.5,34,"['delivery', 'pickup']",https://www.yelp.com/biz/jasmine-thai-cusine-colton?adjust_creative=Wu9gfEkr1Iqmmu5UKQvcJw&utm_campaign=yelp_api_v3&utm_medium=api_v3_business_search&utm_source=Wu9gfEkr1Iqmmu5UKQvcJw
lees-sandwiches-rancho-cucamonga,"['sandwiches', 'vietnamese', 'coffee']","['Sandwiches', 'Vietnamese', 'Coffee & Tea']",34.10541,-117.55813,(909) 285-0051,29431.961560826974,ILM7EGggQBWHPPibCeT9kA,https://s3-media1.fl.yelpcdn.com/bphoto/SYBOC--l5pCslmZRDcrenA/o.jpg,8110 Milliken Ave,Ste 101,,Rancho Cucamonga,US,CA,91730,Lee's Sandwiches,+19092850051,$,3.0,56,"['delivery', 'pickup']",https://www.yelp.com/biz/lees-sandwiches-rancho-cucamonga?adjust_creative=Wu9gfEkr1Iqmmu5UKQvcJw&utm_campaign=yelp_api_v3&utm_medium=api_v3_business_search&utm_source=Wu9gfEkr1Iqmmu5UKQvcJw
mu-redlands,"['bars', 'thai']","['Bars', 'Thai']",34.0561790466309,-117.186378479004,(909) 798-7747,22532.83892575044,dxcH0ufIZQ3AjddesCjSlw,https://s3-media2.fl.yelpcdn.com/bphoto/tkoXyJgkgFLn1vUURMXjWA/o.jpg,309 W State St,,,Redlands,US,CA,92373,Mu,+19097987747,$$,4.0,338,[],https://www.yelp.com/biz/mu-redlands?adjust_creative=Wu9gfEkr1Iqmmu5UKQvcJw&utm_campaign=yelp_api_v3&utm_medium=api_v3_business_search&utm_source=Wu9gfEkr1Iqmmu5UKQvcJw
papaya-bay-banning,['thai'],['Thai'],33.9256699,-116.88292,(951) 922-3538,51024.605045892305,lpu4K8RUumbIK_s-9wdA6A,https://s3-media3.fl.yelpcdn.com/bphoto/Ia2T20RmrZk_nMXc8V9QLg/o.jpg,575 W Ramsey St,,,Banning,US,CA,92220,Papaya Bay,+19519223538,$$,4.0,397,[],https://www.yelp.com/biz/papaya-bay-banning?adjust_creative=Wu9gfEkr1Iqmmu5UKQvcJw&utm_campaign=yelp_api_v3&utm_medium=api_v3_business_search&utm_source=Wu9gfEkr1Iqmmu5UKQvcJw
flavourful-norco,"['coffee', 'bubbletea', 'juicebars']","['Coffee & Tea', 'Bubble Tea', 'Juice Bars & Smoothies']",33.913714,-117.561284,(909) 272-8641,44531.2888019831,sc0kKOcjpYbIwdEpgGeemA,https://s3-media3.fl.yelpcdn.com/bphoto/I6MZH9f4YC88MIHGNcbc6Q/o.jpg,2200 Hamner Ave,Ste 102,,Norco,US,CA,92860,Flavourful,+19092728641,$,4.0,469,[],https://www.yelp.com/biz/flavourful-norco?adjust_creative=Wu9gfEkr1Iqmmu5UKQvcJw&utm_campaign=yelp_api_v3&utm_medium=api_v3_business_search&utm_source=Wu9gfEkr1Iqmmu5UKQvcJw
the-bar-and-noodle-upland,"['sushi', 'ramen', 'asianfusion']","['Sushi Bars', 'Ramen', 'Asian Fusion']",34.1217092235211,-117.764153738557,(909) 921-0085,39813.869191401776,ZUURd6X8lKRKZDunpU6G3g,https://s3-media3.fl.yelpcdn.com/bphoto/kPBAxcDPamlr3vOMlxR_RA/o.jpg,2153 W Baseline Rd,,,Upland,US,CA,91784,The Bar and Noodle,+19099210085,$$,4.0,78,[],https://www.yelp.com/biz/the-bar-and-noodle-upland?adjust_creative=Wu9gfEkr1Iqmmu5UKQvcJw&utm_campaign=yelp_api_v3&utm_medium=api_v3_business_search&utm_source=Wu9gfEkr1Iqmmu5UKQvcJw
thai-kitchen-grand-terrace,"['thai', 'asianfusion']","['Thai', 'Asian Fusion']",34.0338846,-117.3163433,(909) 370-2202,23324.46669434538,NJpBe_1VhnyMZ7zhzccdgA,https://s3-media1.fl.yelpcdn.com/bphoto/vdtjSznozoY1_z0Orq8dOA/o.jpg,22411 Barton Rd,,,Grand Terrace,US,CA,92313,Thai Kitchen,+19093702202,$,4.5,454,['pickup'],https://www.yelp.com/biz/thai-kitchen-grand-terrace?adjust_creative=Wu9gfEkr1Iqmmu5UKQvcJw&utm_campaign=yelp_api_v3&utm_medium=api_v3_business_search&utm_source=Wu9gfEkr1Iqmmu5UKQvcJw
tim-boba-riverside-3,['bubbletea'],['Bubble Tea'],33.9752788880293,-117.342924400525,(951) 462-1929,30141.170604549283,YED9Nk1He_HQ5ZM4jC1lmQ,https://s3-media4.fl.yelpcdn.com/bphoto/2XvqoFuO7kh6sxCfs0C4FQ/o.jpg,1450 University Ave,Ste N,,Riverside,US,CA,92507,Tim Boba,+19514621929,$,4.5,153,[],https://www.yelp.com/biz/tim-boba-riverside-3?adjust_creative=Wu9gfEkr1Iqmmu5UKQvcJw&utm_campaign=yelp_api_v3&utm_medium=api_v3_business_search&utm_source=Wu9gfEkr1Iqmmu5UKQvcJw
thai-house-restaurant-redlands,"['thai', 'chinese', 'bars']","['Thai', 'Chinese', 'Bars']",34.06326,-117.21675,(909) 798-3143,20811.122123879864,gOgAA5JPE0ncLqBxHuFmLw,https://s3-media4.fl.yelpcdn.com/bphoto/cFtV_9z1xSzJqM_PWo2Qjg/o.jpg,1824 W Redlands Blvd,,,Redlands,US,CA,92373,Thai House Restaurant,+19097983143,$$,4.0,588,[],https://www.yelp.com/biz/thai-house-restaurant-redlands?adjust_creative=Wu9gfEkr1Iqmmu5UKQvcJw&utm_campaign=yelp_api_v3&utm_medium=api_v3_business_search&utm_source=Wu9gfEkr1Iqmmu5UKQvcJw
boscos-diner-victorville,"['tradamerican', 'breakfast_brunch', 'asianfusion']","['American (Traditional)', 'Breakfast & Brunch', 'Asian Fusion']",34.50501,-117.32439,(760) 843-6888,29480.689297537538,hdaUvq41_q-lsABx5WWueQ,https://s3-media3.fl.yelpcdn.com/bphoto/p_4LuACpr_5WmLxXsrdDdQ/o.jpg,15429 Anacapa Rd,,,Victorville,US,CA,92392,Bosco's Diner,+17608436888,$,4.5,185,[],https://www.yelp.com/biz/boscos-diner-victorville?adjust_creative=Wu9gfEkr1Iqmmu5UKQvcJw&utm_campaign=yelp_api_v3&utm_medium=api_v3_business_search&utm_source=Wu9gfEkr1Iqmmu5UKQvcJw
foxy-noodles-and-bbq-upland-2,"['noodles', 'asianfusion']","['Noodles', 'Asian Fusion']",34.1000028594647,-117.671911838421,(909) 920-6889,38998.25432276537,lbvvdKZ8XFu3JLtokv88DQ,https://s3-media1.fl.yelpcdn.com/bphoto/en9IGwRpCGmBXzOCO27y6g/o.jpg,507 N Mountain Ave,,,Upland,US,CA,91786,Foxy Noodles & BBQ,+19099206889,$$,4.5,148,"['delivery', 'pickup']",https://www.yelp.com/biz/foxy-noodles-and-bbq-upland-2?adjust_creative=Wu9gfEkr1Iqmmu5UKQvcJw&utm_campaign=yelp_api_v3&utm_medium=api_v3_business_search&utm_source=Wu9gfEkr1Iqmmu5UKQvcJw
cha2o-riverside-2,"['coffee', 'vietnamese', 'desserts']","['Coffee & Tea', 'Vietnamese', 'Desserts']",33.97555,-117.34206,(951) 783-9333,30114.823174090005,dePx-fPme_TC1hI59NloLA,https://s3-media4.fl.yelpcdn.com/bphoto/0mKlRRhMTxSLfYYwY9PvhQ/o.jpg,1400 University Ave,Ste 104,,Riverside,US,CA,92507,Cha2O,+19517839333,$,3.5,199,[],https://www.yelp.com/biz/cha2o-riverside-2?adjust_creative=Wu9gfEkr1Iqmmu5UKQvcJw&utm_campaign=yelp_api_v3&utm_medium=api_v3_business_search&utm_source=Wu9gfEkr1Iqmmu5UKQvcJw
red-chilli-redlands,['chinese'],['Chinese'],34.063911829919,-117.22542559259,(909) 798-3929,20525.82403360968,rI284E16VXPUKDQwbv-9tA,https://s3-media1.fl.yelpcdn.com/bphoto/fXmCPM9FEpHajgSmYabGmg/o.jpg,2094 W Redlands Blvd,Ste C,,Redlands,US,CA,92373,Red Chilli,+19097983929,$$,4.0,373,"['delivery', 'pickup']",https://www.yelp.com/biz/red-chilli-redlands?adjust_creative=Wu9gfEkr1Iqmmu5UKQvcJw&utm_campaign=yelp_api_v3&utm_medium=api_v3_business_search&utm_source=Wu9gfEkr1Iqmmu5UKQvcJw
little-beijing-san-bernardino,['chinese'],['Chinese'],34.16305,-117.30495,(909) 886-7570,8877.627760760422,AjNUJvya9yUU4o2ImHHERA,https://s3-media2.fl.yelpcdn.com/bphoto/zStRDk4oZpPSadDa2I8-Ew/o.jpg,967 Kendall Dr,Ste E,,San Bernardino,US,CA,92407,Little Beijing,+19098867570,$,3.5,79,[],https://www.yelp.com/biz/little-beijing-san-bernardino?adjust_creative=Wu9gfEkr1Iqmmu5UKQvcJw&utm_campaign=yelp_api_v3&utm_medium=api_v3_business_search&utm_source=Wu9gfEkr1Iqmmu5UKQvcJw
panda-max-asian-cuisine-yucaipa,"['thai', 'chinese', 'asianfusion']","['Thai', 'Chinese', 'Asian Fusion']",34.03358,-117.03916,(909) 790-8838,32346.08235068557,UOvFnEEt7Q6hRBV-97sRvA,https://s3-media2.fl.yelpcdn.com/bphoto/WWvvnvF-edMMdFfl6xCkPQ/o.jpg,12116 California St,Ste B,,Yucaipa,US,CA,92399,Panda Max Asian Cuisine,+19097908838,$,4.5,51,[],https://www.yelp.com/biz/panda-max-asian-cuisine-yucaipa?adjust_creative=Wu9gfEkr1Iqmmu5UKQvcJw&utm_campaign=yelp_api_v3&utm_medium=api_v3_business_search&utm_source=Wu9gfEkr1Iqmmu5UKQvcJw
7-leaves-cafe-chino-hills-2,"['coffee', 'macarons']","['Coffee & Tea', 'Macarons']",33.9640772321239,-117.688542510942,(909) 325-2745,48363.246327771856,iJVMzHBGBKiFH-Mnijf4qg,https://s3-media1.fl.yelpcdn.com/bphoto/lojxcGUF01P0AVxVJwmS9Q/o.jpg,15911 Pomona Rincon Rd,Ste 100,,Chino Hills,US,CA,91709,7 Leaves Cafe,+19093252745,$,4.5,25,[],https://www.yelp.com/biz/7-leaves-cafe-chino-hills-2?adjust_creative=Wu9gfEkr1Iqmmu5UKQvcJw&utm_campaign=yelp_api_v3&utm_medium=api_v3_business_search&utm_source=Wu9gfEkr1Iqmmu5UKQvcJw
royal-orchid-thai-restaurant-riverside,['thai'],['Thai'],33.9179434532185,-117.452183934611,(951) 354-6100,39207.13959572126,zlrZBF5AWD-m8lYcNh4XCA,https://s3-media2.fl.yelpcdn.com/bphoto/VMagjLmYvphz0dId5jCE1w/o.jpg,9791 Magnolia Ave,,,Riverside,US,CA,92503,Royal Orchid Thai Restaurant,+19513546100,$,4.0,298,"['delivery', 'pickup']",https://www.yelp.com/biz/royal-orchid-thai-restaurant-riverside?adjust_creative=Wu9gfEkr1Iqmmu5UKQvcJw&utm_campaign=yelp_api_v3&utm_medium=api_v3_business_search&utm_source=Wu9gfEkr1Iqmmu5UKQvcJw
ruis-shanghai-bistro-redlands,['shanghainese'],['Shanghainese'],34.06991,-117.21355,(909) 335-6770,20208.82653608327,9myWa7KY9Hh6VQsL6aUBUQ,https://s3-media1.fl.yelpcdn.com/bphoto/P4jXiKp9d1DchnBJ_oEb_A/o.jpg,1711 W Lugonia Ave,Ste 101,,Redlands,US,CA,92374,Rui's Shanghai Bistro,+19093356770,$$,4.5,155,"['delivery', 'pickup']",https://www.yelp.com/biz/ruis-shanghai-bistro-redlands?adjust_creative=Wu9gfEkr1Iqmmu5UKQvcJw&utm_campaign=yelp_api_v3&utm_medium=api_v3_business_search&utm_source=Wu9gfEkr1Iqmmu5UKQvcJw
sams-bann-thai-riverside-2,['thai'],['Thai'],33.9806025,-117.3682348,(951) 742-7694,30071.886951604036,ureR34fUaoWaVYyjgk4ohA,https://s3-media4.fl.yelpcdn.com/bphoto/RUqXP8l7gfuZ2Qwn_L_LOA/o.jpg,3203 Mission Inn Ave,,,Riverside,US,CA,92507,Sam's Bann Thai,+19517427694,$$,4.0,972,"['delivery', 'pickup']",https://www.yelp.com/biz/sams-bann-thai-riverside-2?adjust_creative=Wu9gfEkr1Iqmmu5UKQvcJw&utm_campaign=yelp_api_v3&utm_medium=api_v3_business_search&utm_source=Wu9gfEkr1Iqmmu5UKQvcJw
mr-rice-riverside,['chinese'],['Chinese'],33.97611,-117.33816,(951) 530-8616,29978.03366960556,tkYGAQYSd7QyabGwsRVhIA,https://s3-media3.fl.yelpcdn.com/bphoto/7Sgr2VKURxlYx9gilPbGCA/o.jpg,1223 University Ave,Ste 120,,Riverside,US,CA,92507,Mr. Rice,+19515308616,$$,4.0,10,[],https://www.yelp.com/biz/mr-rice-riverside?adjust_creative=Wu9gfEkr1Iqmmu5UKQvcJw&utm_campaign=yelp_api_v3&utm_medium=api_v3_business_search&utm_source=Wu9gfEkr1Iqmmu5UKQvcJw
boba-planet-rancho-cucamonga,"['sandwiches', 'bubbletea', 'juicebars']","['Sandwiches', 'Bubble Tea', 'Juice Bars & Smoothies']",34.10556,-117.60116,(909) 980-9834,32895.15262233965,eCt5Athq9a_JAyEXGaDJPQ,https://s3-media1.fl.yelpcdn.com/bphoto/eSRzcHaGeaRofmCo-Ysh9Q/o.jpg,9309 Foothill Blvd,Ste B,,Rancho Cucamonga,US,CA,91730,Boba Planet,+19099809834,$,3.5,376,"['delivery', 'pickup']",https://www.yelp.com/biz/boba-planet-rancho-cucamonga?adjust_creative=Wu9gfEkr1Iqmmu5UKQvcJw&utm_campaign=yelp_api_v3&utm_medium=api_v3_business_search&utm_source=Wu9gfEkr1Iqmmu5UKQvcJw
gen-korean-bbq-house-rancho-cucamonga-2,"['korean', 'bbq', 'asianfusion']","['Korean', 'Barbeque', 'Asian Fusion']",34.1058509,-117.5469688,(909) 944-1878,28513.690359235734,QRcdEUzQaDFiZcQIwhmJZw,https://s3-media3.fl.yelpcdn.com/bphoto/8MxAVHIiN4G8hhAhJajUSQ/o.jpg,11837 E Foothill Blvd,Ste A,,Rancho Cucamonga,US,CA,91730,Gen Korean BBQ House,+19099441878,$$,4.0,2964,[],https://www.yelp.com/biz/gen-korean-bbq-house-rancho-cucamonga-2?adjust_creative=Wu9gfEkr1Iqmmu5UKQvcJw&utm_campaign=yelp_api_v3&utm_medium=api_v3_business_search&utm_source=Wu9gfEkr1Iqmmu5UKQvcJw
thai-bowl-cafe-loma-linda,"['thai', 'salad']","['Thai', 'Salad']",34.06272,-117.2575,(909) 478-5609,20093.959434260563,jrxHxNHHiyySXO6jQ-odVQ,https://s3-media1.fl.yelpcdn.com/bphoto/Ipc9bxeTBay0YNLDyIux4w/o.jpg,25069 Redlands Blvd,Ste A,,Loma Linda,US,CA,92354,Thai Bowl Cafe,+19094785609,$,4.0,197,[],https://www.yelp.com/biz/thai-bowl-cafe-loma-linda?adjust_creative=Wu9gfEkr1Iqmmu5UKQvcJw&utm_campaign=yelp_api_v3&utm_medium=api_v3_business_search&utm_source=Wu9gfEkr1Iqmmu5UKQvcJw
zero-x-riverside,"['coffee', 'tea', 'bubbletea']","['Coffee & Tea', 'Tea Rooms', 'Bubble Tea']",33.97599,-117.35233,(951) 530-8186,30241.17446451749,xme4KKR3l7iDaLKsUzVqeA,https://s3-media4.fl.yelpcdn.com/bphoto/RH_UDGJ9xL0-3-bnxEm8_w/o.jpg,1889 University Ave,Ste 105,,Riverside,US,CA,92507,Zero X,+19515308186,$$,4.0,360,[],https://www.yelp.com/biz/zero-x-riverside?adjust_creative=Wu9gfEkr1Iqmmu5UKQvcJw&utm_campaign=yelp_api_v3&utm_medium=api_v3_business_search&utm_source=Wu9gfEkr1Iqmmu5UKQvcJw
tempe-house-spicy-food-san-bernardino-2,"['indonesian', 'asianfusion']","['Indonesian', 'Asian Fusion']",34.1050389,-117.2594524,(909) 889-2222,15395.637075321443,7RoH2aplEQ4j5lgOnXYIaQ,https://s3-media3.fl.yelpcdn.com/bphoto/6qOevEFKs0cQtgV4lc2Ygg/o.jpg,24984 3rd St,,,San Bernardino,US,CA,92410,Tempe House Spicy Food,+19098892222,$,4.5,104,[],https://www.yelp.com/biz/tempe-house-spicy-food-san-bernardino-2?adjust_creative=Wu9gfEkr1Iqmmu5UKQvcJw&utm_campaign=yelp_api_v3&utm_medium=api_v3_business_search&utm_source=Wu9gfEkr1Iqmmu5UKQvcJw
roasting-water-riverside,"['coffee', 'bubbletea', 'desserts']","['Coffee & Tea', 'Bubble Tea', 'Desserts']",33.97467,-117.34865,(951) 289-9056,30323.044335987393,-eOlnu8--rZu2yxhp6hnZw,https://s3-media3.fl.yelpcdn.com/bphoto/0WnqMpSYQ8tqWjvtvHiC0Q/o.jpg,3907 Chicago Ave,,,Riverside,US,CA,92507,Roasting Water,+19512899056,,4.5,154,[],https://www.yelp.com/biz/roasting-water-riverside?adjust_creative=Wu9gfEkr1Iqmmu5UKQvcJw&utm_campaign=yelp_api_v3&utm_medium=api_v3_business_search&utm_source=Wu9gfEkr1Iqmmu5UKQvcJw
wingz-and-tea-rancho-cucamonga,"['chicken_wings', 'bubbletea', 'gourmet']","['Chicken Wings', 'Bubble Tea', 'Specialty Food']",34.1101431,-117.5705511,(909) 466-9930,30206.444300586652,axCnooZzRkpTPpfNwgO0ng,https://s3-media4.fl.yelpcdn.com/bphoto/61Y7HZOPDKIqqy5bUGYgIA/o.jpg,10709 Town Center Dr,Ste 110,,Rancho Cucamonga,US,CA,91730,Wingz & Tea,+19094669930,$,4.0,188,[],https://www.yelp.com/biz/wingz-and-tea-rancho-cucamonga?adjust_creative=Wu9gfEkr1Iqmmu5UKQvcJw&utm_campaign=yelp_api_v3&utm_medium=api_v3_business_search&utm_source=Wu9gfEkr1Iqmmu5UKQvcJw
little-buddha-thai-kitchen-mira-loma,['thai'],['Thai'],33.9745081836776,-117.544145786508,(951) 432-7293,38168.13699791843,T7SaZpSnstZHDhUAdmXqmg,https://s3-media1.fl.yelpcdn.com/bphoto/UAQkd_xJRhj1arodD9K8zg/o.jpg,6237 Pats Ranch Rd,Ste E,,Mira Loma,US,CA,91752,Little Buddha Thai Kitchen,+19514327293,$$,4.5,954,"['delivery', 'pickup']",https://www.yelp.com/biz/little-buddha-thai-kitchen-mira-loma?adjust_creative=Wu9gfEkr1Iqmmu5UKQvcJw&utm_campaign=yelp_api_v3&utm_medium=api_v3_business_search&utm_source=Wu9gfEkr1Iqmmu5UKQvcJw
thai-thani-cuisine-chino,"['thai', 'asianfusion', 'noodles']","['Thai', 'Asian Fusion', 'Noodles']",34.0274701,-117.6891651,(909) 591-6655,44229.53272197607,vr8mjKadlteZQDqlvWhcIg,https://s3-media4.fl.yelpcdn.com/bphoto/YWdjgXDipfQ2O9EzbiHoZQ/o.jpg,12433 Central Ave,,,Chino,US,CA,91710,Thai Thani Cuisine,+19095916655,$,4.5,851,"['delivery', 'pickup']",https://www.yelp.com/biz/thai-thani-cuisine-chino?adjust_creative=Wu9gfEkr1Iqmmu5UKQvcJw&utm_campaign=yelp_api_v3&utm_medium=api_v3_business_search&utm_source=Wu9gfEkr1Iqmmu5UKQvcJw
paris-pastries-rancho-cucamonga,"['french', 'sandwiches', 'bakeries']","['French', 'Sandwiches', 'Bakeries']",34.105042189749,-117.576342076063,(909) 476-1006,30881.53471534941,xg1WER4IRxJzNGEUR6fdDQ,https://s3-media2.fl.yelpcdn.com/bphoto/4ywa4zb7GK9dd1ynk-pfAw/o.jpg,8220 Haven Ave,,,Rancho Cucamonga,US,CA,91730,Paris Pastries,+19094761006,$$,4.5,499,"['delivery', 'pickup']",https://www.yelp.com/biz/paris-pastries-rancho-cucamonga?adjust_creative=Wu9gfEkr1Iqmmu5UKQvcJw&utm_campaign=yelp_api_v3&utm_medium=api_v3_business_search&utm_source=Wu9gfEkr1Iqmmu5UKQvcJw
royal-thai-cafe-big-bear-lake,['thai'],['Thai'],34.2399732,-116.9125578,(909) 866-2808,34171.04723149483,0cmp-fxkYCJnbj-E_QgklQ,https://s3-media2.fl.yelpcdn.com/bphoto/adcHtKtAwFCQcF14Mc05jw/o.jpg,40766 Village Dr,,,Big Bear Lake,US,CA,92315,Royal Thai Cafe,+19098662808,$$,3.0,375,"['delivery', 'pickup']",https://www.yelp.com/biz/royal-thai-cafe-big-bear-lake?adjust_creative=Wu9gfEkr1Iqmmu5UKQvcJw&utm_campaign=yelp_api_v3&utm_medium=api_v3_business_search&utm_source=Wu9gfEkr1Iqmmu5UKQvcJw
boonsee-thai-kitchen-rancho-cucamonga-rancho-cucamonga,['thai'],['Thai'],34.1345699,-117.55706,(909) 758-0345,27791.39782454861,1AFFMrBaHBxetsMQmeGJfA,https://s3-media4.fl.yelpcdn.com/bphoto/W-KiElb_m7GL8jX-o-yptg/o.jpg,11368 Kenyon Way,,,Rancho Cucamonga,US,CA,91701,Boonsee Thai Kitchen - Rancho Cucamonga,+19097580345,$$,4.0,459,"['delivery', 'pickup']",https://www.yelp.com/biz/boonsee-thai-kitchen-rancho-cucamonga-rancho-cucamonga?adjust_creative=Wu9gfEkr1Iqmmu5UKQvcJw&utm_campaign=yelp_api_v3&utm_medium=api_v3_business_search&utm_source=Wu9gfEkr1Iqmmu5UKQvcJw
noodle-world-jr-ontario-3,"['asianfusion', 'noodles']","['Asian Fusion', 'Noodles']",34.0752006095515,-117.546346557103,(909) 655-1888,30418.04228812888,zcskxgXjdmiQUGPChmwIag,https://s3-media3.fl.yelpcdn.com/bphoto/_DKrM2oetO0tGFvbfSFi1w/o.jpg,960 Ontario Mills Dr,,,Ontario,US,CA,91764,Noodle World Jr,+19096551888,$,3.5,224,[],https://www.yelp.com/biz/noodle-world-jr-ontario-3?adjust_creative=Wu9gfEkr1Iqmmu5UKQvcJw&utm_campaign=yelp_api_v3&utm_medium=api_v3_business_search&utm_source=Wu9gfEkr1Iqmmu5UKQvcJw
jimmy-johns-victorville,['sandwiches'],['Sandwiches'],34.4707925754049,-117.35289696604,(760) 955-6000,26212.597122463452,bcOdjMqBdUAs91NbVdksxg,https://s3-media1.fl.yelpcdn.com/bphoto/xKheAnGRsw38ZmP-Fyxw5w/o.jpg,14250 Bear Valley Rd,,,Victorville,US,CA,92392,Jimmy John's,+17609556000,$,4.0,33,[],https://www.yelp.com/biz/jimmy-johns-victorville?adjust_creative=Wu9gfEkr1Iqmmu5UKQvcJw&utm_campaign=yelp_api_v3&utm_medium=api_v3_business_search&utm_source=Wu9gfEkr1Iqmmu5UKQvcJw
toro-bowl-bistro-and-bar-yucaipa,"['asianfusion', 'chinese', 'sushi']","['Asian Fusion', 'Chinese', 'Sushi Bars']",34.0346562773422,-117.055843111415,(909) 797-1678,31199.44020340731,d1h-Xmz4VdMFQsNSHHjJcw,https://s3-media4.fl.yelpcdn.com/bphoto/9SenBYUihBS1FJPgpU0EtA/o.jpg,12045 5th St,Ste A,,Yucaipa,US,CA,92399,Toro Bowl Bistro and Bar,+19097971678,$$,3.5,264,['pickup'],https://www.yelp.com/biz/toro-bowl-bistro-and-bar-yucaipa?adjust_creative=Wu9gfEkr1Iqmmu5UKQvcJw&utm_campaign=yelp_api_v3&utm_medium=api_v3_business_search&utm_source=Wu9gfEkr1Iqmmu5UKQvcJw
super-subs-banning,"['sandwiches', 'salad', 'hotdog']","['Sandwiches', 'Salad', 'Hot Dogs']",33.9263763,-116.8766094,(951) 849-9445,51390.57365391312,WZV11ceyN8VdNlGtPoToBA,https://s3-media1.fl.yelpcdn.com/bphoto/QShHL46D5yZfoi-n786HTg/o.jpg,112 N San Gorgonio Ave,,,Banning,US,CA,92220,Super Subs,+19518499445,$,5.0,198,[],https://www.yelp.com/biz/super-subs-banning?adjust_creative=Wu9gfEkr1Iqmmu5UKQvcJw&utm_campaign=yelp_api_v3&utm_medium=api_v3_business_search&utm_source=Wu9gfEkr1Iqmmu5UKQvcJw
vegan-korner-colton,"['pizza', 'vegan']","['Pizza', 'Vegan']",34.07767,-117.32558,(909) 370-2644,18655.16596973003,f-XdrGxjIbOL8pINYh-LYA,https://s3-media2.fl.yelpcdn.com/bphoto/edK6iIZOVqeOly2WuGsxgg/o.jpg,299 W Olive St,,,Colton,US,CA,92324,Vegan Korner,+19093702644,$$,4.5,230,"['delivery', 'pickup']",https://www.yelp.com/biz/vegan-korner-colton?adjust_creative=Wu9gfEkr1Iqmmu5UKQvcJw&utm_campaign=yelp_api_v3&utm_medium=api_v3_business_search&utm_source=Wu9gfEkr1Iqmmu5UKQvcJw
yogiyo-frozen-yogurt-upland-2,"['icecream', 'bubbletea', 'desserts']","['Ice Cream & Frozen Yogurt', 'Bubble Tea', 'Desserts']",34.1330734,-117.6373658,(909) 982-0910,34676.1324726747,0lJ83Pd5XP8cGtiA3onINQ,https://s3-media1.fl.yelpcdn.com/bphoto/KW-aEojoq6eHWhwhntTEyA/o.jpg,1945 N Campus Ave,,,Upland,US,CA,91784,Yogiyo Frozen Yogurt,+19099820910,$,4.0,113,[],https://www.yelp.com/biz/yogiyo-frozen-yogurt-upland-2?adjust_creative=Wu9gfEkr1Iqmmu5UKQvcJw&utm_campaign=yelp_api_v3&utm_medium=api_v3_business_search&utm_source=Wu9gfEkr1Iqmmu5UKQvcJw
grapow-thai-riverside,"['thai', 'asianfusion', 'seafood']","['Thai', 'Asian Fusion', 'Seafood']",33.9150635083212,-117.322000853319,(951) 780-1132,36514.99264906243,N6OAFpCd1YgXpFndbr0K3g,https://s3-media1.fl.yelpcdn.com/bphoto/GLmRpg_jZqfSl9iEn0P6gQ/o.jpg,497 Alessandro Blvd,,,Riverside,US,CA,92508,Grapow Thai,+19517801132,$$,3.5,867,[],https://www.yelp.com/biz/grapow-thai-riverside?adjust_creative=Wu9gfEkr1Iqmmu5UKQvcJw&utm_campaign=yelp_api_v3&utm_medium=api_v3_business_search&utm_source=Wu9gfEkr1Iqmmu5UKQvcJw
kung-fu-tea-rancho-cucamonga,"['bubbletea', 'coffee', 'juicebars']","['Bubble Tea', 'Coffee & Tea', 'Juice Bars & Smoothies']",34.1075,-117.52718,(909) 922-8888,26891.572481887524,dwNiAFVC7o3RTZSfgbGrgg,https://s3-media3.fl.yelpcdn.com/bphoto/OStkOex2CB0hMbr2BabBRQ/o.jpg,12732 Foothill Blvd,Ste 101,,Rancho Cucamonga,US,CA,91739,Kung Fu Tea,+19099228888,$,4.0,299,[],https://www.yelp.com/biz/kung-fu-tea-rancho-cucamonga?adjust_creative=Wu9gfEkr1Iqmmu5UKQvcJw&utm_campaign=yelp_api_v3&utm_medium=api_v3_business_search&utm_source=Wu9gfEkr1Iqmmu5UKQvcJw
riverside-thai-kitchen-riverside,['thai'],['Thai'],33.94561,-117.419,(951) 729-6675,35230.93755502808,k7R3DnEMaxPXrarwzD_N-g,https://s3-media1.fl.yelpcdn.com/bphoto/OjLOoAR0xoJjOooy19LbPw/o.jpg,7755 California Ave,,,Riverside,US,CA,92504,Riverside Thai Kitchen,+19517296675,$,4.5,345,"['delivery', 'pickup']",https://www.yelp.com/biz/riverside-thai-kitchen-riverside?adjust_creative=Wu9gfEkr1Iqmmu5UKQvcJw&utm_campaign=yelp_api_v3&utm_medium=api_v3_business_search&utm_source=Wu9gfEkr1Iqmmu5UKQvcJw
thai-satay-bbq-upland,"['thai', 'chinese', 'bbq']","['Thai', 'Chinese', 'Barbeque']",34.1069196417213,-117.630263488386,(909) 920-0199,35198.06396984393,nc-207kh8Ic0zmxUI_Pd1g,https://s3-media2.fl.yelpcdn.com/bphoto/jeY1f18lcrJmrXGX42owwQ/o.jpg,1403 E Foothill Blvd,,,Upland,US,CA,91786,Thai Satay BBQ,+19099200199,$,4.0,191,[],https://www.yelp.com/biz/thai-satay-bbq-upland?adjust_creative=Wu9gfEkr1Iqmmu5UKQvcJw&utm_campaign=yelp_api_v3&utm_medium=api_v3_business_search&utm_source=Wu9gfEkr1Iqmmu5UKQvcJw
5steas-riverside,"['bubbletea', 'coffee', 'juicebars']","['Bubble Tea', 'Coffee & Tea', 'Juice Bars & Smoothies']",33.94091,-117.39382,(909) 372-2958,34934.125050295785,VoOcstx4tA2It6E-pDTY2A,https://s3-media2.fl.yelpcdn.com/bphoto/InBnKFdpS-V9HfqlVbnW0A/o.jpg,6930 Indiana Ave,Ste 3,,Riverside,US,CA,92506,5s'Teas,+19093722958,$,4.5,130,"['delivery', 'pickup']",https://www.yelp.com/biz/5steas-riverside?adjust_creative=Wu9gfEkr1Iqmmu5UKQvcJw&utm_campaign=yelp_api_v3&utm_medium=api_v3_business_search&utm_source=Wu9gfEkr1Iqmmu5UKQvcJw
olive-avenue-market-redlands,"['sandwiches', 'coffee', 'bakeries']","['Sandwiches', 'Coffee & Tea', 'Bakeries']",34.0503211,-117.1873071,(909) 792-8823,23102.938821754982,Z0m2HMyH6iHA3GXCnK5uzg,https://s3-media3.fl.yelpcdn.com/bphoto/_Jmn0zWsEGrsXiVRtRS7iw/o.jpg,530 W Olive Ave,,,Redlands,US,CA,92373,Olive Avenue Market,+19097928823,$,4.5,385,[],https://www.yelp.com/biz/olive-avenue-market-redlands?adjust_creative=Wu9gfEkr1Iqmmu5UKQvcJw&utm_campaign=yelp_api_v3&utm_medium=api_v3_business_search&utm_source=Wu9gfEkr1Iqmmu5UKQvcJw
jasmine-garden-riverside,['chinese'],['Chinese'],33.976943,-117.457842,(951) 727-8823,33521.83464794498,z8rxNyMb28xDxVOEQL5qpA,https://s3-media2.fl.yelpcdn.com/bphoto/fVsdL2uSvIP2WFbMOboxXg/o.jpg,7990 Limonite Ave,Ste A,,Riverside,US,CA,92509,Jasmine Garden,+19517278823,$,3.0,70,"['delivery', 'pickup']",https://www.yelp.com/biz/jasmine-garden-riverside?adjust_creative=Wu9gfEkr1Iqmmu5UKQvcJw&utm_campaign=yelp_api_v3&utm_medium=api_v3_business_search&utm_source=Wu9gfEkr1Iqmmu5UKQvcJw
sharetea-riverside,"['coffee', 'bubbletea', 'juicebars']","['Coffee & Tea', 'Bubble Tea', 'Juice Bars & Smoothies']",33.9048350051842,-117.472470849752,(951) 406-5165,41299.80190715987,sH5BgkErJkGpjX3hBf183w,https://s3-media1.fl.yelpcdn.com/bphoto/m6RHVpnnRHEp0pzy8gtYBQ/o.jpg,10920 Magnolia Ave,Ste 103,,Riverside,US,CA,92505,Sharetea,+19514065165,$,4.0,57,[],https://www.yelp.com/biz/sharetea-riverside?adjust_creative=Wu9gfEkr1Iqmmu5UKQvcJw&utm_campaign=yelp_api_v3&utm_medium=api_v3_business_search&utm_source=Wu9gfEkr1Iqmmu5UKQvcJw
golden-dragon-san-bernardino-2,['chinese'],['Chinese'],34.1690309,-117.3340592,(909) 887-1688,9312.029958253399,gvnf6VWbZ79RNzGREUvyCw,https://s3-media3.fl.yelpcdn.com/bphoto/TFJAHWaUH0KwBjm84naqlQ/o.jpg,4434 University Pkwy,,,San Bernardino,US,CA,92407,Golden Dragon,+19098871688,$,3.0,57,[],https://www.yelp.com/biz/golden-dragon-san-bernardino-2?adjust_creative=Wu9gfEkr1Iqmmu5UKQvcJw&utm_campaign=yelp_api_v3&utm_medium=api_v3_business_search&utm_source=Wu9gfEkr1Iqmmu5UKQvcJw
river-khwae-thai-cuisine-moreno-valley,['thai'],['Thai'],33.91821,-117.24762,(951) 413-6075,36223.87516251878,t7k-7b4QJkVpKz32wPYNYQ,https://s3-media3.fl.yelpcdn.com/bphoto/8OoIWcK_Kjt8uAZjHWDMdA/o.jpg,23750 Alessandro Blvd,Ste #L 101,Ste L 101,Moreno Valley,US,CA,92553,River Khwae Thai Cuisine,+19514136075,$,4.0,268,"['delivery', 'pickup']",https://www.yelp.com/biz/river-khwae-thai-cuisine-moreno-valley?adjust_creative=Wu9gfEkr1Iqmmu5UKQvcJw&utm_campaign=yelp_api_v3&utm_medium=api_v3_business_search&utm_source=Wu9gfEkr1Iqmmu5UKQvcJw
yummy-donuts-and-sub-redlands,"['donuts', 'sandwiches']","['Donuts', 'Sandwiches']",34.0487593,-117.1977102,(909) 793-4999,22913.025229298866,_qqaSHNhPDrjgr_Ch-jPrA,https://s3-media1.fl.yelpcdn.com/bphoto/zT-Ki_-FE5taNhUBqae6oQ/o.jpg,1154 Brookside Ave,,,Redlands,US,CA,92373,Yummy Donuts & Sub,+19097934999,$,4.0,41,[],https://www.yelp.com/biz/yummy-donuts-and-sub-redlands?adjust_creative=Wu9gfEkr1Iqmmu5UKQvcJw&utm_campaign=yelp_api_v3&utm_medium=api_v3_business_search&utm_source=Wu9gfEkr1Iqmmu5UKQvcJw
us-donuts-riverside,"['donuts', 'bagels', 'sandwiches']","['Donuts', 'Bagels', 'Sandwiches']",33.917261,-117.488379,(951) 352-1893,40704.76684365436,UZP-TCFmHeRTR7B0qgnxbw,https://s3-media4.fl.yelpcdn.com/bphoto/hXKSZerzaNtRbxXECBJ-dA/o.jpg,4786 La Sierra Ave,,,Riverside,US,CA,92505,US Donuts,+19513521893,$,4.5,55,[],https://www.yelp.com/biz/us-donuts-riverside?adjust_creative=Wu9gfEkr1Iqmmu5UKQvcJw&utm_campaign=yelp_api_v3&utm_medium=api_v3_business_search&utm_source=Wu9gfEkr1Iqmmu5UKQvcJw
calle-ocho-miami-coffee-house-rancho-cucamonga-3,"['coffee', 'cuban', 'sandwiches']","['Coffee & Tea', 'Cuban', 'Sandwiches']",34.09278,-117.59414,(909) 560-2925,33023.32525470581,p7_NfHDVomkzVEGMmvdQXw,https://s3-media4.fl.yelpcdn.com/bphoto/uY2N729ED7APvH_fjKudRw/o.jpg,8880 Archibald Ave,,,Rancho Cucamonga,US,CA,91730,Calle Ocho Miami Coffee House,+19095602925,$,5.0,475,[],https://www.yelp.com/biz/calle-ocho-miami-coffee-house-rancho-cucamonga-3?adjust_creative=Wu9gfEkr1Iqmmu5UKQvcJw&utm_campaign=yelp_api_v3&utm_medium=api_v3_business_search&utm_source=Wu9gfEkr1Iqmmu5UKQvcJw
thai-family-upland,['thai'],['Thai'],34.0933160556834,-117.669409774204,(909) 920-3640,39097.63962691746,cf1-rcSgMRfe-PMsNxRviA,https://s3-media3.fl.yelpcdn.com/bphoto/W1jFGdmSU4RJEhTtihSEqw/o.jpg,130 S Mountain Ave,Ste P,,Upland,US,CA,91786,Thai Family,+19099203640,$,4.0,383,['pickup'],https://www.yelp.com/biz/thai-family-upland?adjust_creative=Wu9gfEkr1Iqmmu5UKQvcJw&utm_campaign=yelp_api_v3&utm_medium=api_v3_business_search&utm_source=Wu9gfEkr1Iqmmu5UKQvcJw
bearylicious-upland,"['bubbletea', 'shavedsnow', 'juicebars']","['Bubble Tea', 'Shaved Snow', 'Juice Bars & Smoothies']",34.1064,-117.65547,(909) 931-7700,37304.60297660134,o4hDw12if4tHk7rW5TzkBQ,https://s3-media2.fl.yelpcdn.com/bphoto/zjWqt_9yg7Ki-9fyd__IqQ/o.jpg,318 W Foothill Blvd,,,Upland,US,CA,91786,Bearylicious,+19099317700,$,4.5,236,[],https://www.yelp.com/biz/bearylicious-upland?adjust_creative=Wu9gfEkr1Iqmmu5UKQvcJw&utm_campaign=yelp_api_v3&utm_medium=api_v3_business_search&utm_source=Wu9gfEkr1Iqmmu5UKQvcJw
boonsee-thai-kitchen-norco-norco-3,"['thai', 'bubbletea']","['Thai', 'Bubble Tea']",33.9092322,-117.5831594,(951) 356-5591,46039.55110802535,KqwrdK3bDJNBoWA2vM1oKA,https://s3-media1.fl.yelpcdn.com/bphoto/6vs3YG1O8GruxXkvj4BstA/o.jpg,2051 River Rd,,,Norco,US,CA,92860,Boonsee Thai Kitchen - Norco,+19513565591,$,4.5,423,"['delivery', 'pickup']",https://www.yelp.com/biz/boonsee-thai-kitchen-norco-norco-3?adjust_creative=Wu9gfEkr1Iqmmu5UKQvcJw&utm_campaign=yelp_api_v3&utm_medium=api_v3_business_search&utm_source=Wu9gfEkr1Iqmmu5UKQvcJw
boba-tea-house-loma-linda,['bubbletea'],['Bubble Tea'],34.0485949,-117.2438909,(909) 796-8084,21732.995758572066,LZQc6S2Ir2SJsSYYRqGADQ,https://s3-media2.fl.yelpcdn.com/bphoto/c6MMro5-cJmGzxmgM2whXg/o.jpg,25696 Barton Rd,,,Loma Linda,US,CA,92354,Boba Tea House,+19097968084,$,4.0,417,[],https://www.yelp.com/biz/boba-tea-house-loma-linda?adjust_creative=Wu9gfEkr1Iqmmu5UKQvcJw&utm_campaign=yelp_api_v3&utm_medium=api_v3_business_search&utm_source=Wu9gfEkr1Iqmmu5UKQvcJw
bubble-tea-and-coffee-chino-3,"['coffee', 'bubbletea']","['Coffee & Tea', 'Bubble Tea']",34.03979,-117.69014,(909) 591-9999,43580.83170983891,QbapItI-nCVzfk5uS34Rmg,https://s3-media3.fl.yelpcdn.com/bphoto/4nu8_Ks6MluHKDRvaMUCEg/o.jpg,11756 Central Ave,Ste E,,Chino,US,CA,91710,Bubble Tea & Coffee,+19095919999,$,5.0,74,"['delivery', 'pickup']",https://www.yelp.com/biz/bubble-tea-and-coffee-chino-3?adjust_creative=Wu9gfEkr1Iqmmu5UKQvcJw&utm_campaign=yelp_api_v3&utm_medium=api_v3_business_search&utm_source=Wu9gfEkr1Iqmmu5UKQvcJw
tummy-stuffer-riverside,"['delis', 'sandwiches']","['Delis', 'Sandwiches']",34.0025177001953,-117.340339660645,(951) 369-1266,27120.968145081897,fhRAPevCY6HZayKFyk0NAw,https://s3-media2.fl.yelpcdn.com/bphoto/wQT45qAGxuKErYdrdeCNPw/o.jpg,1159 Iowa Ave,Ste O,,Riverside,US,CA,92507,Tummy Stuffer,+19513691266,$,4.0,198,[],https://www.yelp.com/biz/tummy-stuffer-riverside?adjust_creative=Wu9gfEkr1Iqmmu5UKQvcJw&utm_campaign=yelp_api_v3&utm_medium=api_v3_business_search&utm_source=Wu9gfEkr1Iqmmu5UKQvcJw
quik-stop-subs-moreno-valley,['sandwiches'],['Sandwiches'],33.9111283494322,-117.268845252693,(951) 656-7827,36814.48469614785,Tr5qy5lzcoxSpsOQ3EhOQQ,https://s3-media4.fl.yelpcdn.com/bphoto/vr_snHhX4ETzKErJUCPyiw/o.jpg,14420 Elsworth St,Ste 117,,Moreno Valley,US,CA,92553,Quik Stop Subs,+19516567827,$,4.5,116,[],https://www.yelp.com/biz/quik-stop-subs-moreno-valley?adjust_creative=Wu9gfEkr1Iqmmu5UKQvcJw&utm_campaign=yelp_api_v3&utm_medium=api_v3_business_search&utm_source=Wu9gfEkr1Iqmmu5UKQvcJw
kabuki-japanese-restaurant-rancho-cucamonga-2,"['japanese', 'sushi', 'asianfusion']","['Japanese', 'Sushi Bars', 'Asian Fusion']",34.1119551,-117.5305942,(909) 646-8555,26847.990367041664,GRQ3Fc2_ODoYPO97Fbq7Fw,https://s3-media2.fl.yelpcdn.com/bphoto/ul_Wc7gnaMKp9HR_KRuLBQ/o.jpg,12595 N Mainstreet,,,Rancho Cucamonga,US,CA,91739,Kabuki Japanese Restaurant,+19096468555,$$,3.5,944,"['delivery', 'pickup']",https://www.yelp.com/biz/kabuki-japanese-restaurant-rancho-cucamonga-2?adjust_creative=Wu9gfEkr1Iqmmu5UKQvcJw&utm_campaign=yelp_api_v3&utm_medium=api_v3_business_search&utm_source=Wu9gfEkr1Iqmmu5UKQvcJw
bright-star-vegan-thai-rancho-cucamonga,"['thai', 'vegan']","['Thai', 'Vegan']",34.10609,-117.59067,(909) 980-9797,31997.8809079858,5pp6BvjU0vqm38N1tIOa8g,https://s3-media3.fl.yelpcdn.com/bphoto/J4g0egCumddZhxD6XVKCCA/o.jpg,9819 Foothill Blvd,Ste F,,Rancho Cucamonga,US,CA,91730,Bright Star Vegan Thai,+19099809797,$,4.0,830,[],https://www.yelp.com/biz/bright-star-vegan-thai-rancho-cucamonga?adjust_creative=Wu9gfEkr1Iqmmu5UKQvcJw&utm_campaign=yelp_api_v3&utm_medium=api_v3_business_search&utm_source=Wu9gfEkr1Iqmmu5UKQvcJw
ding-tea-ontario-ontario-2,"['coffee', 'bubbletea']","['Coffee & Tea', 'Bubble Tea']",34.085513,-117.671031,(909) 395-3654,39607.69718764172,8X1y3V53zV-VTsmlxAxaSQ,https://s3-media4.fl.yelpcdn.com/bphoto/1Uqjfz0PJwc4J505xqRqMg/o.jpg,1515 N Mountain Ave,Ste A,,Ontario,US,CA,91762,Ding Tea Ontario,+19093953654,$,4.5,191,"['delivery', 'pickup']",https://www.yelp.com/biz/ding-tea-ontario-ontario-2?adjust_creative=Wu9gfEkr1Iqmmu5UKQvcJw&utm_campaign=yelp_api_v3&utm_medium=api_v3_business_search&utm_source=Wu9gfEkr1Iqmmu5UKQvcJw
p-f-changs-rancho-cucamonga,"['chinese', 'asianfusion', 'gluten_free']","['Chinese', 'Asian Fusion', 'Gluten-Free']",34.110556501142,-117.536469697952,(909) 463-4095,27416.92448624952,gN5BmU0y2T5u23YYezMc9Q,https://s3-media1.fl.yelpcdn.com/bphoto/jJ-DyFEQshFxgdLagPsc9A/o.jpg,7870 Monticello Ave,,,Rancho Cucamonga,US,CA,91739,P.F. Chang's,+19094634095,$$,3.5,478,"['delivery', 'pickup']",https://www.yelp.com/biz/p-f-changs-rancho-cucamonga?adjust_creative=Wu9gfEkr1Iqmmu5UKQvcJw&utm_campaign=yelp_api_v3&utm_medium=api_v3_business_search&utm_source=Wu9gfEkr1Iqmmu5UKQvcJw
mr-you-chinese-food-riverside-3,['chinese'],['Chinese'],34.017229,-117.505036,(951) 681-2111,32207.076957765254,pYm_i2spL7Ln952SwgGfHA,https://s3-media2.fl.yelpcdn.com/bphoto/Rwmggok_AlGjBvxhrSaWLQ/o.jpg,10255 Mission Blvd,Ste D,,Riverside,US,CA,92509,Mr You Chinese Food,+19516812111,$,4.0,187,[],https://www.yelp.com/biz/mr-you-chinese-food-riverside-3?adjust_creative=Wu9gfEkr1Iqmmu5UKQvcJw&utm_campaign=yelp_api_v3&utm_medium=api_v3_business_search&utm_source=Wu9gfEkr1Iqmmu5UKQvcJw
an-ran-ju-gelato-and-teahouse-big-bear-lake-2,"['coffee', 'bubbletea', 'gelato']","['Coffee & Tea', 'Bubble Tea', 'Gelato']",34.242609,-116.911724,(909) 547-7576,34246.51561812857,KDLRSoRQe5ezP7b00pJUEw,https://s3-media3.fl.yelpcdn.com/bphoto/EDPClUX1c4Pxgw83RAePIA/o.jpg,546 Pine Knot Ave,,,Big Bear Lake,US,CA,92315,An Ran Ju Gelato & Teahouse,+19095477576,$,4.5,161,[],https://www.yelp.com/biz/an-ran-ju-gelato-and-teahouse-big-bear-lake-2?adjust_creative=Wu9gfEkr1Iqmmu5UKQvcJw&utm_campaign=yelp_api_v3&utm_medium=api_v3_business_search&utm_source=Wu9gfEkr1Iqmmu5UKQvcJw
canton-chinese-food-moreno-valley,['chinese'],['Chinese'],33.936365,-117.262156,(951) 653-0728,34041.88080592648,Q2we7CApm2mQcf1qGJdxjQ,https://s3-media1.fl.yelpcdn.com/bphoto/95fggCnF6_-UrPYs0s5m5Q/o.jpg,12625 Frederick St,,,Moreno Valley,US,CA,92553,Canton Chinese Food,+19516530728,$,3.5,119,[],https://www.yelp.com/biz/canton-chinese-food-moreno-valley?adjust_creative=Wu9gfEkr1Iqmmu5UKQvcJw&utm_campaign=yelp_api_v3&utm_medium=api_v3_business_search&utm_source=Wu9gfEkr1Iqmmu5UKQvcJw
boba-tea-house-riverside,"['coffee', 'bubbletea', 'breakfast_brunch']","['Coffee & Tea', 'Bubble Tea', 'Breakfast & Brunch']",33.9835452608072,-117.327264400309,(951) 784-7148,29005.716268227214,i3rjzymLW5sr662Yp90Z6Q,https://s3-media1.fl.yelpcdn.com/bphoto/B9jWNUdzvDKJZo813mgZvw/o.jpg,767 W Blaine St,Ste A,,Riverside,US,CA,92507,Boba Tea House,+19517847148,$,4.0,472,[],https://www.yelp.com/biz/boba-tea-house-riverside?adjust_creative=Wu9gfEkr1Iqmmu5UKQvcJw&utm_campaign=yelp_api_v3&utm_medium=api_v3_business_search&utm_source=Wu9gfEkr1Iqmmu5UKQvcJw
manileno-rice-and-noodles-loma-linda,"['filipino', 'noodles']","['Filipino', 'Noodles']",34.063652,-117.260238,(909) 799-9228,19931.150668474544,McFtTI5Ik5MNbozLel8J-w,https://s3-media4.fl.yelpcdn.com/bphoto/kNCfLJ9rEhfel0AJIff0xQ/o.jpg,24950 Redlands Blvd,Ste L,,Loma Linda,US,CA,92354,Manileno Rice & Noodles,+19097999228,$$,2.5,13,[],https://www.yelp.com/biz/manileno-rice-and-noodles-loma-linda?adjust_creative=Wu9gfEkr1Iqmmu5UKQvcJw&utm_campaign=yelp_api_v3&utm_medium=api_v3_business_search&utm_source=Wu9gfEkr1Iqmmu5UKQvcJw
olive-grill-ontario,"['tradamerican', 'sandwiches', 'asianfusion']","['American (Traditional)', 'Sandwiches', 'Asian Fusion']",34.06045,-117.55866,(909) 605-0707,32318.858778840484,Kt-eRvm2zATey_IirEZNmA,https://s3-media1.fl.yelpcdn.com/bphoto/7tvZzAFuPPe8Q3pbgslKEQ/o.jpg,302 S Milliken Ave,Ste C,,Ontario,US,CA,91761,Olive Grill,+19096050707,$,4.5,369,[],https://www.yelp.com/biz/olive-grill-ontario?adjust_creative=Wu9gfEkr1Iqmmu5UKQvcJw&utm_campaign=yelp_api_v3&utm_medium=api_v3_business_search&utm_source=Wu9gfEkr1Iqmmu5UKQvcJw
thai-kitchen-bowl-fontana,['thai'],['Thai'],34.0768231,-117.4355451,(909) 822-6488,22997.541544072854,JmsgjdbVKCLaE6ebvd-qGg,https://s3-media3.fl.yelpcdn.com/bphoto/ZBwaojdXpmS705_SDnATWw/o.jpg,9731 Sierra Ave,,,Fontana,US,CA,92335,Thai Kitchen Bowl,+19098226488,$,3.5,274,[],https://www.yelp.com/biz/thai-kitchen-bowl-fontana?adjust_creative=Wu9gfEkr1Iqmmu5UKQvcJw&utm_campaign=yelp_api_v3&utm_medium=api_v3_business_search&utm_source=Wu9gfEkr1Iqmmu5UKQvcJw
take-ur-seat-chino-hills,"['breakfast_brunch', 'asianfusion', 'cafes']","['Breakfast & Brunch', 'Asian Fusion', 'Cafes']",33.965156,-117.691034,(909) 479-1883,48475.364926650785,GTKW6RDpGJYZWkOXRWQieA,https://s3-media1.fl.yelpcdn.com/bphoto/XjKsAh4cE99YTIxBrTJrfw/o.jpg,15871 Pomona Rincon Rd,Ste 100,,Chino Hills,US,CA,91709,Take Ur Seat,+19094791883,$$,4.5,293,[],https://www.yelp.com/biz/take-ur-seat-chino-hills?adjust_creative=Wu9gfEkr1Iqmmu5UKQvcJw&utm_campaign=yelp_api_v3&utm_medium=api_v3_business_search&utm_source=Wu9gfEkr1Iqmmu5UKQvcJw
p-f-changs-riverside-3,"['chinese', 'asianfusion', 'gluten_free']","['Chinese', 'Asian Fusion', 'Gluten-Free']",33.9072695329793,-117.456891238689,(951) 689-4020,40469.251656400746,UP9T2uqbwsU5y3h53QqtzQ,https://s3-media2.fl.yelpcdn.com/bphoto/mBANtEnvFXBU6yVZCjvAwg/o.jpg,3475 Tyler St,,,Riverside,US,CA,92503,P.F. Chang's,+19516894020,$$,3.5,401,"['delivery', 'pickup']",https://www.yelp.com/biz/p-f-changs-riverside-3?adjust_creative=Wu9gfEkr1Iqmmu5UKQvcJw&utm_campaign=yelp_api_v3&utm_medium=api_v3_business_search&utm_source=Wu9gfEkr1Iqmmu5UKQvcJw
frice-riverside-5,['szechuan'],['Szechuan'],33.97617,-117.33941,(951) 686-2182,29991.029294686872,-gkBQhE74zz_N2yAaUu75Q,https://s3-media2.fl.yelpcdn.com/bphoto/XYAg-gnuDj34nG_R1aoEIA/o.jpg,1299 University Ave,Ste 104-E,,Riverside,US,CA,92507,Frice,+19516862182,$$,4.0,151,[],https://www.yelp.com/biz/frice-riverside-5?adjust_creative=Wu9gfEkr1Iqmmu5UKQvcJw&utm_campaign=yelp_api_v3&utm_medium=api_v3_business_search&utm_source=Wu9gfEkr1Iqmmu5UKQvcJw
lucky-kitchen-eastvale-2,['thai'],['Thai'],33.9753349,-117.5511769,(951) 361-3300,38493.13627332011,pnSpZ_Ax_roSL1LCzYS1JA,https://s3-media2.fl.yelpcdn.com/bphoto/AH2XRT1FhVWi-ZqEWhKepw/o.jpg,12257 Limonite Ave,Ste 820,,Eastvale,US,CA,91752,Lucky Kitchen,+19513613300,$$,3.5,116,['pickup'],https://www.yelp.com/biz/lucky-kitchen-eastvale-2?adjust_creative=Wu9gfEkr1Iqmmu5UKQvcJw&utm_campaign=yelp_api_v3&utm_medium=api_v3_business_search&utm_source=Wu9gfEkr1Iqmmu5UKQvcJw
zaky-mediterranean-grill-upland,"['mediterranean', 'vegetarian']","['Mediterranean', 'Vegetarian']",34.10739,-117.6658,(909) 982-0700,38148.045996475026,6p7W_fTT9vztFJsrp0cxwg,https://s3-media2.fl.yelpcdn.com/bphoto/sQgwgQzKhSjaBqLBybKH1Q/o.jpg,1013 W Foothill Blvd,,,Upland,US,CA,91786,Zaky Mediterranean Grill,+19099820700,$$,3.5,197,"['delivery', 'pickup']",https://www.yelp.com/biz/zaky-mediterranean-grill-upland?adjust_creative=Wu9gfEkr1Iqmmu5UKQvcJw&utm_campaign=yelp_api_v3&utm_medium=api_v3_business_search&utm_source=Wu9gfEkr1Iqmmu5UKQvcJw
ramen-okawari-riverside,"['ramen', 'noodles', 'comfortfood']","['Ramen', 'Noodles', 'Comfort Food']",33.97711,-117.3395,(951) 680-9411,29916.068729954095,M4ykNtJ5HyWeNUVIQ7mfTw,https://s3-media2.fl.yelpcdn.com/bphoto/9-iymI_tphX6NXUp4dyZEw/o.jpg,3740 Iowa Ave,Ste 104,,Riverside,US,CA,92507,Ramen Okawari,+19516809411,$$,3.5,356,[],https://www.yelp.com/biz/ramen-okawari-riverside?adjust_creative=Wu9gfEkr1Iqmmu5UKQvcJw&utm_campaign=yelp_api_v3&utm_medium=api_v3_business_search&utm_source=Wu9gfEkr1Iqmmu5UKQvcJw
mr-you-chinese-food-rialto-2,['chinese'],['Chinese'],34.10785,-117.3957,(909) 877-6700,18072.09919150749,iDrDyCHB8DwXfKE50hLEWw,https://s3-media3.fl.yelpcdn.com/bphoto/uJ_SlEG5ot0Hzs-sMs2t4Q/o.jpg,1270 W Foothill Blvd,,,Rialto,US,CA,92376,Mr You Chinese Food,+19098776700,$,2.0,73,[],https://www.yelp.com/biz/mr-you-chinese-food-rialto-2?adjust_creative=Wu9gfEkr1Iqmmu5UKQvcJw&utm_campaign=yelp_api_v3&utm_medium=api_v3_business_search&utm_source=Wu9gfEkr1Iqmmu5UKQvcJw
the-9th-street-eatery-riverside-2,"['sandwiches', 'breakfast_brunch', 'asianfusion']","['Sandwiches', 'Breakfast & Brunch', 'Asian Fusion']",33.97987,-117.37322,(951) 686-3231,30271.173659356733,THiLO_BTBfqMQvZr8o9RQg,https://s3-media3.fl.yelpcdn.com/bphoto/joHh4uk8bFGKAlQ6PZzN2A/o.jpg,3530 9th St,,,Riverside,US,CA,92501,The 9th Street Eatery,+19516863231,$,4.0,81,['pickup'],https://www.yelp.com/biz/the-9th-street-eatery-riverside-2?adjust_creative=Wu9gfEkr1Iqmmu5UKQvcJw&utm_campaign=yelp_api_v3&utm_medium=api_v3_business_search&utm_source=Wu9gfEkr1Iqmmu5UKQvcJw
monark-asian-bistro-riverside,"['chinese', 'thai', 'asianfusion']","['Chinese', 'Thai', 'Asian Fusion']",33.9563457764989,-117.3318531232,(951) 683-1073,32059.608868796524,6Wvvv634l173k4GObJcYAA,https://s3-media4.fl.yelpcdn.com/bphoto/k89u9J8SdLC2f4ru2-Ghgw/o.jpg,5225 Canyon Crest Dr,Ste 64,,Riverside,US,CA,92507,Monark Asian Bistro,+19516831073,$$,3.5,150,[],https://www.yelp.com/biz/monark-asian-bistro-riverside?adjust_creative=Wu9gfEkr1Iqmmu5UKQvcJw&utm_campaign=yelp_api_v3&utm_medium=api_v3_business_search&utm_source=Wu9gfEkr1Iqmmu5UKQvcJw
oasis-vegetarian-cafe-riverside,"['vegetarian', 'vegan']","['Vegetarian', 'Vegan']",33.914905,-117.495704,(951) 688-5423,41326.60370134887,79Y2yU3wsDxBYJG1wM_sVA,https://s3-media4.fl.yelpcdn.com/bphoto/Noan2iXDVjkn7be6b_LqMw/o.jpg,11550 Pierce St,,,Riverside,US,CA,92505,Oasis Vegetarian Cafe,+19516885423,$,4.5,640,"['pickup', 'delivery']",https://www.yelp.com/biz/oasis-vegetarian-cafe-riverside?adjust_creative=Wu9gfEkr1Iqmmu5UKQvcJw&utm_campaign=yelp_api_v3&utm_medium=api_v3_business_search&utm_source=Wu9gfEkr1Iqmmu5UKQvcJw
d-elias-grinders-riverside,['sandwiches'],['Sandwiches'],33.975812,-117.356708,(951) 683-7380,30336.270290849952,QvUoQUbcWJvxV-9gDjI4Sg,https://s3-media2.fl.yelpcdn.com/bphoto/1b8PadV65sMJwLzak_OHtg/o.jpg,2093 University Ave,,,Riverside,US,CA,92507,D'Elia's Grinders,+19516837380,$,3.5,498,[],https://www.yelp.com/biz/d-elias-grinders-riverside?adjust_creative=Wu9gfEkr1Iqmmu5UKQvcJw&utm_campaign=yelp_api_v3&utm_medium=api_v3_business_search&utm_source=Wu9gfEkr1Iqmmu5UKQvcJw
china-one-fontana,['chinese'],['Chinese'],34.152332,-117.473216,(909) 463-6260,20031.078100404127,GDQzvFHDlVx0OECL5c4O1A,https://s3-media2.fl.yelpcdn.com/bphoto/waAFpPUSLKmGJaGoNd2i5w/o.jpg,15268 Summit Ave,Ste 200,,Fontana,US,CA,92336,China One,+19094636260,$,3.5,291,"['pickup', 'delivery']",https://www.yelp.com/biz/china-one-fontana?adjust_creative=Wu9gfEkr1Iqmmu5UKQvcJw&utm_campaign=yelp_api_v3&utm_medium=api_v3_business_search&utm_source=Wu9gfEkr1Iqmmu5UKQvcJw
east-coast-bagel-riverside,"['bagels', 'sandwiches']","['Bagels', 'Sandwiches']",33.956663,-117.330738,(951) 781-0310,32010.78503984773,dfIwydGaF9pf80H0WK0-oA,https://s3-media4.fl.yelpcdn.com/bphoto/6BM0qcQa3Dp81AMaJonQzA/o.jpg,5225 Canyon Crest Dr,Ste 34,,Riverside,US,CA,92507,East Coast Bagel,+19517810310,$,4.0,184,[],https://www.yelp.com/biz/east-coast-bagel-riverside?adjust_creative=Wu9gfEkr1Iqmmu5UKQvcJw&utm_campaign=yelp_api_v3&utm_medium=api_v3_business_search&utm_source=Wu9gfEkr1Iqmmu5UKQvcJw
mr-china-express-riverside,['chinese'],['Chinese'],33.94579,-117.43658,(951) 687-8967,35804.43481890801,M8LLBe7oN_AWOBMgtBJUcg,https://s3-media3.fl.yelpcdn.com/bphoto/jblOTq6WuPoP-imQ5kxF2Q/o.jpg,6160 Arlington Ave,,,Riverside,US,CA,92504,Mr China Express,+19516878967,$,2.0,26,[],https://www.yelp.com/biz/mr-china-express-riverside?adjust_creative=Wu9gfEkr1Iqmmu5UKQvcJw&utm_campaign=yelp_api_v3&utm_medium=api_v3_business_search&utm_source=Wu9gfEkr1Iqmmu5UKQvcJw
cafe-gossip-moreno-valley,"['bbq', 'korean', 'soup']","['Barbeque', 'Korean', 'Soup']",33.9388265,-117.2488304,(951) 485-9780,33856.721624464,eeyT2u_Yn3bC6J6TFV6mdw,https://s3-media3.fl.yelpcdn.com/bphoto/4Vh-wr4BYoidndjzz-GGqA/o.jpg,23663 Sunnymead Blvd,,,Moreno Valley,US,CA,92553,Cafe Gossip,+19514859780,$,3.5,86,[],https://www.yelp.com/biz/cafe-gossip-moreno-valley?adjust_creative=Wu9gfEkr1Iqmmu5UKQvcJw&utm_campaign=yelp_api_v3&utm_medium=api_v3_business_search&utm_source=Wu9gfEkr1Iqmmu5UKQvcJw
boba-world-montclair,['bubbletea'],['Bubble Tea'],34.0869369284923,-117.693703017582,(909) 626-2442,41425.386717154994,L6N9k9ZdxC_H9F621y14Pg,https://s3-media1.fl.yelpcdn.com/bphoto/F5ejQqCGGpOWggRHdw3ztQ/o.jpg,5060 N Montclair Plaza Ln,Ste 2118,,Montclair,US,CA,91763,Boba World,+19096262442,$,3.5,45,[],https://www.yelp.com/biz/boba-world-montclair?adjust_creative=Wu9gfEkr1Iqmmu5UKQvcJw&utm_campaign=yelp_api_v3&utm_medium=api_v3_business_search&utm_source=Wu9gfEkr1Iqmmu5UKQvcJw
double-or-nothin-pizza-ontario,"['pizza', 'sandwiches']","['Pizza', 'Sandwiches']",34.0295896181498,-117.610945742259,(909) 947-6010,38095.198529445224,Z2w8hWezUxSDjhK7y5DLCQ,https://s3-media4.fl.yelpcdn.com/bphoto/yHWUdy8OpR_cCa4AkiPA8Q/o.jpg,2411 S Vineyard Ave,Ste E,,Ontario,US,CA,91761,Double or Nothin Pizza,+19099476010,$,3.5,37,[],https://www.yelp.com/biz/double-or-nothin-pizza-ontario?adjust_creative=Wu9gfEkr1Iqmmu5UKQvcJw&utm_campaign=yelp_api_v3&utm_medium=api_v3_business_search&utm_source=Wu9gfEkr1Iqmmu5UKQvcJw
the-pub-at-chino-hills-chino-hills,"['gastropubs', 'bars', 'sandwiches']","['Gastropubs', 'Bars', 'Sandwiches']",33.946648,-117.678931,(909) 597-2224,48978.05286061611,SYn1QrJTrl0egoAJdCPDlw,https://s3-media3.fl.yelpcdn.com/bphoto/o5ceJgRb05SLCw2jcDgelg/o.jpg,5771 Pine Ave,Ste A,,Chino Hills,US,CA,91709,The Pub At Chino Hills,+19095972224,$$,3.5,500,"['pickup', 'delivery']",https://www.yelp.com/biz/the-pub-at-chino-hills-chino-hills?adjust_creative=Wu9gfEkr1Iqmmu5UKQvcJw&utm_campaign=yelp_api_v3&utm_medium=api_v3_business_search&utm_source=Wu9gfEkr1Iqmmu5UKQvcJw
